{"version": 0.6, "generator": "Overpass API 0.7.61.5 4133829e", "osm3s": {"timestamp_osm_base": "2023-11-02T14:32:19Z", "copyright": "The data included in this document is from www.openstreetmap.org. The data is made available under ODbL."}, "elements": [{"type": "node", "id": 1042137848, "lat": -52.4993911, "lon": -68.7245716, "tags": {"aeroway": "helipad", "name": "Anguila 1 Heliport", "seamark:platform:category": "gas", "seamark:type": "platform", "source": "ourairports.com"}}, {"type": "node", "id": 1042137929, "lat": -52.5637047, "lon": -68.6743937, "tags": {"aeroway": "helipad", "man_made": "offshore_platform", "name": "Catalina Norte 1 Heliport", "seamark:platform:category": "gas", "seamark:type": "platform", "source": "ourairports.com"}}, {"type": "node", "id": 1042137944, "lat": -52.5752792, "lon": -69.6636124, "tags": {"aeroway": "helipad", "name": "Catalina Norte 2 Heliport", "seamark:platform:category": "gas", "seamark:type": "platform", "source": "ourairports.com"}}, {"type": "node", "id": 1042138156, "lat": -52.2681675, "lon": -69.0720458, "tags": {"aeroway": "helipad", "man_made": "offshore_platform", "name": "Posesi\u00f3n 5 Heliport", "seamark:platform:category": "gas", "seamark:type": "platform", "source": "ourairports.com"}}, {"type": "node", "id": 1042138166, "lat": -52.4091532, "lon": -68.7842246, "tags": {"aeroway": "helipad", "man_made": "offshore_platform", "name": "Skua 1 Heliport", "seamark:platform:category": "gas", "seamark:type": "platform", "source": "ourairports.com"}}, {"type": "node", "id": 1042143603, "lat": -52.6832691, "lon": -68.0420194, "tags": {"aeroway": "helipad", "name": "Aries Heliport", "seamark:fog_signal:category": "horn", "seamark:light:character": "Mo", "seamark:light:colour": "red", "seamark:light:group": "U", "seamark:light:height": "15", "seamark:light:period": "15", "seamark:light:range": "10", "seamark:name": "Aries", "seamark:platform:category": "gas", "seamark:radar_transponder:group": "D", "seamark:radar_transponder:wavelength": "0.03-X", "seamark:radio_station:category": "ais", "seamark:type": "platform", "source": "ourairports.com"}}, {"type": "node", "id": 1042143729, "lat": -52.5192, "lon": -68.3858, "tags": {"aeroway": "helipad", "name": "Heliplataforma Am I Heliport", "seamark:platform:category": "gas", "seamark:type": "platform", "source": "ourairports.com"}}, {"type": "node", "id": 1042143733, "lat": -52.7572, "lon": -67.2194, "tags": {"aeroway": "helipad", "name": "Heliplataforma Carina Heliport", "seamark:fog_signal:category": "horn", "seamark:light:character": "Mo", "seamark:light:colour": "red", "seamark:light:group": "U", "seamark:light:period": "15", "seamark:light:range": "10", "seamark:name": "Carina", "seamark:platform:category": "gas", "seamark:radar_transponder:group": "M", "seamark:radar_transponder:wavelength": "0.03-X", "seamark:radio_station:category": "ais", "seamark:type": "platform", "source": "ourairports.com"}}, {"type": "node", "id": 1042143738, "lat": -52.5489, "lon": -68.3125, "tags": {"aeroway": "helipad", "name": "Heliplataforma/Am-2 Heliport", "seamark:fog_signal:category": "horn", "seamark:light:character": "Mo", "seamark:light:colour": "red", "seamark:light:group": "U", "seamark:light:height": "25", "seamark:light:period": "15", "seamark:light:range": "10", "seamark:name": "AM-2", "seamark:platform:category": "oil", "seamark:radio_station:category": "ais", "seamark:type": "platform", "source": "ourairports.com"}}, {"type": "node", "id": 1042143741, "lat": -52.5225636, "lon": -68.2803492, "tags": {"aeroway": "helipad", "name": "Heliplataforma/Am3 Heliport", "seamark:fog_signal:category": "horn", "seamark:light:character": "Mo", "seamark:light:colour": "red", "seamark:light:group": "U", "seamark:light:height": "25", "seamark:light:period": "15", "seamark:light:range": "10", "seamark:name": "AM-3", "seamark:platform:category": "gas", "seamark:radio_station:category": "ais", "seamark:type": "platform", "source": "ourairports.com"}}, {"type": "node", "id": 1042143745, "lat": -52.5706033, "lon": -68.2520608, "tags": {"aeroway": "helipad", "name": "Heliplataforma/Am5 Heliport", "seamark:fog_signal:category": "horn", "seamark:light:character": "Mo", "seamark:light:colour": "red", "seamark:light:group": "U", "seamark:light:height": "25", "seamark:light:period": "15", "seamark:light:range": "10", "seamark:name": "AM-5", "seamark:platform:category": "oil", "seamark:radio_station:category": "ais", "seamark:type": "platform", "source": "ourairports.com"}}, {"type": "node", "id": 1042143749, "lat": -52.8205282, "lon": -68.219523, "tags": {"aeroway": "helipad", "name": "Heliplataforma/Rio Cullen-Hidra Norte Heliport", "seamark:light:character": "Mo", "seamark:light:colour": "red", "seamark:light:group": "U", "seamark:light:height": "25", "seamark:light:period": "15", "seamark:light:range": "10", "seamark:name": "Hidra North", "seamark:platform:category": "gas", "seamark:type": "platform", "source": "ourairports.com"}}, {"type": "node", "id": 1042144153, "lat": -52.5489791, "lon": -68.3115258, "tags": {"aeroway": "helipad", "name": "Heliplataforma Equipo Modular M-10 Heliport", "seamark:platform:category": "gas", "seamark:type": "platform", "source": "ourairports.com"}}, {"type": "node", "id": 1042144228, "lat": -52.8364138, "lon": -68.1793506, "tags": {"aeroway": "helipad", "name": "Rio Cullen II Heliplatform", "seamark:light:character": "Mo", "seamark:light:colour": "red", "seamark:light:group": "U", "seamark:light:height": "30", "seamark:light:period": "15", "seamark:light:range": "10", "seamark:name": "Hidra Centro", "seamark:platform:category": "gas", "seamark:radio_station:category": "ais", "seamark:type": "platform", "source": "ourairports.com"}}, {"type": "node", "id": 1042151894, "lat": -52.3645643, "lon": -68.7637513, "tags": {"aeroway": "helipad", "man_made": "offshore_platform", "name": "Daniel 1 Heliport", "seamark:platform:category": "gas", "seamark:type": "platform", "source": "ourairports.com"}}, {"type": "node", "id": 1042152029, "lat": -52.3758557, "lon": -68.7874414, "tags": {"aeroway": "helipad", "man_made": "offshore_platform", "name": "Skua 4 Heliport", "seamark:platform:category": "gas", "seamark:type": "platform", "source": "ourairports.com"}}, {"type": "node", "id": 5614860242, "lat": -52.5313652, "lon": -68.3845712, "tags": {"seamark:fog_signal:category": "horn", "seamark:light:character": "Mo", "seamark:light:colour": "red", "seamark:light:group": "U", "seamark:light:height": "25", "seamark:light:period": "15", "seamark:light:range": "10", "seamark:name": "AM-1", "seamark:platform:category": "oil", "seamark:radio_station:category": "ais", "seamark:type": "platform"}}, {"type": "node", "id": 5614860243, "lat": -52.6062272, "lon": -68.129139, "tags": {"seamark:fog_signal:category": "horn", "seamark:light:character": "Mo", "seamark:light:colour": "red", "seamark:light:group": "U", "seamark:light:height": "25", "seamark:light:period": "15", "seamark:light:range": "10", "seamark:name": "AM-6", "seamark:platform:category": "oil", "seamark:radio_station:category": "ais", "seamark:type": "platform"}}, {"type": "node", "id": 5614868955, "lat": -52.6122308, "lon": -68.4493733, "tags": {"seamark:fog_signal:category": "horn", "seamark:light:character": "Mo", "seamark:light:colour": "red", "seamark:light:group": "U", "seamark:light:height": "30", "seamark:light:period": "15", "seamark:light:range": "10", "seamark:name": "Poseid\u00f3n", "seamark:platform:category": "oil", "seamark:radio_station:category": "ais", "seamark:type": "platform"}}, {"type": "node", "id": 5614869011, "lat": -53.2989788, "lon": -67.7446176, "tags": {"seamark:light:character": "Mo", "seamark:light:colour": "red", "seamark:light:group": "U", "seamark:light:period": "15", "seamark:light:range": "10", "seamark:name": "Vega-Pl\u00e9yade", "seamark:platform:category": "gas", "seamark:radar_transponder:group": "Z", "seamark:radar_transponder:wavelength": "0.03-X", "seamark:radio_station:category": "ais", "seamark:type": "platform"}}, {"type": "node", "id": 7850089362, "lat": -52.5753451, "lon": -68.6624695, "tags": {"aeroway": "helipad", "man_made": "offshore_platform", "ref": "s", "seamark:type": "platform"}}, {"type": "node", "id": 7851290538, "lat": -52.6111882, "lon": -69.0127215, "tags": {"aeroway": "helipad", "man_made": "offshore_platform", "seamark:type": "platform"}}, {"type": "node", "id": 7851290539, "lat": -52.5979348, "lon": -69.012542, "tags": {"aeroway": "helipad", "man_made": "offshore_platform", "seamark:type": "platform"}}, {"type": "node", "id": 7851363196, "lat": -52.518355, "lon": -69.0171417, "tags": {"aeroway": "helipad", "man_made": "offshore_platform", "seamark:type": "platform"}}, {"type": "node", "id": 7851363197, "lat": -52.5053062, "lon": -69.0225867, "tags": {"aeroway": "helipad", "man_made": "offshore_platform", "seamark:type": "platform"}}, {"type": "node", "id": 7851363198, "lat": -52.5030651, "lon": -69.0348431, "tags": {"aeroway": "helipad", "man_made": "offshore_platform", "seamark:type": "platform"}}, {"type": "node", "id": 7851363199, "lat": -52.4890367, "lon": -69.0272002, "tags": {"aeroway": "helipad", "man_made": "offshore_platform", "seamark:type": "platform"}}, {"type": "node", "id": 7851363200, "lat": -52.4852316, "lon": -69.0393315, "tags": {"aeroway": "helipad", "man_made": "offshore_platform", "seamark:type": "platform"}}, {"type": "node", "id": 7851363201, "lat": -52.4398987, "lon": -69.0598269, "tags": {"aeroway": "helipad", "man_made": "offshore_platform", "seamark:type": "platform"}}, {"type": "node", "id": 7851363202, "lat": -52.4153631, "lon": -69.0785507, "tags": {"aeroway": "helipad", "man_made": "offshore_platform", "seamark:type": "platform"}}, {"type": "node", "id": 7851363203, "lat": -52.4012505, "lon": -69.0781016, "tags": {"aeroway": "helipad", "man_made": "offshore_platform", "seamark:type": "platform"}}, {"type": "node", "id": 7851363204, "lat": -52.3756182, "lon": -69.0803964, "tags": {"aeroway": "helipad", "man_made": "offshore_platform", "seamark:type": "platform"}}, {"type": "node", "id": 7851363205, "lat": -52.3732373, "lon": -69.0975937, "tags": {"aeroway": "helipad", "man_made": "offshore_platform", "seamark:type": "platform"}}, {"type": "node", "id": 7851363206, "lat": -52.3469035, "lon": -69.0853202, "tags": {"aeroway": "helipad", "man_made": "offshore_platform", "seamark:type": "platform"}}, {"type": "node", "id": 7851363207, "lat": -52.3349566, "lon": -69.0748721, "tags": {"aeroway": "helipad", "man_made": "offshore_platform", "seamark:type": "platform"}}, {"type": "node", "id": 7851363208, "lat": -52.3163399, "lon": -69.0645298, "tags": {"aeroway": "helipad", "man_made": "offshore_platform", "seamark:type": "platform"}}, {"type": "node", "id": 7851363209, "lat": -52.3091023, "lon": -69.0789459, "tags": {"aeroway": "helipad", "man_made": "offshore_platform", "seamark:type": "platform"}}, {"type": "node", "id": 7851363210, "lat": -52.3512187, "lon": -68.9931096, "tags": {"aeroway": "helipad", "man_made": "offshore_platform", "seamark:type": "platform"}}, {"type": "node", "id": 7851363211, "lat": -52.5285588, "lon": -68.8960941, "tags": {"aeroway": "helipad", "man_made": "offshore_platform", "seamark:type": "platform"}}, {"type": "node", "id": 7851363212, "lat": -52.3902885, "lon": -68.7872638, "tags": {"aeroway": "helipad", "man_made": "offshore_platform", "seamark:type": "platform"}}, {"type": "node", "id": 7851363213, "lat": -52.35662, "lon": -68.7958141, "tags": {"aeroway": "helipad", "man_made": "offshore_platform", "seamark:type": "platform"}}, {"type": "node", "id": 7851363214, "lat": -52.3722433, "lon": -68.7097596, "tags": {"aeroway": "helipad", "man_made": "offshore_platform", "seamark:type": "platform"}}, {"type": "node", "id": 7851363215, "lat": -52.4472009, "lon": -68.5204913, "tags": {"aeroway": "helipad", "man_made": "offshore_platform", "seamark:type": "platform"}}, {"type": "node", "id": 7851363216, "lat": -52.4034856, "lon": -68.516754, "tags": {"aeroway": "helipad", "man_made": "offshore_platform", "seamark:type": "platform"}}, {"type": "node", "id": 7851363217, "lat": -52.3722496, "lon": -68.4787026, "tags": {"aeroway": "helipad", "man_made": "offshore_platform", "seamark:type": "platform"}}, {"type": "node", "id": 7851363218, "lat": -52.366138, "lon": -68.4920287, "tags": {"aeroway": "helipad", "man_made": "offshore_platform", "seamark:type": "platform"}}, {"type": "node", "id": 7851363219, "lat": -52.3648226, "lon": -68.5101629, "tags": {"aeroway": "helipad", "man_made": "offshore_platform", "seamark:type": "platform"}}, {"type": "node", "id": 8001774465, "lat": -52.5491357, "lon": -68.3211023, "tags": {"abandoned": "yes", "abandoned:man_made": "offshore_platform", "depth": "2020", "ele": "0", "field_name": "Magallanes (mag)", "name": "SH-CMA14-MFI-10 x-1", "operator": "Enap Sipetrol Argentina S.A.", "pump": "no", "ref": "134939", "seamark:type": "platform", "source": "http://datos.minem.gob.ar/"}}, {"type": "node", "id": 8001774466, "lat": -52.5490512, "lon": -68.3112911, "tags": {"depth": "1760", "ele": "0", "field_name": "Magallanes (mag)", "man_made": "offshore_platform", "name": "SIP.MAG.AM-212", "operator": "Enap Sipetrol Argentina S.A.", "pump": "no", "ref": "29032", "seamark:type": "platform", "source": "http://datos.minem.gob.ar/", "substance": "oil"}}, {"type": "node", "id": 8001774467, "lat": -52.5225839, "lon": -68.2804175, "tags": {"depth": "1685", "ele": "0", "field_name": "Magallanes (mag)", "man_made": "offshore_platform", "name": "SIP.MAG.AM-303", "operator": "Enap Sipetrol Argentina S.A.", "pump": "no", "ref": "33870", "seamark:type": "platform", "source": "http://datos.minem.gob.ar/", "substance": "oil"}}, {"type": "node", "id": 8001774468, "lat": -52.8205022, "lon": -68.2197316, "tags": {"depth": "2187", "ele": "40.1", "field_name": "Cuenca Marina Austral 1 (cau)", "man_made": "offshore_platform", "name": "TA.CMA-9.HNI-4", "operator": "Total Austral S.A.", "ref": "10491", "seamark:type": "platform", "source": "http://datos.minem.gob.ar/"}}, {"type": "node", "id": 8001774469, "lat": -52.56383, "lon": -67.22077, "tags": {"abandoned": "yes", "abandoned:man_made": "offshore_platform", "depth": "1112", "ele": "33.6", "field_name": "Cuenca Marina Austral 1 (cau)", "name": "TA.CAM-1.Tau.e-2", "operator": "Total Austral S.A.", "pump": "no", "ref": "10311", "seamark:type": "platform", "source": "http://datos.minem.gob.ar/"}}, {"type": "node", "id": 8001774470, "lat": -51.6529796, "lon": -68.5948013, "tags": {"abandoned": "yes", "abandoned:man_made": "offshore_platform", "depth": "1255", "ele": "33", "field_name": "Octans-pegaso (ope)", "name": "SH.CMA-14.GBB9.x-1", "operator": "Enap Sipetrol Argentina S.A.", "pump": "no", "ref": "134901", "seamark:type": "platform", "source": "http://datos.minem.gob.ar/", "substance": "gas"}}, {"type": "node", "id": 8001774471, "lat": -52.5705768, "lon": -68.2521373, "tags": {"depth": "2900", "ele": "0", "field_name": "Magallanes (mag)", "man_made": "offshore_platform", "name": "SIP.MAG.AM-512", "operator": "Enap Sipetrol Argentina S.A.", "pump": "no", "ref": "129828", "seamark:type": "platform", "source": "http://datos.minem.gob.ar/", "substance": "oil"}}, {"type": "node", "id": 8001774472, "lat": -51.298154, "lon": -68.776691, "tags": {"abandoned": "yes", "abandoned:man_made": "offshore_platform", "depth": "1231", "ele": "0", "field_name": "E-2 (enarsa-2) (ena2)", "name": "SCA T Er x-1", "pump": "no", "ref": "134932", "seamark:type": "platform", "source": "http://datos.minem.gob.ar/"}}, {"type": "node", "id": 8001774473, "lat": -52.5489954, "lon": -68.3112782, "tags": {"depth": "3007", "ele": "0", "field_name": "Magallanes (mag)", "man_made": "offshore_platform", "name": "SIP.MAG.AM-205", "operator": "Enap Sipetrol Argentina S.A.", "pump": "no", "ref": "29025", "seamark:type": "platform", "source": "http://datos.minem.gob.ar/", "substance": "oil"}}, {"type": "node", "id": 8001774474, "lat": -52.611784, "lon": -68.129844, "tags": {"abandoned": "yes", "abandoned:man_made": "offshore_platform", "depth": "1702", "ele": "0", "field_name": "Magallanes (mag)", "name": "SIP.MAG.AM-XE-5", "operator": "Enap Sipetrol Argentina S.A.", "pump": "no", "ref": "33867", "seamark:type": "platform", "source": "http://datos.minem.gob.ar/"}}, {"type": "node", "id": 8001774475, "lat": -52.8205184, "lon": -68.2197744, "tags": {"depth": "2180", "ele": "40.1", "field_name": "Cuenca Marina Austral 1 (cau)", "man_made": "offshore_platform", "name": "TA.CMA-9.HNP-9", "operator": "Total Austral S.A.", "ref": "10484", "seamark:type": "platform", "source": "http://datos.minem.gob.ar/", "substance": "oil"}}, {"type": "node", "id": 8001774476, "lat": -52.5489955, "lon": -68.3114949, "tags": {"depth": "1662", "ele": "0", "field_name": "Magallanes (mag)", "man_made": "offshore_platform", "name": "SIP.MAG.AM-211", "operator": "Enap Sipetrol Argentina S.A.", "pump": "no", "ref": "129815", "seamark:type": "platform", "source": "http://datos.minem.gob.ar/", "substance": "oil"}}, {"type": "node", "id": 8001774477, "lat": -52.7571194, "lon": -67.2194972, "tags": {"depth": "2700", "ele": "50.91", "end_date": "2015-04-27", "field_name": "Cuenca Marina Austral 1 (cau)", "man_made": "offshore_platform", "name": "TAU.MA.Car.1-4(h)", "operator": "Total Austral S.A.", "pump": "no", "ref": "154796", "seamark:type": "platform", "source": "http://datos.minem.gob.ar/", "start_date": "2015-03-13", "substance": "gas"}}, {"type": "node", "id": 8001774478, "lat": -52.6832752, "lon": -68.0419877, "tags": {"depth": "1785", "ele": "50.5", "field_name": "Cuenca Marina Austral 1 (cau)", "man_made": "offshore_platform", "name": "TA.CMA-1.Ari.P-1", "operator": "Total Austral S.A.", "pump": "no", "ref": "10304", "seamark:type": "platform", "source": "http://datos.minem.gob.ar/", "substance": "gas"}}, {"type": "node", "id": 8001774479, "lat": -52.5705316, "lon": -68.2522048, "tags": {"depth": "2872", "ele": "0", "field_name": "Magallanes (mag)", "man_made": "offshore_platform", "name": "SIP.MAG.AM-505", "operator": "Enap Sipetrol Argentina S.A.", "pump": "no", "ref": "129821", "seamark:type": "platform", "source": "http://datos.minem.gob.ar/", "substance": "oil"}}, {"type": "node", "id": 8001774480, "lat": -52.159929, "lon": -68.304111, "tags": {"abandoned": "yes", "abandoned:man_made": "offshore_platform", "depth": "1350", "ele": "0", "field_name": "E-2 (enarsa-2) (ena2)", "name": "SH-CMA14 Ss x-1", "pump": "no", "ref": "134929", "seamark:type": "platform", "source": "http://datos.minem.gob.ar/"}}, {"type": "node", "id": 8001774481, "lat": -52.5490134, "lon": -68.3112656, "tags": {"depth": "1930", "ele": "0", "field_name": "Magallanes (mag)", "man_made": "offshore_platform", "name": "SIP.MAG.AM-202", "operator": "Enap Sipetrol Argentina S.A.", "pump": "no", "ref": "29022", "seamark:type": "platform", "source": "http://datos.minem.gob.ar/", "substance": "oil"}}, {"type": "node", "id": 8001774482, "lat": -52.8205188, "lon": -68.2196834, "tags": {"depth": "1650", "ele": "40", "field_name": "Cuenca Marina Austral 1 (cau)", "man_made": "offshore_platform", "name": "TA.CMA-9.HNP-7", "operator": "Total Austral S.A.", "pump": "no", "ref": "10481", "seamark:type": "platform", "source": "http://datos.minem.gob.ar/", "substance": "oil"}}, {"type": "node", "id": 8001774483, "lat": -52.5490456, "lon": -68.3114425, "tags": {"depth": "1703", "ele": "0", "field_name": "Magallanes (mag)", "man_made": "offshore_platform", "name": "SIP.MAG.AM-208", "operator": "Enap Sipetrol Argentina S.A.", "pump": "no", "ref": "129812", "seamark:type": "platform", "source": "http://datos.minem.gob.ar/", "substance": "oil"}}, {"type": "node", "id": 8001774484, "lat": -52.606118, "lon": -68.129087, "tags": {"depth": "1780", "ele": "0", "field_name": "Magallanes (mag)", "man_made": "offshore_platform", "name": "SIP.MAG.AM-614", "operator": "Enap Sipetrol Argentina S.A.", "pump": "no", "ref": "29053", "seamark:type": "platform", "source": "http://datos.minem.gob.ar/", "substance": "oil"}}, {"type": "node", "id": 8001842992, "lat": -52.820488, "lon": -68.2197853, "tags": {"abandoned": "yes", "abandoned:man_made": "offshore_platform", "depth": "3400", "ele": "39.9", "field_name": "Cuenca Marina Austral 1 (cau)", "name": "TA.CMA-9.HNP-10", "operator": "Total Austral S.A.", "ref": "10471", "seamark:type": "platform", "source": "http://datos.minem.gob.ar/", "substance": "oil"}}, {"type": "node", "id": 8001842993, "lat": -52.5442869, "lon": -68.3641027, "tags": {"abandoned": "yes", "abandoned:man_made": "offshore_platform", "depth": "1622", "ele": "0", "field_name": "Magallanes (mag)", "name": "SH-CMA14-MFH-9 x-2", "operator": "Enap Sipetrol Argentina S.A.", "pump": "no", "ref": "134938", "seamark:type": "platform", "source": "http://datos.minem.gob.ar/"}}, {"type": "node", "id": 8001842994, "lat": -52.5490615, "lon": -68.311352, "tags": {"depth": "1662", "ele": "0", "field_name": "Magallanes (mag)", "man_made": "offshore_platform", "name": "SIP.MAG.AM-211", "operator": "Enap Sipetrol Argentina S.A.", "pump": "no", "ref": "29031", "seamark:type": "platform", "source": "http://datos.minem.gob.ar/", "substance": "oil"}}, {"type": "node", "id": 8001842995, "lat": -52.5225646, "lon": -68.2803193, "tags": {"depth": "2639", "ele": "0", "field_name": "Magallanes (mag)", "man_made": "offshore_platform", "name": "SIP.MAG.AM-306", "operator": "Enap Sipetrol Argentina S.A.", "pump": "no", "ref": "33873", "seamark:type": "platform", "source": "http://datos.minem.gob.ar/", "substance": "oil"}}, {"type": "node", "id": 8001842996, "lat": -52.8204581, "lon": -68.219771, "tags": {"depth": "2890", "ele": "40.1", "field_name": "Cuenca Marina Austral 1 (cau)", "man_made": "offshore_platform", "name": "TA.CMA-9.HNI-2", "operator": "Total Austral S.A.", "pump": "no", "ref": "10490", "seamark:type": "platform", "source": "http://datos.minem.gob.ar/"}}, {"type": "node", "id": 8001842997, "lat": -52.7365, "lon": -68.3914, "tags": {"abandoned": "yes", "abandoned:man_made": "offshore_platform", "depth": "1722", "ele": "29.5", "field_name": "Cuenca Marina Austral 1 (cau)", "name": "TA.CMA-1.Ara.x-1", "operator": "Total Austral S.A.", "pump": "no", "ref": "10279", "seamark:type": "platform", "source": "http://datos.minem.gob.ar/"}}, {"type": "node", "id": 8001842998, "lat": -52.83269, "lon": -66.95642, "tags": {"abandoned": "yes", "abandoned:man_made": "offshore_platform", "depth": "1133", "ele": "33.2", "field_name": "Cuenca Marina Austral 1 (cau)", "name": "TA.CAM-1.Uni.x-1", "operator": "Total Austral S.A.", "pump": "no", "ref": "10310", "seamark:type": "platform", "source": "http://datos.minem.gob.ar/"}}, {"type": "node", "id": 8001842999, "lat": -51.7712, "lon": -68.2395, "tags": {"abandoned": "yes", "abandoned:man_made": "offshore_platform", "depth": "1220.6", "ele": "32.9", "field_name": "Octans-pegaso (ope)", "name": "SH.CMA-14.GIA5.x-1", "operator": "Enap Sipetrol Argentina S.A.", "pump": "no", "ref": "134900", "seamark:type": "platform", "source": "http://datos.minem.gob.ar/", "substance": "gas"}}, {"type": "node", "id": 8001843000, "lat": -52.570587, "lon": -68.2520851, "tags": {"depth": "2485", "ele": "0", "field_name": "Magallanes (mag)", "man_made": "offshore_platform", "name": "SIP.MAG.AM-511", "operator": "Enap Sipetrol Argentina S.A.", "pump": "no", "ref": "129827", "seamark:type": "platform", "source": "http://datos.minem.gob.ar/", "substance": "oil"}}, {"type": "node", "id": 8001843001, "lat": -52.5289655, "lon": -68.3664287, "tags": {"abandoned": "yes", "abandoned:man_made": "offshore_platform", "depth": "2096", "ele": "0", "field_name": "Magallanes (mag)", "name": "SH-CMA14-MFH-9 x-1b", "operator": "Enap Sipetrol Argentina S.A.", "pump": "no", "ref": "134935", "seamark:type": "platform", "source": "http://datos.minem.gob.ar/"}}, {"type": "node", "id": 8001843002, "lat": -52.5490398, "lon": -68.3114902, "tags": {"depth": "1703", "ele": "0", "field_name": "Magallanes (mag)", "man_made": "offshore_platform", "name": "SIP.MAG.AM-208", "operator": "Enap Sipetrol Argentina S.A.", "pump": "no", "ref": "29028", "seamark:type": "platform", "source": "http://datos.minem.gob.ar/", "substance": "oil"}}, {"type": "node", "id": 8001843003, "lat": -52.564766, "lon": -68.278781, "tags": {"abandoned": "yes", "abandoned:man_made": "offshore_platform", "depth": "1677", "ele": "0", "field_name": "Magallanes (mag)", "name": "SIP.MAG.AM-XE-4", "operator": "Enap Sipetrol Argentina S.A.", "pump": "no", "ref": "33866", "seamark:type": "platform", "source": "http://datos.minem.gob.ar/"}}, {"type": "node", "id": 8001843004, "lat": -52.8364127, "lon": -68.1793999, "tags": {"depth": "1986", "ele": "44.5", "field_name": "Cuenca Marina Austral 1 (cau)", "man_made": "offshore_platform", "name": "TA.CMA-1.HCI-12", "operator": "Total Austral S.A.", "pump": "no", "ref": "10487", "seamark:type": "platform", "source": "http://datos.minem.gob.ar/"}}, {"type": "node", "id": 8001843005, "lat": -53.22876, "lon": -66.84517, "tags": {"abandoned": "yes", "abandoned:man_made": "offshore_platform", "depth": "1169", "ele": "34.3", "field_name": "Cuenca Marina Austral 1 (cau)", "name": "TA.CMA-1.Ind.x-1", "operator": "Total Austral S.A.", "pump": "no", "ref": "10307", "seamark:type": "platform", "source": "http://datos.minem.gob.ar/"}}, {"type": "node", "id": 8001843006, "lat": -52.5705152, "lon": -68.2521172, "tags": {"depth": "2670", "ele": "0", "field_name": "Magallanes (mag)", "man_made": "offshore_platform", "name": "SIP.MAG.AM-508", "operator": "Enap Sipetrol Argentina S.A.", "pump": "no", "ref": "129824", "seamark:type": "platform", "source": "http://datos.minem.gob.ar/", "substance": "oil"}}, {"type": "node", "id": 8001843007, "lat": -52.407802, "lon": -67.941776, "tags": {"abandoned": "yes", "abandoned:man_made": "offshore_platform", "depth": "1624", "ele": "0", "field_name": "E-2 (enarsa-2) (ena2)", "name": "SH-CMA14-Mu x-1", "pump": "no", "ref": "134928", "seamark:type": "platform", "source": "http://datos.minem.gob.ar/"}}, {"type": "node", "id": 8001843008, "lat": -52.548966, "lon": -68.3113339, "tags": {"depth": "2700", "ele": "0", "field_name": "Magallanes (mag)", "man_made": "offshore_platform", "name": "SIP.MAG.AM-201", "operator": "Enap Sipetrol Argentina S.A.", "pump": "no", "ref": "29021", "seamark:type": "platform", "source": "http://datos.minem.gob.ar/", "substance": "oil"}}, {"type": "node", "id": 8001843009, "lat": -52.536689, "lon": -68.386578, "tags": {"abandoned": "yes", "abandoned:man_made": "offshore_platform", "depth": "1685", "ele": "0", "field_name": "Magallanes (mag)", "name": "SIP.MAG.AM-XE-1", "operator": "Enap Sipetrol Argentina S.A.", "pump": "no", "ref": "33863", "seamark:type": "platform", "source": "http://datos.minem.gob.ar/"}}, {"type": "node", "id": 8001843010, "lat": -52.8417, "lon": -68.1702, "tags": {"abandoned": "yes", "abandoned:man_made": "offshore_platform", "depth": "1790", "ele": "34.5", "field_name": "Cuenca Marina Austral 1 (cau)", "name": "TA.CMA-9.Hid.e-4", "operator": "Total Austral S.A.", "pump": "no", "ref": "10480", "seamark:type": "platform", "source": "http://datos.minem.gob.ar/"}}, {"type": "node", "id": 8001843011, "lat": -52.549055, "lon": -68.3113991, "tags": {"depth": "1716", "ele": "0", "field_name": "Magallanes (mag)", "man_made": "offshore_platform", "name": "SIP.MAG.AM-207", "operator": "Enap Sipetrol Argentina S.A.", "pump": "no", "ref": "129811", "seamark:type": "platform", "source": "http://datos.minem.gob.ar/", "substance": "oil"}}, {"type": "node", "id": 8001843012, "lat": -52.7952105, "lon": -68.307, "tags": {"abandoned": "yes", "abandoned:man_made": "offshore_platform", "depth": "1906", "ele": "34.3", "field_name": "Cuenca Marina Austral 1 (cau)", "name": "TA.CMA-1.Ara.e-7/I", "operator": "Total Austral S.A.", "pump": "no", "ref": "10276", "seamark:type": "platform", "source": "http://datos.minem.gob.ar/"}}, {"type": "node", "id": 8001843013, "lat": -53.1048746, "lon": -67.2965761, "tags": {"depth": "1093.775", "ele": "44.4", "end_date": "2015-08-13", "field_name": "Cuenca Marina Austral 1 (cau)", "man_made": "offshore_platform", "name": "TAU.MA.Fen.e-4", "operator": "Total Austral S.A.", "pump": "no", "ref": "155373", "seamark:type": "platform", "source": "http://datos.minem.gob.ar/", "start_date": "2015-07-29"}}, {"type": "node", "id": 8001843014, "lat": -52.72437, "lon": -68.00292, "tags": {"abandoned": "yes", "abandoned:man_made": "offshore_platform", "depth": "1707", "ele": "33.7", "field_name": "Cuenca Marina Austral 1 (cau)", "name": "TA.CMA-9.Ari.e-2", "operator": "Total Austral S.A.", "pump": "no", "ref": "10300", "seamark:type": "platform", "source": "http://datos.minem.gob.ar/"}}, {"type": "node", "id": 8001843015, "lat": -52.5705645, "lon": -68.2522587, "tags": {"depth": "2362", "ele": "0", "field_name": "Magallanes (mag)", "man_made": "offshore_platform", "name": "SIP.MAG.AM-501", "operator": "Enap Sipetrol Argentina S.A.", "pump": "no", "ref": "129817", "seamark:type": "platform", "source": "http://datos.minem.gob.ar/", "substance": "oil"}}, {"type": "node", "id": 8001843016, "lat": -52.5314111, "lon": -68.3845664, "tags": {"depth": "2948", "ele": "0", "field_name": "Magallanes (mag)", "man_made": "offshore_platform", "name": "SIP.MAG.AM-116", "operator": "Enap Sipetrol Argentina S.A.", "pump": "no", "ref": "29018", "seamark:type": "platform", "source": "http://datos.minem.gob.ar/", "substance": "oil"}}, {"type": "node", "id": 8001843017, "lat": -52.8797, "lon": -68.117, "tags": {"abandoned": "yes", "abandoned:man_made": "offshore_platform", "depth": "1812", "ele": "36.2", "field_name": "Cuenca Marina Austral 1 (cau)", "name": "TA.CMA-1.HidS.e-2", "operator": "Total Austral S.A.", "pump": "no", "ref": "10477", "seamark:type": "platform", "source": "http://datos.minem.gob.ar/"}}, {"type": "node", "id": 8001843018, "lat": -52.5490729, "lon": -68.3113916, "tags": {"depth": "2360", "ele": "0", "field_name": "Magallanes (mag)", "man_made": "offshore_platform", "name": "SIP.MAG.AM-204", "operator": "Enap Sipetrol Argentina S.A.", "pump": "no", "ref": "129808", "seamark:type": "platform", "source": "http://datos.minem.gob.ar/", "substance": "oil"}}, {"type": "node", "id": 8001843019, "lat": -52.606114, "lon": -68.129106, "tags": {"depth": "2283", "ele": "0", "field_name": "Magallanes (mag)", "man_made": "offshore_platform", "name": "SIP.MAG.AM-608", "operator": "Enap Sipetrol Argentina S.A.", "pump": "no", "ref": "29049", "seamark:type": "platform", "source": "http://datos.minem.gob.ar/", "substance": "oil"}}, {"type": "node", "id": 8001843020, "lat": -52.7935, "lon": -68.2708, "tags": {"abandoned": "yes", "abandoned:man_made": "offshore_platform", "depth": "1736", "ele": "37.5", "field_name": "Cuenca Marina Austral 1 (cau)", "name": "TA.CMA-1.Ara.e-4", "operator": "Total Austral S.A.", "pump": "no", "ref": "10273", "seamark:type": "platform", "source": "http://datos.minem.gob.ar/"}}, {"type": "node", "id": 8001843021, "lat": -53.35514, "lon": -67.62915, "tags": {"abandoned": "yes", "abandoned:man_made": "offshore_platform", "depth": "1535", "ele": "35.5", "field_name": "Cuenca Marina Austral 1 (cau)", "name": "TA.CMA-1.Ple.e-3", "operator": "Total Austral S.A.", "pump": "no", "ref": "10509", "seamark:type": "platform", "source": "http://datos.minem.gob.ar/"}}, {"type": "node", "id": 8001843022, "lat": -52.6902, "lon": -68.2756, "tags": {"abandoned": "yes", "abandoned:man_made": "offshore_platform", "depth": "1759", "ele": "34", "field_name": "Cuenca Marina Austral 1 (cau)", "name": "TA.CMA-9.Arg.x-1", "operator": "Total Austral S.A.", "pump": "no", "ref": "10297", "seamark:type": "platform", "source": "http://datos.minem.gob.ar/"}}, {"type": "node", "id": 8001843023, "lat": -52.71338, "lon": -67.20157, "tags": {"abandoned": "yes", "abandoned:man_made": "offshore_platform", "depth": "1110", "ele": "32.8", "field_name": "Cuenca Marina Austral 1 (cau)", "name": "TA.CMA-1.Car.e-13", "operator": "Total Austral S.A.", "pump": "no", "ref": "10466", "seamark:type": "platform", "source": "http://datos.minem.gob.ar/"}}, {"type": "node", "id": 8001843024, "lat": -52.7570739, "lon": -67.2181409, "tags": {"depth": "92.5", "ele": "52.5", "end_date": "2015-02-06", "field_name": "Cuenca Marina Austral 1 (cau)", "man_made": "offshore_platform", "name": "TAU.MA.Car.1-5(h).T1", "operator": "Total Austral S.A.", "pump": "no", "ref": "153796", "seamark:type": "platform", "source": "http://datos.minem.gob.ar/", "start_date": "2014-12-25", "substance": "gas"}}, {"type": "node", "id": 8001843025, "lat": -52.5313348, "lon": -68.3846113, "tags": {"depth": "2432", "ele": "0", "field_name": "Magallanes (mag)", "man_made": "offshore_platform", "name": "SIP.MAG.AM-103", "operator": "Enap Sipetrol Argentina S.A.", "pump": "no", "ref": "29011", "seamark:type": "platform", "source": "http://datos.minem.gob.ar/", "substance": "oil"}}, {"type": "node", "id": 8001843026, "lat": -53.1729, "lon": -67.45001, "tags": {"abandoned": "yes", "abandoned:man_made": "offshore_platform", "depth": "1356", "ele": "34.7", "field_name": "Cuenca Marina Austral 1 (cau)", "name": "TA.CMA-9.Fen.x-1", "operator": "Total Austral S.A.", "pump": "no", "ref": "10469", "seamark:type": "platform", "source": "http://datos.minem.gob.ar/"}}, {"type": "node", "id": 8001843027, "lat": -52.5313847, "lon": -68.3846189, "tags": {"depth": "2071", "ele": "0", "field_name": "Magallanes (mag)", "man_made": "offshore_platform", "name": "SIP.MAG.AM-115", "operator": "Enap Sipetrol Argentina S.A.", "pump": "no", "ref": "129801", "seamark:type": "platform", "source": "http://datos.minem.gob.ar/", "substance": "oil"}}, {"type": "node", "id": 8001843028, "lat": -52.606084, "lon": -68.129111, "tags": {"depth": "2940", "ele": "0", "field_name": "Magallanes (mag)", "man_made": "offshore_platform", "name": "SIP.MAG.AM-604", "operator": "Enap Sipetrol Argentina S.A.", "pump": "no", "ref": "29046", "seamark:type": "platform", "source": "http://datos.minem.gob.ar/", "substance": "oil"}}, {"type": "node", "id": 8001843029, "lat": -52.612101, "lon": -68.449299, "tags": {"depth": "3467", "ele": "0", "field_name": "Poseidon (z063)", "man_made": "offshore_platform", "name": "SIP.POSEIDON.P-111", "operator": "Enap Sipetrol Argentina S.A.", "pump": "no", "ref": "33884", "seamark:type": "platform", "source": "http://datos.minem.gob.ar/", "substance": "oil"}}, {"type": "node", "id": 8001843030, "lat": -52.7393854, "lon": -68.1988007, "tags": {"abandoned": "yes", "abandoned:man_made": "offshore_platform", "depth": "1775", "ele": "35.7", "field_name": "Cuenca Marina Austral 1 (cau)", "name": "TA.CMA-9.Arg.e-4", "operator": "Total Austral S.A.", "pump": "no", "ref": "10290", "seamark:type": "platform", "source": "http://datos.minem.gob.ar/"}}, {"type": "node", "id": 8001843031, "lat": -52.90311, "lon": -67.34428, "tags": {"abandoned": "yes", "abandoned:man_made": "offshore_platform", "depth": "1098", "ele": "32", "field_name": "Cuenca Marina Austral 1 (cau)", "name": "TA.CMA-9.Car.x-1", "operator": "Total Austral S.A.", "pump": "no", "ref": "10459", "seamark:type": "platform", "source": "http://datos.minem.gob.ar/"}}, {"type": "node", "id": 8001843032, "lat": -52.530921, "lon": -68.260736, "tags": {"abandoned": "yes", "abandoned:man_made": "offshore_platform", "depth": "1620", "ele": "0", "field_name": "Magallanes (mag)", "name": "SH-CMA14-MGA-9 x-1", "operator": "Enap Sipetrol Argentina S.A.", "pump": "no", "ref": "134946", "seamark:type": "platform", "source": "http://datos.minem.gob.ar/"}}, {"type": "node", "id": 8001843033, "lat": -52.5313701, "lon": -68.3846059, "tags": {"depth": "1756", "ele": "0", "field_name": "Magallanes (mag)", "man_made": "offshore_platform", "name": "SIP.MAG.AM-106", "operator": "Enap Sipetrol Argentina S.A.", "pump": "no", "ref": "129798", "seamark:type": "platform", "source": "http://datos.minem.gob.ar/", "substance": "oil"}}, {"type": "node", "id": 8001843034, "lat": -52.5705732, "lon": -68.2522114, "tags": {"depth": "1930", "ele": "0", "field_name": "Magallanes (mag)", "man_made": "offshore_platform", "name": "SIP.MAG.AM-507", "operator": "Enap Sipetrol Argentina S.A.", "pump": "no", "ref": "29039", "seamark:type": "platform", "source": "http://datos.minem.gob.ar/", "substance": "oil"}}, {"type": "node", "id": 8001843035, "lat": -52.612111, "lon": -68.449329, "tags": {"depth": "3518", "ele": "0", "field_name": "Poseidon (z063)", "man_made": "offshore_platform", "name": "SIP.POSEIDON.P-104", "operator": "Enap Sipetrol Argentina S.A.", "pump": "no", "ref": "33881", "seamark:type": "platform", "source": "http://datos.minem.gob.ar/", "substance": "oil"}}, {"type": "node", "id": 8001843036, "lat": -53.43637, "lon": -67.61172, "tags": {"abandoned": "yes", "abandoned:man_made": "offshore_platform", "depth": "1378", "ele": "35.6", "field_name": "Cuenca Marina Austral 1 (cau)", "name": "TA.CMA-9.Veg.e-2", "operator": "Total Austral S.A.", "pump": "no", "ref": "79516", "seamark:type": "platform", "source": "http://datos.minem.gob.ar/"}}, {"type": "node", "id": 8001843037, "lat": -52.8204752, "lon": -68.2195194, "tags": {"depth": "2794", "ele": "40.1", "field_name": "Cuenca Marina Austral 1 (cau)", "man_made": "offshore_platform", "name": "TA.CMA-1.HNI-3", "operator": "Total Austral S.A.", "pump": "no", "ref": "10498", "seamark:type": "platform", "source": "http://datos.minem.gob.ar/"}}, {"type": "node", "id": 8001843038, "lat": -52.7834187, "lon": -68.3173, "tags": {"abandoned": "yes", "abandoned:man_made": "offshore_platform", "depth": "2543", "ele": "32.4", "field_name": "Cuenca Marina Austral 1 (cau)", "name": "TA.CMA-1.Ara.e-9/I", "operator": "Total Austral S.A.", "pump": "no", "ref": "10287", "seamark:type": "platform", "source": "http://datos.minem.gob.ar/"}}, {"type": "node", "id": 8001843039, "lat": -52.86137, "lon": -67.37338, "tags": {"abandoned": "yes", "abandoned:man_made": "offshore_platform", "depth": "1174", "ele": "32.7", "field_name": "Cuenca Marina Austral 1 (cau)", "name": "TA.CMA-1.Car.e-6", "operator": "Total Austral S.A.", "pump": "no", "ref": "10456", "seamark:type": "platform", "source": "http://datos.minem.gob.ar/"}}, {"type": "node", "id": 8001843040, "lat": -52.511179, "lon": -68.297743, "tags": {"abandoned": "yes", "abandoned:man_made": "offshore_platform", "depth": "1716", "ele": "0", "field_name": "Magallanes (mag)", "name": "SH-CMA14-MFJ-8 x-2", "operator": "Enap Sipetrol Argentina S.A.", "pump": "no", "ref": "134943", "seamark:type": "platform", "source": "http://datos.minem.gob.ar/"}}, {"type": "node", "id": 8001843041, "lat": -52.5705229, "lon": -68.2520162, "tags": {"depth": "3400", "ele": "0", "field_name": "Magallanes (mag)", "man_made": "offshore_platform", "name": "SIP.MAG.AM-504", "operator": "Enap Sipetrol Argentina S.A.", "pump": "no", "ref": "29036", "seamark:type": "platform", "source": "http://datos.minem.gob.ar/", "substance": "oil"}}, {"type": "node", "id": 8001846575, "lat": -52.5226178, "lon": -68.2803333, "tags": {"depth": "3343", "ele": "0", "field_name": "Magallanes (mag)", "man_made": "offshore_platform", "name": "SIP.MAG.AM-307", "operator": "Enap Sipetrol Argentina S.A.", "pump": "no", "ref": "33874", "seamark:type": "platform", "source": "http://datos.minem.gob.ar/", "substance": "oil"}}, {"type": "node", "id": 8001846576, "lat": -52.836401, "lon": -68.1794154, "tags": {"depth": "2305", "ele": "44.5", "field_name": "Cuenca Marina Austral 1 (cau)", "man_made": "offshore_platform", "name": "TA.CMA-9.HCP-8", "operator": "Total Austral S.A.", "pump": "no", "ref": "10495", "seamark:type": "platform", "source": "http://datos.minem.gob.ar/", "substance": "oil"}}, {"type": "node", "id": 8001846577, "lat": -52.5289245, "lon": -68.3664095, "tags": {"abandoned": "yes", "abandoned:man_made": "offshore_platform", "depth": "2096", "ele": "0", "field_name": "Magallanes (mag)", "name": "SH-CMA14-MFH-9 x-1b", "operator": "Enap Sipetrol Argentina S.A.", "pump": "no", "ref": "134936", "seamark:type": "platform", "source": "http://datos.minem.gob.ar/"}}, {"type": "node", "id": 8001846578, "lat": -52.5489816, "lon": -68.3113976, "tags": {"depth": "1952", "ele": "0", "field_name": "Magallanes (mag)", "man_made": "offshore_platform", "name": "SIP.MAG.AM-209", "operator": "Enap Sipetrol Argentina S.A.", "pump": "no", "ref": "29029", "seamark:type": "platform", "source": "http://datos.minem.gob.ar/", "substance": "oil"}}, {"type": "node", "id": 8001846579, "lat": -52.5226089, "lon": -68.280392, "tags": {"depth": "2270", "ele": "0", "field_name": "Magallanes (mag)", "man_made": "offshore_platform", "name": "SIP.MAG.AM-304", "operator": "Enap Sipetrol Argentina S.A.", "pump": "no", "ref": "33871", "seamark:type": "platform", "source": "http://datos.minem.gob.ar/", "substance": "oil"}}, {"type": "node", "id": 8001846580, "lat": -52.8364013, "lon": -68.17938, "tags": {"depth": "2153", "ele": "45.2", "field_name": "Cuenca Marina Austral 1 (cau)", "man_made": "offshore_platform", "name": "TA.CMA-9.HCI-2", "operator": "Total Austral S.A.", "pump": "no", "ref": "10488", "seamark:type": "platform", "source": "http://datos.minem.gob.ar/"}}, {"type": "node", "id": 8001846581, "lat": -53.11272, "lon": -66.93793, "tags": {"abandoned": "yes", "abandoned:man_made": "offshore_platform", "depth": "1154", "ele": "34.2", "field_name": "Cuenca Marina Austral 1 (cau)", "name": "TA.CMA-1.Sir.x-1", "operator": "Total Austral S.A.", "pump": "no", "ref": "10308", "seamark:type": "platform", "source": "http://datos.minem.gob.ar/"}}, {"type": "node", "id": 8001846582, "lat": -51.7531, "lon": -68.6154, "tags": {"abandoned": "yes", "abandoned:man_made": "offshore_platform", "depth": "1150", "ele": "37", "field_name": "Octans-pegaso (ope)", "name": "SH.CMA-14.GHA4.x-1", "operator": "Enap Sipetrol Argentina S.A.", "pump": "no", "ref": "134898", "seamark:type": "platform", "source": "http://datos.minem.gob.ar/", "substance": "gas"}}, {"type": "node", "id": 8001846583, "lat": -52.570574, "lon": -68.2520985, "tags": {"depth": "2930", "ele": "0", "field_name": "Magallanes (mag)", "man_made": "offshore_platform", "name": "SIP.MAG.AM-509", "operator": "Enap Sipetrol Argentina S.A.", "pump": "no", "ref": "129825", "seamark:type": "platform", "source": "http://datos.minem.gob.ar/", "substance": "oil"}}, {"type": "node", "id": 8001846584, "lat": -52.528551, "lon": -67.996535, "tags": {"abandoned": "yes", "abandoned:man_made": "offshore_platform", "depth": "1575", "ele": "0", "field_name": "E-2 (enarsa-2) (ena2)", "name": "SH-Helix - Mgh9 1", "pump": "no", "ref": "134933", "seamark:type": "platform", "source": "http://datos.minem.gob.ar/"}}, {"type": "node", "id": 8001852523, "lat": -52.5225462, "lon": -68.2803617, "tags": {"depth": "3189", "ele": "0", "field_name": "Magallanes (mag)", "man_made": "offshore_platform", "name": "SIP.MAG.AM-308", "operator": "Enap Sipetrol Argentina S.A.", "pump": "no", "ref": "33875", "seamark:type": "platform", "source": "http://datos.minem.gob.ar/", "substance": "oil"}}, {"type": "node", "id": 8001852524, "lat": -52.8204684, "lon": -68.2197369, "tags": {"depth": "4500", "ele": "50", "field_name": "Cuenca Marina Austral 1 (cau)", "man_made": "offshore_platform", "name": "TA.CMA-1.HNP-10/G1", "operator": "Total Austral S.A.", "ref": "10492", "seamark:type": "platform", "source": "http://datos.minem.gob.ar/", "substance": "oil"}}, {"type": "node", "id": 8001852525, "lat": -52.593499, "lon": -67.936893, "tags": {"abandoned": "yes", "abandoned:man_made": "offshore_platform", "depth": "1460", "ele": "38.9", "field_name": "E-2 (enarsa-2) (ena2)", "name": "ESA.MA.HE2.X-3", "pump": "no", "ref": "132698", "seamark:type": "platform", "source": "http://datos.minem.gob.ar/"}}, {"type": "node", "id": 8001852526, "lat": -52.87326, "lon": -68.04736, "tags": {"abandoned": "yes", "abandoned:man_made": "offshore_platform", "depth": "1720", "ele": "33", "field_name": "Cuenca Marina Austral 1 (cau)", "name": "TA.CAM-2B.Ald.x-1", "operator": "Total Austral S.A.", "pump": "no", "ref": "10312", "seamark:type": "platform", "source": "http://datos.minem.gob.ar/"}}, {"type": "node", "id": 8001852527, "lat": -52.5442576, "lon": -68.3641, "tags": {"abandoned": "yes", "abandoned:man_made": "offshore_platform", "depth": "1622", "ele": "0", "field_name": "Magallanes (mag)", "name": "SH-CMA14-MFH-9 x-2", "operator": "Enap Sipetrol Argentina S.A.", "pump": "no", "ref": "134937", "seamark:type": "platform", "source": "http://datos.minem.gob.ar/"}}, {"type": "node", "id": 8001852528, "lat": -52.5490138, "lon": -68.3114682, "tags": {"depth": "2230", "ele": "0", "field_name": "Magallanes (mag)", "man_made": "offshore_platform", "name": "SIP.MAG.AM-210", "operator": "Enap Sipetrol Argentina S.A.", "pump": "no", "ref": "29030", "seamark:type": "platform", "source": "http://datos.minem.gob.ar/", "substance": "oil"}}, {"type": "node", "id": 8001852529, "lat": -52.5225391, "lon": -68.2803092, "tags": {"depth": "1935", "ele": "0", "field_name": "Magallanes (mag)", "man_made": "offshore_platform", "name": "SIP.MAG.AM-301", "operator": "Enap Sipetrol Argentina S.A.", "pump": "no", "ref": "33868", "seamark:type": "platform", "source": "http://datos.minem.gob.ar/", "substance": "oil"}}, {"type": "node", "id": 8001852530, "lat": -52.8364077, "lon": -68.1793824, "tags": {"abandoned": "yes", "abandoned:man_made": "offshore_platform", "depth": "2085", "ele": "44.5", "end_date": "1990-07-16", "field_name": "Cuenca Marina Austral 1 (cau)", "name": "TA.CMA-9.HCP-6", "operator": "Total Austral S.A.", "pump": "no", "ref": "10489", "seamark:type": "platform", "source": "http://datos.minem.gob.ar/", "start_date": "1990-04-18", "substance": "oil"}}, {"type": "node", "id": 8001852531, "lat": -52.548581, "lon": -68.01828, "tags": {"abandoned": "yes", "abandoned:man_made": "offshore_platform", "depth": "1501.9", "ele": "38.9", "field_name": "E-2 (enarsa-2) (ena2)", "name": "ESA.MA.HE2.X-2", "pump": "no", "ref": "132599", "seamark:type": "platform", "source": "http://datos.minem.gob.ar/"}}, {"type": "node", "id": 8001852532, "lat": -52.62614, "lon": -67.19185, "tags": {"abandoned": "yes", "abandoned:man_made": "offshore_platform", "depth": "1084", "ele": "33.1", "field_name": "Cuenca Marina Austral 1 (cau)", "name": "TA.CAM-1.Tau.x-1", "operator": "Total Austral S.A.", "pump": "no", "ref": "10309", "seamark:type": "platform", "source": "http://datos.minem.gob.ar/"}}, {"type": "node", "id": 8001852533, "lat": -51.716, "lon": -68.4379, "tags": {"abandoned": "yes", "abandoned:man_made": "offshore_platform", "depth": "180", "ele": "35", "field_name": "Octans-pegaso (ope)", "name": "SH.CMA-14.GHF2.x-1", "operator": "Enap Sipetrol Argentina S.A.", "pump": "no", "ref": "134899", "seamark:type": "platform", "source": "http://datos.minem.gob.ar/", "substance": "gas"}}, {"type": "node", "id": 8001852534, "lat": -52.5705894, "lon": -68.252183, "tags": {"depth": "1780", "ele": "0", "field_name": "Magallanes (mag)", "man_made": "offshore_platform", "name": "SIP.MAG.AM-510", "operator": "Enap Sipetrol Argentina S.A.", "pump": "no", "ref": "129826", "seamark:type": "platform", "source": "http://datos.minem.gob.ar/", "substance": "oil"}}, {"type": "node", "id": 8001852535, "lat": -51.925811, "lon": -67.584232, "tags": {"abandoned": "yes", "abandoned:man_made": "offshore_platform", "depth": "850", "ele": "0", "field_name": "E-2 (enarsa-2) (ena2)", "name": "SH-CMA14 To x-1", "pump": "no", "ref": "134930", "seamark:type": "platform", "source": "http://datos.minem.gob.ar/"}}, {"type": "node", "id": 8001852536, "lat": -52.5490679, "lon": -68.3114386, "tags": {"depth": "2809", "ele": "0", "field_name": "Magallanes (mag)", "man_made": "offshore_platform", "name": "SIP.MAG.AM-203", "operator": "Enap Sipetrol Argentina S.A.", "pump": "no", "ref": "29023", "seamark:type": "platform", "source": "http://datos.minem.gob.ar/", "substance": "oil"}}, {"type": "node", "id": 8001852537, "lat": -52.528386, "lon": -68.403145, "tags": {"abandoned": "yes", "abandoned:man_made": "offshore_platform", "depth": "1744", "ele": "0", "field_name": "Magallanes (mag)", "name": "SIP.MAG.AM-XE-3", "operator": "Enap Sipetrol Argentina S.A.", "pump": "no", "ref": "33865", "seamark:type": "platform", "source": "http://datos.minem.gob.ar/"}}, {"type": "node", "id": 8001852538, "lat": -52.8205013, "lon": -68.2196343, "tags": {"depth": "1825", "ele": "40.1", "field_name": "Cuenca Marina Austral 1 (cau)", "man_made": "offshore_platform", "name": "TA.CMA-9.HNP-5", "operator": "Total Austral S.A.", "pump": "no", "ref": "10482", "seamark:type": "platform", "source": "http://datos.minem.gob.ar/", "substance": "oil"}}, {"type": "node", "id": 8001852539, "lat": -52.5489758, "lon": -68.3112749, "tags": {"depth": "1952", "ele": "0", "field_name": "Magallanes (mag)", "man_made": "offshore_platform", "name": "SIP.MAG.AM-209", "operator": "Enap Sipetrol Argentina S.A.", "pump": "no", "ref": "129813", "seamark:type": "platform", "source": "http://datos.minem.gob.ar/", "substance": "oil"}}, {"type": "node", "id": 8001852540, "lat": -52.64271, "lon": -68.12659, "tags": {"abandoned": "yes", "abandoned:man_made": "offshore_platform", "depth": "1689", "ele": "33.3", "field_name": "Cuenca Marina Austral 1 (cau)", "name": "SH.CMA-14.MLD4.x-1", "operator": "Total Austral S.A.", "pump": "no", "ref": "10302", "seamark:type": "platform", "source": "http://datos.minem.gob.ar/"}}, {"type": "node", "id": 8001852541, "lat": -52.5705511, "lon": -68.2521147, "tags": {"depth": "3042", "ele": "0", "field_name": "Magallanes (mag)", "man_made": "offshore_platform", "name": "SIP.MAG.AM-503", "operator": "Enap Sipetrol Argentina S.A.", "pump": "no", "ref": "129819", "seamark:type": "platform", "source": "http://datos.minem.gob.ar/", "substance": "oil"}}, {"type": "node", "id": 8001852542, "lat": -52.5313504, "lon": -68.3845475, "tags": {"depth": "1838", "ele": "0", "field_name": "Magallanes (mag)", "man_made": "offshore_platform", "name": "SIP.MAG.AM-118", "operator": "Enap Sipetrol Argentina S.A.", "pump": "no", "ref": "29020", "seamark:type": "platform", "source": "http://datos.minem.gob.ar/", "substance": "oil"}}, {"type": "node", "id": 8001852543, "lat": -52.8223, "lon": -68.2035, "tags": {"abandoned": "yes", "abandoned:man_made": "offshore_platform", "depth": "1721", "ele": "36", "field_name": "Cuenca Marina Austral 1 (cau)", "name": "TA.CMA-9.Hid.e-3", "operator": "Total Austral S.A.", "pump": "no", "ref": "10479", "seamark:type": "platform", "source": "http://datos.minem.gob.ar/"}}, {"type": "node", "id": 8001852544, "lat": -52.5489632, "lon": -68.3114398, "tags": {"depth": "2696", "ele": "0", "field_name": "Magallanes (mag)", "man_made": "offshore_platform", "name": "SIP.MAG.AM-206", "operator": "Enap Sipetrol Argentina S.A.", "pump": "no", "ref": "129810", "seamark:type": "platform", "source": "http://datos.minem.gob.ar/", "substance": "oil"}}, {"type": "node", "id": 8001852545, "lat": -52.606062, "lon": -68.129076, "tags": {"depth": "1820", "ele": "0", "field_name": "Magallanes (mag)", "man_made": "offshore_platform", "name": "SIP.MAG.AM-612", "operator": "Enap Sipetrol Argentina S.A.", "pump": "no", "ref": "29051", "seamark:type": "platform", "source": "http://datos.minem.gob.ar/", "substance": "oil"}}, {"type": "node", "id": 8001852546, "lat": -52.7239, "lon": -68.4366, "tags": {"abandoned": "yes", "abandoned:man_made": "offshore_platform", "depth": "1686", "ele": "34", "field_name": "Cuenca Marina Austral 1 (cau)", "name": "TA.CMA-1.Ara.e-6", "operator": "Total Austral S.A.", "pump": "no", "ref": "10275", "seamark:type": "platform", "source": "http://datos.minem.gob.ar/"}}, {"type": "node", "id": 8001852547, "lat": -53.26681, "lon": -67.75563, "tags": {"abandoned": "yes", "abandoned:man_made": "offshore_platform", "depth": "1442", "ele": "34.4", "field_name": "Cuenca Marina Austral 1 (cau)", "name": "TA.CMA-1.Ple.e-6", "operator": "Total Austral S.A.", "pump": "no", "ref": "10511", "seamark:type": "platform", "source": "http://datos.minem.gob.ar/"}}, {"type": "node", "id": 8001852548, "lat": -51.653, "lon": -68.5948, "tags": {"abandoned": "yes", "abandoned:man_made": "offshore_platform", "depth": "1255", "ele": "33", "field_name": "Octans-pegaso (ope)", "name": "SH.CMA-14.MLD3.x-1", "operator": "Enap Sipetrol Argentina S.A.", "pump": "no", "ref": "134896", "seamark:type": "platform", "source": "http://datos.minem.gob.ar/", "substance": "gas"}}, {"type": "node", "id": 8001852549, "lat": -52.7278207, "lon": -68.2138987, "tags": {"abandoned": "yes", "abandoned:man_made": "offshore_platform", "depth": "2660", "ele": "33.1", "field_name": "Cuenca Marina Austral 1 (cau)", "name": "TA.CMA-1.ASM-2Pilot/I", "operator": "Total Austral S.A.", "pump": "no", "ref": "10299", "seamark:type": "platform", "source": "http://datos.minem.gob.ar/"}}, {"type": "node", "id": 8001852550, "lat": -52.72462, "lon": -67.35917, "tags": {"abandoned": "yes", "abandoned:man_made": "offshore_platform", "depth": "1132", "ele": "32.8", "field_name": "Cuenca Marina Austral 1 (cau)", "name": "TA.CMA-1.Car.e-7", "operator": "Total Austral S.A.", "pump": "no", "ref": "10468", "seamark:type": "platform", "source": "http://datos.minem.gob.ar/"}}, {"type": "node", "id": 8001852551, "lat": -52.5314083, "lon": -68.3845122, "tags": {"depth": "2090", "ele": "0", "field_name": "Magallanes (mag)", "man_made": "offshore_platform", "name": "SIP.MAG.AM-105", "operator": "Enap Sipetrol Argentina S.A.", "pump": "no", "ref": "29013", "seamark:type": "platform", "source": "http://datos.minem.gob.ar/", "substance": "oil"}}, {"type": "node", "id": 8001852552, "lat": -52.8205357, "lon": -68.2197319, "tags": {"depth": "2454", "ele": "40.1", "field_name": "Cuenca Marina Austral 1 (cau)", "man_made": "offshore_platform", "name": "TA.CMA-9.HNP-11", "operator": "Total Austral S.A.", "ref": "10472", "seamark:type": "platform", "source": "http://datos.minem.gob.ar/", "substance": "oil"}}, {"type": "node", "id": 8001852553, "lat": -52.5314027, "lon": -68.3845986, "tags": {"depth": "2040", "ele": "0", "field_name": "Magallanes (mag)", "man_made": "offshore_platform", "name": "SIP.MAG.AM-117", "operator": "Enap Sipetrol Argentina S.A.", "pump": "no", "ref": "129803", "seamark:type": "platform", "source": "http://datos.minem.gob.ar/", "substance": "oil"}}, {"type": "node", "id": 8001852554, "lat": -52.606127, "lon": -68.129113, "tags": {"depth": "2884", "ele": "0", "field_name": "Magallanes (mag)", "man_made": "offshore_platform", "name": "SIP.MAG.AM-607", "operator": "Enap Sipetrol Argentina S.A.", "pump": "no", "ref": "29048", "seamark:type": "platform", "source": "http://datos.minem.gob.ar/", "substance": "oil"}}, {"type": "node", "id": 8001852555, "lat": -52.6766, "lon": -68.3564, "tags": {"abandoned": "yes", "abandoned:man_made": "offshore_platform", "depth": "1776", "ele": "36.4", "field_name": "Cuenca Marina Austral 1 (cau)", "name": "TA.CMA-9.AntN.x-1", "operator": "Total Austral S.A.", "pump": "no", "ref": "10268", "seamark:type": "platform", "source": "http://datos.minem.gob.ar/"}}, {"type": "node", "id": 8001852556, "lat": -53.29511, "lon": -67.81256, "tags": {"abandoned": "yes", "abandoned:man_made": "offshore_platform", "depth": "1351", "ele": "35.3", "field_name": "Cuenca Marina Austral 1 (cau)", "name": "TA.CMA-9.Ple.e-2", "operator": "Total Austral S.A.", "pump": "no", "ref": "10508", "seamark:type": "platform", "source": "http://datos.minem.gob.ar/"}}, {"type": "node", "id": 8001852557, "lat": -52.7277, "lon": -68.2132, "tags": {"abandoned": "yes", "abandoned:man_made": "offshore_platform", "depth": "2410", "ele": "33.2", "field_name": "Cuenca Marina Austral 1 (cau)", "name": "TA.CMA-1.Arg.e-6", "operator": "Total Austral S.A.", "pump": "no", "ref": "10292", "seamark:type": "platform", "source": "http://datos.minem.gob.ar/"}}, {"type": "node", "id": 8001852558, "lat": -52.84704, "lon": -67.20001, "tags": {"abandoned": "yes", "abandoned:man_made": "offshore_platform", "depth": "1147", "ele": "32.8", "field_name": "Cuenca Marina Austral 1 (cau)", "name": "TA.CMA-1.Car.e-11", "operator": "Total Austral S.A.", "pump": "no", "ref": "10461", "seamark:type": "platform", "source": "http://datos.minem.gob.ar/"}}, {"type": "node", "id": 8001852559, "lat": -52.5313312, "lon": -68.3845484, "tags": {"depth": "2272", "ele": "0", "field_name": "Magallanes (mag)", "man_made": "offshore_platform", "name": "SIP.MAG.AM-101", "operator": "Enap Sipetrol Argentina S.A.", "pump": "no", "ref": "29010", "seamark:type": "platform", "source": "http://datos.minem.gob.ar/", "substance": "oil"}}, {"type": "node", "id": 8001852560, "lat": -52.564355, "lon": -68.260587, "tags": {"abandoned": "yes", "abandoned:man_made": "offshore_platform", "depth": "1700", "ele": "0", "field_name": "Magallanes (mag)", "name": "SH-CMA14-MGA-10 x-1", "operator": "Enap Sipetrol Argentina S.A.", "pump": "no", "ref": "134948", "seamark:type": "platform", "source": "http://datos.minem.gob.ar/"}}, {"type": "node", "id": 8001852561, "lat": -52.5313789, "lon": -68.3845195, "tags": {"depth": "1996", "ele": "0", "field_name": "Magallanes (mag)", "man_made": "offshore_platform", "name": "SIP.MAG.AM-114", "operator": "Enap Sipetrol Argentina S.A.", "pump": "no", "ref": "129800", "seamark:type": "platform", "source": "http://datos.minem.gob.ar/", "substance": "oil"}}, {"type": "node", "id": 8001852562, "lat": -52.5705502, "lon": -68.25223, "tags": {"depth": "2930", "ele": "0", "field_name": "Magallanes (mag)", "man_made": "offshore_platform", "name": "SIP.MAG.AM-509", "operator": "Enap Sipetrol Argentina S.A.", "pump": "no", "ref": "29041", "seamark:type": "platform", "source": "http://datos.minem.gob.ar/", "substance": "oil"}}, {"type": "node", "id": 8001852563, "lat": -52.612128, "lon": -68.44931, "tags": {"depth": "1882", "ele": "0", "field_name": "Poseidon (z063)", "man_made": "offshore_platform", "name": "SIP.POSEIDON.P-109", "operator": "Enap Sipetrol Argentina S.A.", "pump": "no", "ref": "33883", "seamark:type": "platform", "source": "http://datos.minem.gob.ar/", "substance": "oil"}}, {"type": "node", "id": 8001852564, "lat": -52.820507, "lon": -68.2198052, "tags": {"depth": "1900", "ele": "40.1", "field_name": "Cuenca Marina Austral 1 (cau)", "man_made": "offshore_platform", "name": "TA.CMA-9.HNP-8", "operator": "Total Austral S.A.", "ref": "10500", "seamark:type": "platform", "source": "http://datos.minem.gob.ar/", "substance": "oil"}}, {"type": "node", "id": 8001852565, "lat": -52.7099, "lon": -68.2334, "tags": {"abandoned": "yes", "abandoned:man_made": "offshore_platform", "depth": "1791", "ele": "32.9", "field_name": "Cuenca Marina Austral 1 (cau)", "name": "TA.CMA-9.Arg.e-3/I", "operator": "Total Austral S.A.", "pump": "no", "ref": "10289", "seamark:type": "platform", "source": "http://datos.minem.gob.ar/"}}, {"type": "node", "id": 8001852566, "lat": -52.96557, "lon": -67.25658, "tags": {"abandoned": "yes", "abandoned:man_made": "offshore_platform", "depth": "1122", "ele": "32.1", "field_name": "Cuenca Marina Austral 1 (cau)", "name": "TA.CMA-1.Car.e-9", "operator": "Total Austral S.A.", "pump": "no", "ref": "10458", "seamark:type": "platform", "source": "http://datos.minem.gob.ar/"}}, {"type": "node", "id": 8001852567, "lat": -52.75714, "lon": -67.21959, "tags": {"abandoned": "yes", "abandoned:man_made": "offshore_platform", "depth": "3038", "ele": "50.5", "field_name": "Cuenca Marina Austral 1 (cau)", "name": "TA.CMA-1.Car1.PH-2", "operator": "Total Austral S.A.", "pump": "no", "ref": "79526", "seamark:type": "platform", "source": "http://datos.minem.gob.ar/"}}, {"type": "node", "id": 8001852568, "lat": -52.8013638, "lon": -67.0946009, "tags": {"abandoned": "yes", "abandoned:man_made": "offshore_platform", "depth": "92.5", "ele": "52.5", "end_date": "2014-07-07", "field_name": "Cuenca Marina Austral 1 (cau)", "name": "TAU.MA.Car.c-14", "operator": "Total Austral S.A.", "pump": "no", "ref": "153646", "seamark:type": "platform", "source": "http://datos.minem.gob.ar/", "start_date": "2014-06-01"}}, {"type": "node", "id": 8001852569, "lat": -52.5789485, "lon": -68.2983737, "tags": {"abandoned": "yes", "abandoned:man_made": "offshore_platform", "depth": "1785", "ele": "0", "field_name": "Magallanes (mag)", "name": "SH-CMA14-MFJ-1x-1", "operator": "Enap Sipetrol Argentina S.A.", "pump": "no", "ref": "134945", "seamark:type": "platform", "source": "http://datos.minem.gob.ar/"}}, {"type": "node", "id": 8001852570, "lat": -52.57053, "lon": -68.2521025, "tags": {"depth": "2712", "ele": "0", "field_name": "Magallanes (mag)", "man_made": "offshore_platform", "name": "SIP.MAG.AM-506", "operator": "Enap Sipetrol Argentina S.A.", "pump": "no", "ref": "29038", "seamark:type": "platform", "source": "http://datos.minem.gob.ar/", "substance": "oil"}}, {"type": "node", "id": 8001852571, "lat": -52.522579, "lon": -68.280359, "tags": {"depth": "2455", "ele": "0", "field_name": "Magallanes (mag)", "man_made": "offshore_platform", "name": "SIP.MAG.AM-309", "operator": "Enap Sipetrol Argentina S.A.", "pump": "no", "ref": "33876", "seamark:type": "platform", "source": "http://datos.minem.gob.ar/", "substance": "oil"}}, {"type": "node", "id": 8001852572, "lat": -52.8577, "lon": -68.1157, "tags": {"abandoned": "yes", "abandoned:man_made": "offshore_platform", "depth": "1835", "ele": "33.7", "field_name": "Cuenca Marina Austral 1 (cau)", "name": "TA.CMA-9.HidS.x-1", "operator": "Total Austral S.A.", "pump": "no", "ref": "10497", "seamark:type": "platform", "source": "http://datos.minem.gob.ar/"}}, {"type": "node", "id": 8001855442, "lat": -52.8365, "lon": -68.1794, "tags": {"depth": "2185", "ele": "45.2", "field_name": "Cuenca Marina Austral 1 (cau)", "man_made": "offshore_platform", "name": "TA.CMA-9.HCI-1", "operator": "Total Austral S.A.", "pump": "no", "ref": "10493", "seamark:type": "platform", "source": "http://datos.minem.gob.ar/"}}, {"type": "node", "id": 8001855443, "lat": -52.7833785, "lon": -68.3173, "tags": {"abandoned": "yes", "abandoned:man_made": "offshore_platform", "depth": "1751", "ele": "32.4", "field_name": "Cuenca Marina Austral 1 (cau)", "name": "TA.CMA-1.Ara.e-9", "operator": "Total Austral S.A.", "pump": "no", "ref": "10278", "seamark:type": "platform", "source": "http://datos.minem.gob.ar/"}}, {"type": "node", "id": 8001855444, "lat": -51.109094, "lon": -68.655203, "tags": {"abandoned": "yes", "abandoned:man_made": "offshore_platform", "depth": "1040", "ele": "0", "field_name": "E-2 (enarsa-2) (ena2)", "name": "CAM Ce x-1", "pump": "no", "ref": "134934", "seamark:type": "platform", "source": "http://datos.minem.gob.ar/"}}, {"type": "node", "id": 8001855445, "lat": -52.5490314, "lon": -68.3112884, "tags": {"depth": "1716", "ele": "0", "field_name": "Magallanes (mag)", "man_made": "offshore_platform", "name": "SIP.MAG.AM-207", "operator": "Enap Sipetrol Argentina S.A.", "pump": "no", "ref": "29027", "seamark:type": "platform", "source": "http://datos.minem.gob.ar/", "substance": "oil"}}, {"type": "node", "id": 8001855446, "lat": -52.5225561, "lon": -68.2804088, "tags": {"depth": "1743", "ele": "0", "field_name": "Magallanes (mag)", "man_made": "offshore_platform", "name": "SIP.MAG.AM-302", "operator": "Enap Sipetrol Argentina S.A.", "pump": "no", "ref": "33869", "seamark:type": "platform", "source": "http://datos.minem.gob.ar/", "substance": "oil"}}, {"type": "node", "id": 8001855447, "lat": -52.8364082, "lon": -68.1794149, "tags": {"depth": "1840", "ele": "44.5", "field_name": "Cuenca Marina Austral 1 (cau)", "man_made": "offshore_platform", "name": "TA.CMA-9.HCP-9", "operator": "Total Austral S.A.", "pump": "no", "ref": "10486", "seamark:type": "platform", "source": "http://datos.minem.gob.ar/", "substance": "oil"}}, {"type": "node", "id": 8001855448, "lat": -52.6832852, "lon": -68.0420677, "tags": {"depth": "4317", "ele": "50", "field_name": "Cuenca Marina Austral 1 (cau)", "man_made": "offshore_platform", "name": "TA.CMA-1.Ari.PH-2", "operator": "Total Austral S.A.", "pump": "no", "ref": "10306", "seamark:type": "platform", "source": "http://datos.minem.gob.ar/", "substance": "gas"}}, {"type": "node", "id": 8001855449, "lat": -53.299, "lon": -67.74612, "tags": {"depth": "3566.01", "ele": "52.33", "end_date": "2016-01-09", "field_name": "Cuenca Marina Austral 1 (cau)", "man_made": "offshore_platform", "name": "TAU.MA.Ple-10(h)", "operator": "Total Austral S.A.", "pump": "no", "ref": "155876", "seamark:type": "platform", "source": "http://datos.minem.gob.ar/", "start_date": "2015-12-04", "substance": "gas"}}, {"type": "node", "id": 8001855450, "lat": -52.5705356, "lon": -68.2521444, "tags": {"depth": "1930", "ele": "0", "field_name": "Magallanes (mag)", "man_made": "offshore_platform", "name": "SIP.MAG.AM-507", "operator": "Enap Sipetrol Argentina S.A.", "pump": "no", "ref": "129823", "seamark:type": "platform", "source": "http://datos.minem.gob.ar/", "substance": "oil"}}, {"type": "node", "id": 8001855451, "lat": -52.521778, "lon": -68.044722, "tags": {"abandoned": "yes", "abandoned:man_made": "offshore_platform", "depth": "106", "ele": "0", "field_name": "E-2 (enarsa-2) (ena2)", "name": "SH-CMA14 Ce x-1", "pump": "no", "ref": "134931", "seamark:type": "platform", "source": "http://datos.minem.gob.ar/"}}, {"type": "node", "id": 8001855452, "lat": -52.549015, "lon": -68.3113224, "tags": {"depth": "2360", "ele": "0", "field_name": "Magallanes (mag)", "man_made": "offshore_platform", "name": "SIP.MAG.AM-204", "operator": "Enap Sipetrol Argentina S.A.", "pump": "no", "ref": "29024", "seamark:type": "platform", "source": "http://datos.minem.gob.ar/", "substance": "oil"}}, {"type": "node", "id": 8001855453, "lat": -52.8204978, "lon": -68.219525, "tags": {"depth": "2809", "ele": "40.1", "field_name": "Cuenca Marina Austral 1 (cau)", "man_made": "offshore_platform", "name": "TA.CMA-9.HNP-6", "operator": "Total Austral S.A.", "ref": "10483", "seamark:type": "platform", "source": "http://datos.minem.gob.ar/", "substance": "oil"}}, {"type": "node", "id": 8001855454, "lat": -52.548986, "lon": -68.3114444, "tags": {"depth": "2230", "ele": "0", "field_name": "Magallanes (mag)", "man_made": "offshore_platform", "name": "SIP.MAG.AM-210", "operator": "Enap Sipetrol Argentina S.A.", "pump": "no", "ref": "129814", "seamark:type": "platform", "source": "http://datos.minem.gob.ar/", "substance": "oil"}}, {"type": "node", "id": 8001855455, "lat": -52.606092, "lon": -68.129071, "tags": {"depth": "3173", "ele": "0", "field_name": "Magallanes (mag)", "man_made": "offshore_platform", "name": "SIP.MAG.AM-616", "operator": "Enap Sipetrol Argentina S.A.", "pump": "no", "ref": "29055", "seamark:type": "platform", "source": "http://datos.minem.gob.ar/", "substance": "oil"}}, {"type": "node", "id": 8001855456, "lat": -53.32733, "lon": -67.76543, "tags": {"abandoned": "yes", "abandoned:man_made": "offshore_platform", "depth": "1375", "ele": "33.2", "field_name": "Cuenca Marina Austral 1 (cau)", "name": "TA.CMA-1.Ple.e-7", "operator": "Total Austral S.A.", "pump": "no", "ref": "10515", "seamark:type": "platform", "source": "http://datos.minem.gob.ar/"}}, {"type": "node", "id": 8001855457, "lat": -52.62969, "lon": -68.1162, "tags": {"abandoned": "yes", "abandoned:man_made": "offshore_platform", "depth": "1701", "ele": "34.5", "field_name": "Cuenca Marina Austral 1 (cau)", "name": "SH.CMA-14.MLD3.x-1", "operator": "Total Austral S.A.", "pump": "no", "ref": "10303", "seamark:type": "platform", "source": "http://datos.minem.gob.ar/"}}, {"type": "node", "id": 8001855458, "lat": -52.570556, "lon": -68.2521536, "tags": {"depth": "3400", "ele": "0", "field_name": "Magallanes (mag)", "man_made": "offshore_platform", "name": "SIP.MAG.AM-504", "operator": "Enap Sipetrol Argentina S.A.", "pump": "no", "ref": "129820", "seamark:type": "platform", "source": "http://datos.minem.gob.ar/", "substance": "oil"}}, {"type": "node", "id": 8001855459, "lat": -52.5313917, "lon": -68.3845033, "tags": {"depth": "2071", "ele": "0", "field_name": "Magallanes (mag)", "man_made": "offshore_platform", "name": "SIP.MAG.AM-115", "operator": "Enap Sipetrol Argentina S.A.", "pump": "no", "ref": "29017", "seamark:type": "platform", "source": "http://datos.minem.gob.ar/", "substance": "oil"}}, {"type": "node", "id": 8001855460, "lat": -52.8345, "lon": -68.152, "tags": {"abandoned": "yes", "abandoned:man_made": "offshore_platform", "depth": "2029", "ele": "35", "field_name": "Cuenca Marina Austral 1 (cau)", "name": "TA.CMA-9.HidN.x-1", "operator": "Total Austral S.A.", "pump": "no", "ref": "10476", "seamark:type": "platform", "source": "http://datos.minem.gob.ar/"}}, {"type": "node", "id": 8001855461, "lat": -52.5490574, "lon": -68.3114729, "tags": {"depth": "2809", "ele": "0", "field_name": "Magallanes (mag)", "man_made": "offshore_platform", "name": "SIP.MAG.AM-203", "operator": "Enap Sipetrol Argentina S.A.", "pump": "no", "ref": "129807", "seamark:type": "platform", "source": "http://datos.minem.gob.ar/", "substance": "oil"}}, {"type": "node", "id": 8001855462, "lat": -52.606131, "lon": -68.129094, "tags": {"depth": "2030", "ele": "0", "field_name": "Magallanes (mag)", "man_made": "offshore_platform", "name": "SIP.MAG.AM-613", "operator": "Enap Sipetrol Argentina S.A.", "pump": "no", "ref": "29052", "seamark:type": "platform", "source": "http://datos.minem.gob.ar/", "substance": "oil"}}, {"type": "node", "id": 8001855463, "lat": -52.7765, "lon": -68.3155, "tags": {"abandoned": "yes", "abandoned:man_made": "offshore_platform", "depth": "1738", "ele": "36", "field_name": "Cuenca Marina Austral 1 (cau)", "name": "TA.CMA-1.Ara.e-3", "operator": "Total Austral S.A.", "pump": "no", "ref": "10272", "seamark:type": "platform", "source": "http://datos.minem.gob.ar/"}}, {"type": "node", "id": 8001855464, "lat": -53.29794, "lon": -67.7826, "tags": {"abandoned": "yes", "abandoned:man_made": "offshore_platform", "depth": "1381", "ele": "35", "field_name": "Cuenca Marina Austral 1 (cau)", "name": "TA.CMA-1.Ple.e-8", "operator": "Total Austral S.A.", "pump": "no", "ref": "10512", "seamark:type": "platform", "source": "http://datos.minem.gob.ar/"}}, {"type": "node", "id": 8001855465, "lat": -51.8004, "lon": -68.7146, "tags": {"abandoned": "yes", "abandoned:man_made": "offshore_platform", "depth": "1251", "ele": "35.8", "field_name": "Octans-pegaso (ope)", "name": "SH.CMA-14.GGH6.x-1", "operator": "Enap Sipetrol Argentina S.A.", "pump": "no", "ref": "134897", "seamark:type": "platform", "source": "http://datos.minem.gob.ar/", "substance": "gas"}}, {"type": "node", "id": 8001855466, "lat": -52.7394114, "lon": -68.1987987, "tags": {"abandoned": "yes", "abandoned:man_made": "offshore_platform", "depth": "1781", "ele": "35.7", "field_name": "Cuenca Marina Austral 1 (cau)", "name": "TA.CMA-9.Arg.e-4/I", "operator": "Total Austral S.A.", "pump": "no", "ref": "10296", "seamark:type": "platform", "source": "http://datos.minem.gob.ar/"}}, {"type": "node", "id": 8001855467, "lat": -52.75714, "lon": -67.21955, "tags": {"depth": "1974", "ele": "50.5", "field_name": "Cuenca Marina Austral 1 (cau)", "man_made": "offshore_platform", "name": "TA.CMA-1.Car1.PH-3", "operator": "Total Austral S.A.", "pump": "no", "ref": "10465", "seamark:type": "platform", "source": "http://datos.minem.gob.ar/", "substance": "gas"}}, {"type": "node", "id": 8001855468, "lat": -52.5313577, "lon": -68.3845162, "tags": {"depth": "1756", "ele": "0", "field_name": "Magallanes (mag)", "man_made": "offshore_platform", "name": "SIP.MAG.AM-106", "operator": "Enap Sipetrol Argentina S.A.", "pump": "no", "ref": "29014", "seamark:type": "platform", "source": "http://datos.minem.gob.ar/", "substance": "oil"}}, {"type": "node", "id": 8001855469, "lat": -52.8363923, "lon": -68.1793803, "tags": {"abandoned": "yes", "abandoned:man_made": "offshore_platform", "depth": "1986", "ele": "44.5", "field_name": "Cuenca Marina Austral 1 (cau)", "name": "TA.CMA-1.HCP-12", "operator": "Total Austral S.A.", "pump": "no", "ref": "10473", "seamark:type": "platform", "source": "http://datos.minem.gob.ar/", "substance": "oil"}}, {"type": "node", "id": 8001855470, "lat": -52.53137, "lon": -68.3845489, "tags": {"depth": "1838", "ele": "0", "field_name": "Magallanes (mag)", "man_made": "offshore_platform", "name": "SIP.MAG.AM-118", "operator": "Enap Sipetrol Argentina S.A.", "pump": "no", "ref": "129804", "seamark:type": "platform", "source": "http://datos.minem.gob.ar/", "substance": "oil"}}, {"type": "node", "id": 8001855471, "lat": -52.606123, "lon": -68.129132, "tags": {"depth": "2570", "ele": "0", "field_name": "Magallanes (mag)", "man_made": "offshore_platform", "name": "SIP.MAG.AM-601", "operator": "Enap Sipetrol Argentina S.A.", "pump": "no", "ref": "29045", "seamark:type": "platform", "source": "http://datos.minem.gob.ar/", "substance": "oil"}}, {"type": "node", "id": 8001855472, "lat": -52.7276931, "lon": -68.2131, "tags": {"abandoned": "yes", "abandoned:man_made": "offshore_platform", "depth": "2915", "ele": "33.2", "field_name": "Cuenca Marina Austral 1 (cau)", "name": "TA.CMA-1.ASM-1Drain", "operator": "Total Austral S.A.", "ref": "10293", "seamark:type": "platform", "source": "http://datos.minem.gob.ar/", "substance": "oil"}}, {"type": "node", "id": 8001855473, "lat": -52.86907, "lon": -67.08184, "tags": {"abandoned": "yes", "abandoned:man_made": "offshore_platform", "depth": "1137", "ele": "32.4", "field_name": "Cuenca Marina Austral 1 (cau)", "name": "TA.CMA-1.Car.e-12", "operator": "Total Austral S.A.", "pump": "no", "ref": "10462", "seamark:type": "platform", "source": "http://datos.minem.gob.ar/"}}, {"type": "node", "id": 8001855474, "lat": -52.579305, "lon": -68.012428, "tags": {"abandoned": "yes", "abandoned:man_made": "offshore_platform", "depth": "1663", "ele": "38.5", "field_name": "E-2 (enarsa-2) (ena2)", "name": "ESA.MA.HE2.X-1", "pump": "no", "ref": "131947", "seamark:type": "platform", "source": "http://datos.minem.gob.ar/"}}, {"type": "node", "id": 8001855475, "lat": -52.5313978, "lon": -68.384553, "tags": {"depth": "2090", "ele": "0", "field_name": "Magallanes (mag)", "man_made": "offshore_platform", "name": "SIP.MAG.AM-105", "operator": "Enap Sipetrol Argentina S.A.", "pump": "no", "ref": "129797", "seamark:type": "platform", "source": "http://datos.minem.gob.ar/", "substance": "oil"}}, {"type": "node", "id": 8001855476, "lat": -52.5705948, "lon": -68.2522154, "tags": {"depth": "1780", "ele": "0", "field_name": "Magallanes (mag)", "man_made": "offshore_platform", "name": "SIP.MAG.AM-510", "operator": "Enap Sipetrol Argentina S.A.", "pump": "no", "ref": "29042", "seamark:type": "platform", "source": "http://datos.minem.gob.ar/", "substance": "oil"}}, {"type": "node", "id": 8001855477, "lat": -52.612124, "lon": -68.449334, "tags": {"depth": "3190", "ele": "0", "field_name": "Poseidon (z063)", "man_made": "offshore_platform", "name": "SIP.POSEIDON.P-103", "operator": "Enap Sipetrol Argentina S.A.", "pump": "no", "ref": "33880", "seamark:type": "platform", "source": "http://datos.minem.gob.ar/", "substance": "oil"}}, {"type": "node", "id": 8001855478, "lat": -52.8204895, "lon": -68.2194736, "tags": {"abandoned": "yes", "abandoned:man_made": "offshore_platform", "depth": "2794", "ele": "40.1", "field_name": "Cuenca Marina Austral 1 (cau)", "name": "TA.CMA-1.HNP-3", "operator": "Total Austral S.A.", "pump": "no", "ref": "10501", "seamark:type": "platform", "source": "http://datos.minem.gob.ar/", "substance": "oil"}}, {"type": "node", "id": 8001855479, "lat": -52.7951923, "lon": -68.3069993, "tags": {"abandoned": "yes", "abandoned:man_made": "offshore_platform", "depth": "1750", "ele": "34.3", "field_name": "Cuenca Marina Austral 1 (cau)", "name": "TA.CMA-1.Ara.e-7", "operator": "Total Austral S.A.", "pump": "no", "ref": "10286", "seamark:type": "platform", "source": "http://datos.minem.gob.ar/"}}, {"type": "node", "id": 8001855480, "lat": -52.79139, "lon": -67.05915, "tags": {"abandoned": "yes", "abandoned:man_made": "offshore_platform", "depth": "1070", "ele": "31.9", "field_name": "Cuenca Marina Austral 1 (cau)", "name": "TA.CMA-1.Car.e-5", "operator": "Total Austral S.A.", "pump": "no", "ref": "10455", "seamark:type": "platform", "source": "http://datos.minem.gob.ar/"}}, {"type": "node", "id": 8001855481, "lat": -52.185024, "lon": -67.541623, "tags": {"abandoned": "yes", "abandoned:man_made": "offshore_platform", "depth": "1076", "ele": "0", "field_name": "E-2 (enarsa-2) (ena2)", "name": "SCA T La x-1", "pump": "no", "ref": "134942", "seamark:type": "platform", "source": "http://datos.minem.gob.ar/"}}, {"type": "node", "id": 8001855482, "lat": -52.5313398, "lon": -68.3845059, "tags": {"depth": "2272", "ele": "0", "field_name": "Magallanes (mag)", "man_made": "offshore_platform", "name": "SIP.MAG.AM-101", "operator": "Enap Sipetrol Argentina S.A.", "pump": "no", "ref": "129794", "seamark:type": "platform", "source": "http://datos.minem.gob.ar/", "substance": "oil"}}, {"type": "node", "id": 8001855483, "lat": -52.5705192, "lon": -68.252206, "tags": {"depth": "3042", "ele": "0", "field_name": "Magallanes (mag)", "man_made": "offshore_platform", "name": "SIP.MAG.AM-503", "operator": "Enap Sipetrol Argentina S.A.", "pump": "no", "ref": "29035", "seamark:type": "platform", "source": "http://datos.minem.gob.ar/", "substance": "oil"}}, {"type": "node", "id": 8001855484, "lat": -52.5225634, "lon": -68.2802696, "tags": {"depth": "2390", "ele": "0", "field_name": "Magallanes (mag)", "man_made": "offshore_platform", "name": "SIP.MAG.AM-310", "operator": "Enap Sipetrol Argentina S.A.", "pump": "no", "ref": "33877", "seamark:type": "platform", "source": "http://datos.minem.gob.ar/", "substance": "oil"}}, {"type": "node", "id": 8001859385, "lat": -52.7929, "lon": -68.2907, "tags": {"abandoned": "yes", "abandoned:man_made": "offshore_platform", "depth": "1745", "ele": "34.5", "field_name": "Cuenca Marina Austral 1 (cau)", "name": "TA.CMA-1.Ara.e-8", "operator": "Total Austral S.A.", "pump": "no", "ref": "10277", "seamark:type": "platform", "source": "http://datos.minem.gob.ar/"}}, {"type": "node", "id": 8001859386, "lat": -53.31816, "lon": -67.70896, "tags": {"abandoned": "yes", "abandoned:man_made": "offshore_platform", "depth": "1380", "ele": "34.4", "field_name": "Cuenca Marina Austral 1 (cau)", "name": "TA.CMA-9.Ple.x-1", "operator": "Total Austral S.A.", "pump": "no", "ref": "10513", "seamark:type": "platform", "source": "http://datos.minem.gob.ar/"}}, {"type": "node", "id": 8001859387, "lat": -52.68074, "lon": -68.09031, "tags": {"abandoned": "yes", "abandoned:man_made": "offshore_platform", "depth": "1620", "ele": "32", "field_name": "Cuenca Marina Austral 1 (cau)", "name": "TA.CMA-9.Ari.x-1", "operator": "Total Austral S.A.", "pump": "no", "ref": "10301", "seamark:type": "platform", "source": "http://datos.minem.gob.ar/"}}, {"type": "node", "id": 8001859388, "lat": -52.5705961, "lon": -68.2521101, "tags": {"depth": "2654", "ele": "0", "field_name": "Magallanes (mag)", "man_made": "offshore_platform", "name": "SIP.MAG.AM-502", "operator": "Enap Sipetrol Argentina S.A.", "pump": "no", "ref": "129818", "seamark:type": "platform", "source": "http://datos.minem.gob.ar/", "substance": "oil"}}, {"type": "node", "id": 8001859389, "lat": -52.836, "lon": -68.18, "tags": {"depth": "4829", "ele": "45", "field_name": "Cuenca Marina Austral 1 (cau)", "man_made": "offshore_platform", "name": "TA.CMA-9.HCP-4", "operator": "Total Austral S.A.", "ref": "134922", "seamark:type": "platform", "source": "http://datos.minem.gob.ar/", "substance": "oil"}}, {"type": "node", "id": 8001859390, "lat": -52.5313696, "lon": -68.3844891, "tags": {"depth": "2377", "ele": "0", "field_name": "Magallanes (mag)", "man_made": "offshore_platform", "name": "SIP.MAG.AM-113", "operator": "Enap Sipetrol Argentina S.A.", "pump": "no", "ref": "29015", "seamark:type": "platform", "source": "http://datos.minem.gob.ar/", "substance": "oil"}}, {"type": "node", "id": 8001859391, "lat": -52.836391, "lon": -68.1794005, "tags": {"depth": "2733", "ele": "45.2", "field_name": "Cuenca Marina Austral 1 (cau)", "man_made": "offshore_platform", "name": "TA.CMA-1.HCP-3", "operator": "Total Austral S.A.", "pump": "no", "ref": "10474", "seamark:type": "platform", "source": "http://datos.minem.gob.ar/"}}, {"type": "node", "id": 8001859392, "lat": -52.5490411, "lon": -68.3113462, "tags": {"depth": "2700", "ele": "0", "field_name": "Magallanes (mag)", "man_made": "offshore_platform", "name": "SIP.MAG.AM-201", "operator": "Enap Sipetrol Argentina S.A.", "pump": "no", "ref": "129805", "seamark:type": "platform", "source": "http://datos.minem.gob.ar/", "substance": "oil"}}, {"type": "node", "id": 8001859393, "lat": -52.606089, "lon": -68.129092, "tags": {"depth": "2565", "ele": "0", "field_name": "Magallanes (mag)", "man_made": "offshore_platform", "name": "SIP.MAG.AM-610", "operator": "Enap Sipetrol Argentina S.A.", "pump": "no", "ref": "29050", "seamark:type": "platform", "source": "http://datos.minem.gob.ar/", "substance": "oil"}}, {"type": "node", "id": 8001859394, "lat": -52.7627, "lon": -68.3696, "tags": {"abandoned": "yes", "abandoned:man_made": "offshore_platform", "depth": "1777", "ele": "32.1", "field_name": "Cuenca Marina Austral 1 (cau)", "name": "TA.CMA-1.Ara.e-10", "operator": "Total Austral S.A.", "pump": "no", "ref": "10270", "seamark:type": "platform", "source": "http://datos.minem.gob.ar/"}}, {"type": "node", "id": 8001859395, "lat": -53.37968, "lon": -67.77292, "tags": {"abandoned": "yes", "abandoned:man_made": "offshore_platform", "depth": "1426", "ele": "32.4", "field_name": "Cuenca Marina Austral 1 (cau)", "name": "TA.CMA-1.Ple.e-5", "operator": "Total Austral S.A.", "pump": "no", "ref": "10510", "seamark:type": "platform", "source": "http://datos.minem.gob.ar/"}}, {"type": "node", "id": 8001859396, "lat": -52.7279, "lon": -68.2138, "tags": {"abandoned": "yes", "abandoned:man_made": "offshore_platform", "depth": "5090", "ele": "33", "field_name": "Cuenca Marina Austral 1 (cau)", "name": "TA.CMA-1.ASM-2", "operator": "Total Austral S.A.", "pump": "no", "ref": "10294", "seamark:type": "platform", "source": "http://datos.minem.gob.ar/", "substance": "gas"}}, {"type": "node", "id": 8001859397, "lat": -52.83463, "lon": -67.36631, "tags": {"abandoned": "yes", "abandoned:man_made": "offshore_platform", "depth": "1150", "ele": "34", "field_name": "Cuenca Marina Austral 1 (cau)", "name": "TA.CMA-9.Car.x-2", "operator": "Total Austral S.A.", "pump": "no", "ref": "10463", "seamark:type": "platform", "source": "http://datos.minem.gob.ar/"}}, {"type": "node", "id": 8001859398, "lat": -52.5313627, "lon": -68.3846234, "tags": {"depth": "2605", "ele": "0", "field_name": "Magallanes (mag)", "man_made": "offshore_platform", "name": "SIP.MAG.AM-104", "operator": "Enap Sipetrol Argentina S.A.", "pump": "no", "ref": "29012", "seamark:type": "platform", "source": "http://datos.minem.gob.ar/", "substance": "oil"}}, {"type": "node", "id": 8001859399, "lat": -53.18418, "lon": -67.36347, "tags": {"abandoned": "yes", "abandoned:man_made": "offshore_platform", "depth": "1106", "ele": "31.1", "field_name": "Cuenca Marina Austral 1 (cau)", "name": "TA.CMA-9.Fen.e-2", "operator": "Total Austral S.A.", "pump": "no", "ref": "10470", "seamark:type": "platform", "source": "http://datos.minem.gob.ar/"}}, {"type": "node", "id": 8001859400, "lat": -52.5313541, "lon": -68.3846059, "tags": {"depth": "2948", "ele": "0", "field_name": "Magallanes (mag)", "man_made": "offshore_platform", "name": "SIP.MAG.AM-116", "operator": "Enap Sipetrol Argentina S.A.", "pump": "no", "ref": "129802", "seamark:type": "platform", "source": "http://datos.minem.gob.ar/", "substance": "oil"}}, {"type": "node", "id": 8001859401, "lat": -52.5704925, "lon": -68.2521342, "tags": {"depth": "2485", "ele": "0", "field_name": "Magallanes (mag)", "man_made": "offshore_platform", "name": "SIP.MAG.AM-511", "operator": "Enap Sipetrol Argentina S.A.", "pump": "no", "ref": "29043", "seamark:type": "platform", "source": "http://datos.minem.gob.ar/", "substance": "oil"}}, {"type": "node", "id": 8001859402, "lat": -52.718, "lon": -68.3099, "tags": {"abandoned": "yes", "abandoned:man_made": "offshore_platform", "depth": "1777", "ele": "31.9", "field_name": "Cuenca Marina Austral 1 (cau)", "name": "TA.CMA-1.AntS.x-1", "operator": "Total Austral S.A.", "pump": "no", "ref": "10267", "seamark:type": "platform", "source": "http://datos.minem.gob.ar/"}}, {"type": "node", "id": 8001859403, "lat": -52.612088, "lon": -68.449294, "tags": {"depth": "2546", "ele": "0", "field_name": "Poseidon (z063)", "man_made": "offshore_platform", "name": "SIP.POSEIDON.P-112", "operator": "Enap Sipetrol Argentina S.A.", "pump": "no", "ref": "33885", "seamark:type": "platform", "source": "http://datos.minem.gob.ar/", "substance": "oil"}}, {"type": "node", "id": 8001859404, "lat": -52.8854, "lon": -68.2463, "tags": {"abandoned": "yes", "abandoned:man_made": "offshore_platform", "depth": "1545", "ele": "34.1", "field_name": "Cuenca Marina Austral 1 (cau)", "name": "TA.CMA-9.Kau.e-2", "operator": "Total Austral S.A.", "pump": "no", "ref": "10502", "seamark:type": "platform", "source": "http://datos.minem.gob.ar/"}}, {"type": "node", "id": 8001859405, "lat": -52.7159, "lon": -68.1964, "tags": {"abandoned": "yes", "abandoned:man_made": "offshore_platform", "depth": "1755", "ele": "31.9", "field_name": "Cuenca Marina Austral 1 (cau)", "name": "TA.CMA-1.Arg.e-5", "operator": "Total Austral S.A.", "pump": "no", "ref": "10291", "seamark:type": "platform", "source": "http://datos.minem.gob.ar/"}}, {"type": "node", "id": 8001859406, "lat": -52.80678, "lon": -67.28147, "tags": {"abandoned": "yes", "abandoned:man_made": "offshore_platform", "depth": "1115", "ele": "33.8", "field_name": "Cuenca Marina Austral 1 (cau)", "name": "TA.CMA-1.Car.e-10", "operator": "Total Austral S.A.", "pump": "no", "ref": "10460", "seamark:type": "platform", "source": "http://datos.minem.gob.ar/"}}, {"type": "node", "id": 8001859407, "lat": -52.543464, "lon": -68.234159, "tags": {"abandoned": "yes", "abandoned:man_made": "offshore_platform", "depth": "1665", "ele": "0", "field_name": "Magallanes (mag)", "name": "SH-CMA14-MGA-9 x-2", "operator": "Enap Sipetrol Argentina S.A.", "pump": "no", "ref": "134947", "seamark:type": "platform", "source": "http://datos.minem.gob.ar/"}}, {"type": "node", "id": 8001859408, "lat": -52.5313683, "lon": -68.3844617, "tags": {"depth": "2432", "ele": "0", "field_name": "Magallanes (mag)", "man_made": "offshore_platform", "name": "SIP.MAG.AM-103", "operator": "Enap Sipetrol Argentina S.A.", "pump": "no", "ref": "129795", "seamark:type": "platform", "source": "http://datos.minem.gob.ar/", "substance": "oil"}}, {"type": "node", "id": 8001859409, "lat": -52.5705412, "lon": -68.2520731, "tags": {"depth": "2670", "ele": "0", "field_name": "Magallanes (mag)", "man_made": "offshore_platform", "name": "SIP.MAG.AM-508", "operator": "Enap Sipetrol Argentina S.A.", "pump": "no", "ref": "29040", "seamark:type": "platform", "source": "http://datos.minem.gob.ar/", "substance": "oil"}}, {"type": "node", "id": 8001859410, "lat": -52.612419, "lon": -68.448884, "tags": {"abandoned": "yes", "abandoned:man_made": "offshore_platform", "depth": "1725", "ele": "0", "field_name": "Poseidon (z063)", "name": "SIP.C2A.CAM-XE-1", "operator": "Enap Sipetrol Argentina S.A.", "pump": "no", "ref": "33878", "seamark:type": "platform", "source": "http://datos.minem.gob.ar/"}}, {"type": "node", "id": 8001859411, "lat": -52.8204837, "lon": -68.2196899, "tags": {"depth": "5896", "ele": "39.15", "field_name": "Cuenca Marina Austral 1 (cau)", "man_made": "offshore_platform", "name": "TA.CMA-9.HNP-12", "operator": "Total Austral S.A.", "pump": "no", "ref": "10499", "seamark:type": "platform", "source": "http://datos.minem.gob.ar/", "substance": "oil"}}, {"type": "node", "id": 8001859412, "lat": -53.067499, "lon": -67.3325, "tags": {"depth": "1166.7", "ele": "51.44", "end_date": "2014-09-03", "field_name": "Cuenca Marina Austral 1 (cau)", "man_made": "offshore_platform", "name": "TAU.MA.Fen.e-3", "operator": "Total Austral S.A.", "pump": "no", "ref": "153645", "seamark:type": "platform", "source": "http://datos.minem.gob.ar/", "start_date": "2014-08-11"}}, {"type": "node", "id": 8001859413, "lat": -52.5491174, "lon": -68.3211037, "tags": {"abandoned": "yes", "abandoned:man_made": "offshore_platform", "depth": "2020", "ele": "0", "field_name": "Magallanes (mag)", "name": "SH-CMA14-MFI-10 x-1", "operator": "Enap Sipetrol Argentina S.A.", "pump": "no", "ref": "134940", "seamark:type": "platform", "source": "http://datos.minem.gob.ar/"}}, {"type": "node", "id": 8001859414, "lat": -52.5705105, "lon": -68.2521589, "tags": {"depth": "2362", "ele": "0", "field_name": "Magallanes (mag)", "man_made": "offshore_platform", "name": "SIP.MAG.AM-501", "operator": "Enap Sipetrol Argentina S.A.", "pump": "no", "ref": "29033", "seamark:type": "platform", "source": "http://datos.minem.gob.ar/", "substance": "oil"}}, {"type": "node", "id": 8001859485, "lat": -52.5489888, "lon": -68.31134, "tags": {"depth": "2696", "ele": "0", "field_name": "Magallanes (mag)", "man_made": "offshore_platform", "name": "SIP.MAG.AM-206", "operator": "Enap Sipetrol Argentina S.A.", "pump": "no", "ref": "29026", "seamark:type": "platform", "source": "http://datos.minem.gob.ar/", "substance": "oil"}}, {"type": "node", "id": 8001859486, "lat": -52.544577, "lon": -68.212491, "tags": {"abandoned": "yes", "abandoned:man_made": "offshore_platform", "depth": "1635", "ele": "0", "field_name": "Magallanes (mag)", "name": "SIP.MAG.AM-XE-2", "operator": "Enap Sipetrol Argentina S.A.", "pump": "no", "ref": "33864", "seamark:type": "platform", "source": "http://datos.minem.gob.ar/"}}, {"type": "node", "id": 8001859487, "lat": -52.8363939, "lon": -68.1794158, "tags": {"depth": "1917", "ele": "44.5", "field_name": "Cuenca Marina Austral 1 (cau)", "man_made": "offshore_platform", "name": "TA.CMA-9.HCP-5", "operator": "Total Austral S.A.", "ref": "10485", "seamark:type": "platform", "source": "http://datos.minem.gob.ar/", "substance": "oil"}}, {"type": "node", "id": 8001859488, "lat": -52.5490154, "lon": -68.311507, "tags": {"depth": "1760", "ele": "0", "field_name": "Magallanes (mag)", "man_made": "offshore_platform", "name": "SIP.MAG.AM-212", "operator": "Enap Sipetrol Argentina S.A.", "pump": "no", "ref": "129816", "seamark:type": "platform", "source": "http://datos.minem.gob.ar/", "substance": "oil"}}, {"type": "node", "id": 8001859489, "lat": -52.6832552, "lon": -68.0420477, "tags": {"depth": "4696", "ele": "50", "field_name": "Cuenca Marina Austral 1 (cau)", "man_made": "offshore_platform", "name": "TA.CMA-1.Ari.PH-3", "operator": "Total Austral S.A.", "pump": "no", "ref": "10305", "seamark:type": "platform", "source": "http://datos.minem.gob.ar/", "substance": "gas"}}, {"type": "node", "id": 8001859490, "lat": -52.5705654, "lon": -68.2520182, "tags": {"depth": "2712", "ele": "0", "field_name": "Magallanes (mag)", "man_made": "offshore_platform", "name": "SIP.MAG.AM-506", "operator": "Enap Sipetrol Argentina S.A.", "pump": "no", "ref": "129822", "seamark:type": "platform", "source": "http://datos.minem.gob.ar/", "substance": "oil"}}, {"type": "node", "id": 8001859491, "lat": -52.5313892, "lon": -68.3845934, "tags": {"depth": "2040", "ele": "0", "field_name": "Magallanes (mag)", "man_made": "offshore_platform", "name": "SIP.MAG.AM-117", "operator": "Enap Sipetrol Argentina S.A.", "pump": "no", "ref": "29019", "seamark:type": "platform", "source": "http://datos.minem.gob.ar/", "substance": "oil"}}, {"type": "node", "id": 8001859492, "lat": -52.8197, "lon": -68.2369, "tags": {"abandoned": "yes", "abandoned:man_made": "offshore_platform", "depth": "1796", "ele": "37", "field_name": "Cuenca Marina Austral 1 (cau)", "name": "TA.CMA-9.Hid.e-2", "operator": "Total Austral S.A.", "pump": "no", "ref": "10478", "seamark:type": "platform", "source": "http://datos.minem.gob.ar/"}}, {"type": "node", "id": 8001859493, "lat": -52.5489522, "lon": -68.3113748, "tags": {"depth": "3007", "ele": "0", "field_name": "Magallanes (mag)", "man_made": "offshore_platform", "name": "SIP.MAG.AM-205", "operator": "Enap Sipetrol Argentina S.A.", "pump": "no", "ref": "129809", "seamark:type": "platform", "source": "http://datos.minem.gob.ar/", "substance": "oil"}}, {"type": "node", "id": 8001859494, "lat": -52.606106, "lon": -68.12908, "tags": {"depth": "2734", "ele": "0", "field_name": "Magallanes (mag)", "man_made": "offshore_platform", "name": "SIP.MAG.AM-615", "operator": "Enap Sipetrol Argentina S.A.", "pump": "no", "ref": "29054", "seamark:type": "platform", "source": "http://datos.minem.gob.ar/", "substance": "oil"}}, {"type": "node", "id": 8001859495, "lat": -52.7566, "lon": -68.4237, "tags": {"abandoned": "yes", "abandoned:man_made": "offshore_platform", "depth": "1747", "ele": "37.2", "field_name": "Cuenca Marina Austral 1 (cau)", "name": "TA.CMA-1.Ara.e-5", "operator": "Total Austral S.A.", "pump": "no", "ref": "10274", "seamark:type": "platform", "source": "http://datos.minem.gob.ar/"}}, {"type": "node", "id": 8001859496, "lat": -53.29255, "lon": -67.74564, "tags": {"abandoned": "yes", "abandoned:man_made": "offshore_platform", "depth": "1467", "ele": "33.1", "field_name": "Cuenca Marina Austral 1 (cau)", "name": "TA.CMA-1.Ple.e-4", "operator": "Total Austral S.A.", "pump": "no", "ref": "10514", "seamark:type": "platform", "source": "http://datos.minem.gob.ar/"}}, {"type": "node", "id": 8001859497, "lat": -52.7277049, "lon": -68.213098, "tags": {"abandoned": "yes", "abandoned:man_made": "offshore_platform", "depth": "1813", "ele": "33.2", "field_name": "Cuenca Marina Austral 1 (cau)", "name": "TA.CMA-1.ASM-1Pilot", "operator": "Total Austral S.A.", "pump": "no", "ref": "10298", "seamark:type": "platform", "source": "http://datos.minem.gob.ar/"}}, {"type": "node", "id": 8001859498, "lat": -52.80553, "lon": -67.21279, "tags": {"abandoned": "yes", "abandoned:man_made": "offshore_platform", "depth": "1061", "ele": "34.9", "field_name": "Cuenca Marina Austral 1 (cau)", "name": "TA.CMA-1.Car.e-3", "operator": "Total Austral S.A.", "pump": "no", "ref": "10467", "seamark:type": "platform", "source": "http://datos.minem.gob.ar/"}}, {"type": "node", "id": 8001859499, "lat": -52.5313419, "lon": -68.3845879, "tags": {"depth": "1996", "ele": "0", "field_name": "Magallanes (mag)", "man_made": "offshore_platform", "name": "SIP.MAG.AM-114", "operator": "Enap Sipetrol Argentina S.A.", "pump": "no", "ref": "29016", "seamark:type": "platform", "source": "http://datos.minem.gob.ar/", "substance": "oil"}}, {"type": "node", "id": 8001859500, "lat": -52.8364, "lon": -68.1795, "tags": {"depth": "5982", "ele": "45", "field_name": "Cuenca Marina Austral 1 (cau)", "man_made": "offshore_platform", "name": "TA.CMA-9.HCP-4I", "operator": "Total Austral S.A.", "ref": "10475", "seamark:type": "platform", "source": "http://datos.minem.gob.ar/", "substance": "oil"}}, {"type": "node", "id": 8001859501, "lat": -52.549015, "lon": -68.3113991, "tags": {"depth": "1930", "ele": "0", "field_name": "Magallanes (mag)", "man_made": "offshore_platform", "name": "SIP.MAG.AM-202", "operator": "Enap Sipetrol Argentina S.A.", "pump": "no", "ref": "129806", "seamark:type": "platform", "source": "http://datos.minem.gob.ar/", "substance": "oil"}}, {"type": "node", "id": 8001859502, "lat": -52.606058, "lon": -68.129097, "tags": {"depth": "2403", "ele": "0", "field_name": "Magallanes (mag)", "man_made": "offshore_platform", "name": "SIP.MAG.AM-606", "operator": "Enap Sipetrol Argentina S.A.", "pump": "no", "ref": "29047", "seamark:type": "platform", "source": "http://datos.minem.gob.ar/", "substance": "oil"}}, {"type": "node", "id": 8001859503, "lat": -52.7862, "lon": -68.278, "tags": {"abandoned": "yes", "abandoned:man_made": "offshore_platform", "depth": "1738", "ele": "38", "field_name": "Cuenca Marina Austral 1 (cau)", "name": "TA.CMA-1.Ara.x-2", "operator": "Total Austral S.A.", "pump": "no", "ref": "10271", "seamark:type": "platform", "source": "http://datos.minem.gob.ar/"}}, {"type": "node", "id": 8001859504, "lat": -52.79431, "lon": -68.05941, "tags": {"abandoned": "yes", "abandoned:man_made": "offshore_platform", "depth": "1584", "ele": "38.6", "field_name": "Cuenca Marina Austral 1 (cau)", "name": "TA.CMA-9.Spi.x-1", "operator": "Total Austral S.A.", "pump": "no", "ref": "10507", "seamark:type": "platform", "source": "http://datos.minem.gob.ar/"}}, {"type": "node", "id": 8001859505, "lat": -52.7277838, "lon": -68.2139, "tags": {"abandoned": "yes", "abandoned:man_made": "offshore_platform", "depth": "2505", "ele": "33", "field_name": "Cuenca Marina Austral 1 (cau)", "name": "TA.CMA-1.ASM-2Pilot", "operator": "Total Austral S.A.", "pump": "no", "ref": "10295", "seamark:type": "platform", "source": "http://datos.minem.gob.ar/"}}, {"type": "node", "id": 8001859506, "lat": -52.75719, "lon": -67.21959, "tags": {"depth": "2604", "ele": "50.53", "field_name": "Cuenca Marina Austral 1 (cau)", "man_made": "offshore_platform", "name": "TA.CMA-1.Car1.PH-1", "operator": "Total Austral S.A.", "pump": "no", "ref": "10464", "seamark:type": "platform", "source": "http://datos.minem.gob.ar/", "substance": "gas"}}, {"type": "node", "id": 8001859507, "lat": -52.5313834, "lon": -68.3844626, "tags": {"depth": "2377", "ele": "0", "field_name": "Magallanes (mag)", "man_made": "offshore_platform", "name": "SIP.MAG.AM-113", "operator": "Enap Sipetrol Argentina S.A.", "pump": "no", "ref": "129799", "seamark:type": "platform", "source": "http://datos.minem.gob.ar/", "substance": "oil"}}, {"type": "node", "id": 8001859508, "lat": -52.5705067, "lon": -68.252232, "tags": {"depth": "2900", "ele": "0", "field_name": "Magallanes (mag)", "man_made": "offshore_platform", "name": "SIP.MAG.AM-512", "operator": "Enap Sipetrol Argentina S.A.", "pump": "no", "ref": "29044", "seamark:type": "platform", "source": "http://datos.minem.gob.ar/", "substance": "oil"}}, {"type": "node", "id": 8001859509, "lat": -52.612098, "lon": -68.449323, "tags": {"depth": "3103", "ele": "0", "field_name": "Poseidon (z063)", "man_made": "offshore_platform", "name": "SIP.POSEIDON.P-105", "operator": "Enap Sipetrol Argentina S.A.", "pump": "no", "ref": "33882", "seamark:type": "platform", "source": "http://datos.minem.gob.ar/", "substance": "oil"}}, {"type": "node", "id": 8001859510, "lat": -53.43574, "lon": -67.72666, "tags": {"abandoned": "yes", "abandoned:man_made": "offshore_platform", "depth": "1390", "ele": "34.5", "field_name": "Cuenca Marina Austral 1 (cau)", "name": "TA.CMA-9.Veg.x-1", "operator": "Total Austral S.A.", "pump": "no", "ref": "79517", "seamark:type": "platform", "source": "http://datos.minem.gob.ar/"}}, {"type": "node", "id": 8001859511, "lat": -52.9022, "lon": -68.2085, "tags": {"abandoned": "yes", "abandoned:man_made": "offshore_platform", "depth": "1570", "ele": "34.6", "field_name": "Cuenca Marina Austral 1 (cau)", "name": "TA.CMA-9.Kau.x-1", "operator": "Total Austral S.A.", "pump": "no", "ref": "10503", "seamark:type": "platform", "source": "http://datos.minem.gob.ar/"}}, {"type": "node", "id": 8001859512, "lat": -52.7232, "lon": -68.1984, "tags": {"abandoned": "yes", "abandoned:man_made": "offshore_platform", "depth": "1751", "ele": "33", "field_name": "Cuenca Marina Austral 1 (cau)", "name": "TA.CMA-9.Arg.e-2", "operator": "Total Austral S.A.", "pump": "no", "ref": "10288", "seamark:type": "platform", "source": "http://datos.minem.gob.ar/"}}, {"type": "node", "id": 8001859513, "lat": -52.79712, "lon": -67.40864, "tags": {"abandoned": "yes", "abandoned:man_made": "offshore_platform", "depth": "1130", "ele": "34", "field_name": "Cuenca Marina Austral 1 (cau)", "name": "TA.CMA-1.Car.e-8", "operator": "Total Austral S.A.", "pump": "no", "ref": "10457", "seamark:type": "platform", "source": "http://datos.minem.gob.ar/"}},