{"version": 0.6, "generator": "Overpass API 0.7.61.5 4133829e", "osm3s": {"timestamp_osm_base": "2023-11-02T14:38:29Z", "copyright": "The data included in this document is from www.openstreetmap.org. The data is made available under ODbL."}, "elements": [{"type": "node", "id": 1340857338, "lat": 36.5392667, "lon": 14.6256333, "tags": {"seamark:fog_signal:category": "horn", "seamark:fog_signal:group": "U", "seamark:fog_signal:period": "30", "seamark:information": "Aero Obstruction lights 10 F.R. 3M", "seamark:light:character": "Mo", "seamark:light:colour": "white", "seamark:light:group": "U", "seamark:light:height": "19", "seamark:light:period": "15", "seamark:light:range": "10", "seamark:light:reference": "E 7120", "seamark:name": "Vega", "seamark:platform:height": "226", "seamark:radar_transponder:category": "racon", "seamark:radar_transponder:group": "V", "seamark:radar_transponder:period": "30", "seamark:type": "platform", "source": "US NGA Pub. 113. 2010-10-22."}}, {"type": "node", "id": 1581566725, "lat": 33.9061, "lon": 12.6551, "tags": {"seamark:light:character": "Mo", "seamark:light:colour": "white", "seamark:light:group": "U", "seamark:light:period": "15", "seamark:light:reference": "E 7860", "seamark:name": "Bouri SPM", "seamark:platform:category": "production", "seamark:radar_transponder:category": "racon", "seamark:radar_transponder:group": "A", "seamark:type": "platform", "source": "US NGA Pub. 113. 2011-10-20."}}, {"type": "node", "id": 2184010869, "lat": 37.01962, "lon": 14.1603034, "tags": {"man_made": "offshore_platform", "name": "Piattaforma Prezioso", "seamark:type": "platform"}}, {"type": "node", "id": 3295247065, "lat": 33.8929802, "lon": 12.6080218, "tags": {"seamark:light:character": "Mo", "seamark:light:colour": "white", "seamark:light:reference": "E 7860.A", "seamark:name": "Bouri DP3", "seamark:platform:category": "production", "seamark:radar_transponder:category": "racon", "seamark:radar_transponder:group": "M", "seamark:type": "platform", "source": "US NGA Pub. 113. 2013"}}, {"type": "node", "id": 3295247066, "lat": 33.9218527, "lon": 12.6797846, "tags": {"seamark:light:character": "Mo", "seamark:light:colour": "white", "seamark:light:reference": "E 7860.B", "seamark:name": "Bouri DP4", "seamark:platform:category": "production", "seamark:radar_transponder:category": "racon", "seamark:radar_transponder:group": "U", "seamark:type": "platform", "source": "US NGA Pub. 113. 2013"}}, {"type": "node", "id": 5582056882, "lat": 39.059378, "lon": 17.165078, "tags": {"height": "10", "name": "Hera Lacinia 14", "operator": "Ionica Gas", "ref": "238", "seamark:type": "platform", "start_date": "1992"}}, {"type": "node", "id": 5582056883, "lat": 39.062022, "lon": 17.172791, "tags": {"height": "19", "name": "Hera Lacinia Beaf", "operator": "Ionica Gas", "ref": "239", "seamark:type": "platform", "start_date": "1998"}}, {"type": "node", "id": 5582056884, "lat": 39.085558, "lon": 17.200183, "tags": {"height": "38", "name": "Luna B", "operator": "Ionica Gas", "ref": "244", "seamark:type": "platform", "start_date": "1992"}}, {"type": "node", "id": 5582056885, "lat": 39.092676, "lon": 17.198391, "tags": {"name": "Luna 40 Saf", "operator": "Ionica Gas", "ref": "242", "seamark:type": "platform", "start_date": "1995"}}, {"type": "node", "id": 5582056886, "lat": 39.093105, "lon": 17.214463, "tags": {"name": "Luna 27", "operator": "Ionica Gas", "ref": "241", "seamark:type": "platform", "start_date": "1987"}}, {"type": "node", "id": 5582056887, "lat": 39.114867, "lon": 17.181716, "tags": {"height": "38", "man_made": "offshore_platform", "name": "Luna A", "operator": "Ionica Gas", "ref": "243", "seamark:type": "platform", "start_date": "1976"}}, {"type": "node", "id": 5582062341, "lat": 36.954193, "lon": 14.216245, "tags": {"height": "24", "man_made": "offshore_platform", "name": "Perla", "operator": "Eni Mediterranea Idrocarburi", "ref": "249", "seamark:fog_signal:category": "horn", "seamark:light:1:category": "vertical", "seamark:light:1:character": "Mo", "seamark:light:1:colour": "white", "seamark:light:1:group": "U", "seamark:light:1:multiple": "2", "seamark:light:1:period": "15", "seamark:light:1:range": "8", "seamark:light:2:category": "vertical", "seamark:light:2:character": "Mo", "seamark:light:2:colour": "red", "seamark:light:2:group": "U", "seamark:light:2:multiple": "2", "seamark:light:2:period": "15", "seamark:light:2:range": "8", "seamark:type": "platform", "start_date": "1983"}}, {"type": "node", "id": 5582062342, "lat": 37.009175, "lon": 14.045081, "tags": {"height": "44", "name": "Prezioso", "operator": "Eni Mediterranea Idrocarburi", "ref": "260", "seamark:type": "platform", "start_date": "1988"}}, {"type": "node", "id": 5582062343, "lat": 36.926058, "lon": 13.805449, "tags": {"name": "Argo 2", "operator": "Eni", "ref": "294", "seamark:type": "platform", "start_date": "2008"}}, {"type": "node", "id": 5592631080, "lat": 37.00661, "lon": 13.623818, "tags": {"name": "Panda 1", "operator": "Eni", "ref": "295", "seamark:type": "platform", "start_date": "2002"}}, {"type": "node", "id": 5592631081, "lat": 37.000607, "lon": 13.594536, "tags": {"name": "Panda W 1", "operator": "Eni", "ref": "296", "seamark:type": "platform", "start_date": "2003"}}, {"type": "way", "id": 182200626, "center": {"lat": 37.0322388, "lon": 14.2695707}, "nodes": [1925457546, 1925457556, 1925457543, 1925457549, 1925457551, 1925457561, 1925457559, 1925457547, 1925457550, 1925457557, 1925457558, 1925457560, 1925457546], "tags": {"height": "21", "man_made": "offshore_platform", "name": "Gela 1 Cluster", "operator": "Eni Mediterranea Idrocarburi", "ref": "235", "seamark:type": "platform", "start_date": "1964"}}]}