{"version": 0.6, "generator": "Overpass API 0.7.61.5 4133829e", "osm3s": {"timestamp_osm_base": "2023-11-02T14:39:32Z", "copyright": "The data included in this document is from www.openstreetmap.org. The data is made available under ODbL."}, "elements": [{"type": "node", "id": 1347582585, "lat": 45.31365, "lon": 12.5133333, "tags": {"seamark:light:character": "Mo", "seamark:light:colour": "white", "seamark:light:group": "U", "seamark:light:period": "15", "seamark:light:range": "8", "seamark:light:reference": "E 2462", "seamark:type": "platform", "source": "US NGA Pub. 113. 2010-10-22."}}, {"type": "node", "id": 1347582609, "lat": 44.4592333, "lon": 12.523117, "tags": {"seamark:fog_signal:category": "horn", "seamark:fog_signal:group": "U", "seamark:fog_signal:period": "30", "seamark:light:character": "Mo", "seamark:light:colour": "white", "seamark:light:group": "U", "seamark:light:period": "15", "seamark:light:range": "6", "seamark:light:reference": "E 7522", "seamark:name": "AGIP 4", "seamark:platform:height": "20", "seamark:radar_transponder:category": "racon", "seamark:radar_transponder:group": "U", "seamark:radar_transponder:period": "120", "seamark:type": "platform", "source": "US NGA Pub. 113. 2010-10-22."}}, {"type": "node", "id": 1347582610, "lat": 44.4768056, "lon": 12.3651667, "tags": {"seamark:fog_signal:category": "horn", "seamark:fog_signal:group": "O", "seamark:fog_signal:period": "45", "seamark:light:character": "Fl", "seamark:light:colour": "white", "seamark:light:group": "2", "seamark:light:height": "10", "seamark:light:period": "5", "seamark:light:range": "8", "seamark:light:reference": "E 7520", "seamark:light:sequence": "0.5+(1)+0.5+(3)", "seamark:name": "AGIP 1", "seamark:platform:height": "85", "seamark:type": "platform", "source": "US NGA Pub. 113. 2010-10-22."}}, {"type": "node", "id": 1347582649, "lat": 43.668317, "lon": 13.4058167, "tags": {"seamark:fog_signal:category": "horn", "seamark:fog_signal:group": "2", "seamark:fog_signal:period": "45", "seamark:light:character": "Fl", "seamark:light:colour": "yellow", "seamark:light:height": "30", "seamark:light:period": "3", "seamark:light:range": "6", "seamark:light:reference": "E 7470", "seamark:light:sequence": "1+(2)", "seamark:platform:height": "98", "seamark:type": "platform", "source": "US NGA Pub. 113. 2010-10-22."}}, {"type": "node", "id": 1347582653, "lat": 43.7447833, "lon": 13.5220667, "tags": {"seamark:fog_signal:category": "horn", "seamark:fog_signal:group": "U", "seamark:fog_signal:period": "30", "seamark:light:character": "Mo", "seamark:light:colour": "white", "seamark:light:group": "U", "seamark:light:period": "15", "seamark:light:range": "6", "seamark:light:reference": "E 7471", "seamark:light:sequence": "0.5+(1)+0.5+(1)+2+(10)", "seamark:name": "AP 1", "seamark:type": "platform", "source": "US NGA Pub. 113. 2010-10-22."}}, {"type": "node", "id": 1377048219, "lat": 44.4628837, "lon": 13.5021167, "tags": {"man_made": "offshore_platform", "operator": "INA", "operator:wikidata": "Q1662137", "seamark:fog_signal:category": "horn", "seamark:fog_signal:group": "U", "seamark:fog_signal:period": "30", "seamark:light:character": "Mo", "seamark:light:colour": "white", "seamark:light:group": "U", "seamark:light:period": "15", "seamark:light:range": "10", "seamark:light:reference": "E 7584", "seamark:light:sequence": "0.4+(0.5)+0.4+(0.5)+1.2+(12)", "seamark:name": "IDA-C", "seamark:type": "platform", "source": "US NGA Pub. 113. 2010-10-22.", "substance": "gas"}}, {"type": "node", "id": 1377048226, "lat": 44.7446333, "lon": 13.2477, "tags": {"man_made": "offshore_platform", "operator": "INA", "operator:wikidata": "Q1662137", "seamark:fog_signal:category": "horn", "seamark:fog_signal:group": "U", "seamark:fog_signal:period": "30", "seamark:light:character": "Mo", "seamark:light:colour": "white", "seamark:light:group": "U", "seamark:light:height": "22", "seamark:light:period": "15", "seamark:light:range": "10", "seamark:light:reference": "E 7582", "seamark:light:sequence": "0.4+(0.5)+0.4+(0.5)+1.2+(12)", "seamark:name": "Ivana E", "seamark:type": "platform", "source": "US NGA Pub. 113. 2010-10-22.", "substance": "gas"}}, {"type": "node", "id": 1377048239, "lat": 44.6989837, "lon": 13.2003333, "tags": {"man_made": "offshore_platform", "operator": "INA", "operator:wikidata": "Q1662137", "seamark:fog_signal:category": "horn", "seamark:fog_signal:group": "U", "seamark:fog_signal:period": "30", "seamark:light:character": "Mo", "seamark:light:colour": "white", "seamark:light:group": "U", "seamark:light:height": "22", "seamark:light:period": "15", "seamark:light:range": "10", "seamark:light:reference": "E 7583", "seamark:light:sequence": "0.4+(0.5)+0.4+(0.5)+1.2+(12)", "seamark:name": "Ivana B", "seamark:type": "platform", "source": "US NGA Pub. 113. 2010-10-22.", "substance": "gas"}}, {"type": "node", "id": 1377048241, "lat": 44.74565, "lon": 13.2989167, "tags": {"man_made": "offshore_platform", "operator": "INA", "operator:wikidata": "Q1662137", "seamark:fog_signal:category": "horn", "seamark:fog_signal:group": "U", "seamark:fog_signal:period": "30", "seamark:light:character": "Mo", "seamark:light:colour": "white", "seamark:light:group": "U", "seamark:light:height": "17", "seamark:light:period": "15", "seamark:light:range": "10", "seamark:light:reference": "E 7580", "seamark:light:sequence": "0.4+(0.5)+0.4+(0.5)+1.2+(12)", "seamark:name": "Ivana A", "seamark:type": "platform", "source": "US NGA Pub. 113. 2010-10-22.", "substance": "gas"}}, {"type": "node", "id": 2399444288, "lat": 46.8908519, "lon": 17.8956513, "tags": {"seamark:type": "platform"}}, {"type": "node", "id": 2399444290, "lat": 46.8910717, "lon": 17.8958924, "tags": {"seamark:type": "platform"}}, {"type": "node", "id": 2399444291, "lat": 46.8912365, "lon": 17.8960762, "tags": {"seamark:type": "platform"}}, {"type": "node", "id": 2399444293, "lat": 46.8913777, "lon": 17.896214, "tags": {"seamark:type": "platform"}}, {"type": "node", "id": 2399444304, "lat": 46.8915529, "lon": 17.8963429, "tags": {"seamark:type": "platform"}}, {"type": "node", "id": 2399444309, "lat": 46.891675, "lon": 17.8964606, "tags": {"seamark:type": "platform"}}, {"type": "node", "id": 2399444313, "lat": 46.8918276, "lon": 17.8966108, "tags": {"seamark:type": "platform"}}, {"type": "node", "id": 2399444316, "lat": 46.8919636, "lon": 17.8967286, "tags": {"seamark:type": "platform"}}, {"type": "node", "id": 2399444317, "lat": 46.8921439, "lon": 17.8968666, "tags": {"seamark:type": "platform"}}, {"type": "node", "id": 2399444320, "lat": 46.8924158, "lon": 17.8970696, "tags": {"seamark:type": "platform"}}, {"type": "node", "id": 2399444321, "lat": 46.8926322, "lon": 17.8972401, "tags": {"seamark:type": "platform"}}, {"type": "node", "id": 2399444324, "lat": 46.8930318, "lon": 17.8975812, "tags": {"seamark:type": "platform"}}, {"type": "node", "id": 2399444332, "lat": 46.8940315, "lon": 17.8981222, "tags": {"seamark:type": "platform"}}, {"type": "node", "id": 3430740027, "lat": 40.920389, "lon": 18.3280518, "tags": {"seamark:fog_signal:category": "nautophone", "seamark:fog_signal:generation": "automatic", "seamark:fog_signal:group": "U", "seamark:fog_signal:period": "30", "seamark:light:character": "Mo", "seamark:light:colour": "white", "seamark:light:period": "15", "seamark:light:range": "10", "seamark:name": "FPSO Firenze", "seamark:platform:category": "fpso", "seamark:radar_transponder:group": "A", "seamark:radar_transponder:period": "30", "seamark:type": "platform"}}, {"type": "node", "id": 3433143055, "lat": 42.20101, "lon": 14.9382999, "tags": {"seamark:light:reference": "E7402", "seamark:name": "Alba Marina", "seamark:platform:category": "fpso", "seamark:type": "platform"}}, {"type": "node", "id": 3433143056, "lat": 42.2028856, "lon": 14.9708219, "tags": {"seamark:light:character": "Mo", "seamark:light:colour": "white", "seamark:light:group": "U", "seamark:light:period": "15", "seamark:light:range": "6", "seamark:name": "RSMA", "seamark:type": "platform"}}, {"type": "node", "id": 3433143059, "lat": 42.2125, "lon": 14.9467, "tags": {"seamark:fog_signal:category": "horn", "seamark:fog_signal:group": "U", "seamark:fog_signal:period": "30", "seamark:fog_signal:range": "2", "seamark:light:character": "Mo", "seamark:light:colour": "white", "seamark:light:group": "U", "seamark:light:period": "15", "seamark:light:range": "6", "seamark:light:reference": "E7403", "seamark:name": "RSMB", "seamark:type": "platform"}}, {"type": "node", "id": 3433143070, "lat": 42.2348333, "lon": 14.9253333, "tags": {"seamark:light:character": "Mo", "seamark:light:colour": "white", "seamark:light:group": "U", "seamark:light:period": "15", "seamark:light:range": "5", "seamark:name": "RSMC", "seamark:type": "platform"}}, {"type": "node", "id": 3433653353, "lat": 42.2085952, "lon": 14.6746458, "tags": {"seamark:light:character": "Mo", "seamark:light:colour": "white", "seamark:light:group": "U", "seamark:light:range": "5", "seamark:name": "SSM 4", "seamark:platform:category": "gas", "seamark:reference": "E7405", "seamark:type": "platform"}}, {"type": "node", "id": 3433653359, "lat": 42.2160824, "lon": 14.6361644, "tags": {"seamark:light:character": "Mo", "seamark:light:colour": "white", "seamark:light:group": "U", "seamark:light:period": "15", "seamark:light:range": "5", "seamark:name": "SSM 8 bis", "seamark:platform:category": "gas", "seamark:reference": "E7405.2", "seamark:type": "platform"}}, {"type": "node", "id": 3433653366, "lat": 42.2198183, "lon": 14.610226, "tags": {"seamark:light:character": "Mo", "seamark:light:colour": "white", "seamark:light:group": "U", "seamark:light:period": "15", "seamark:light:range": "5", "seamark:name": "SSM 3-7", "seamark:platform:category": "gas", "seamark:type": "platform"}}, {"type": "node", "id": 3433653367, "lat": 42.2291881, "lon": 14.6067053, "tags": {"seamark:light:character": "Mo", "seamark:light:colour": "white", "seamark:light:group": "U", "seamark:light:period": "15", "seamark:light:range": "5", "seamark:name": "SSM 101", "seamark:platform:category": "gas", "seamark:type": "platform"}}, {"type": "node", "id": 3433653368, "lat": 42.2316608, "lon": 14.5919897, "tags": {"seamark:light:reference": "E7406.5", "seamark:name": "SSM 1-9", "seamark:platform:category": "gas", "seamark:type": "platform"}}, {"type": "node", "id": 3444707556, "lat": 42.5589169, "lon": 14.1836672, "tags": {"seamark:name": "Simonetta 1", "seamark:type": "platform"}}, {"type": "node", "id": 3444707557, "lat": 42.5761673, "lon": 14.1728327, "tags": {"seamark:name": "Fratello Est 2", "seamark:type": "platform"}}, {"type": "node", "id": 3444707558, "lat": 42.61095, "lon": 14.1654999, "tags": {"seamark:name": "Fratello Cluster", "seamark:type": "platform"}}, {"type": "node", "id": 3444707559, "lat": 42.648333, "lon": 14.168167, "tags": {"seamark:name": "Fratello Nord", "seamark:type": "platform"}}, {"type": "node", "id": 3444707560, "lat": 42.6558561, "lon": 14.1551328, "tags": {"seamark:name": "Viviana 1", "seamark:type": "platform"}}, {"type": "node", "id": 3444707561, "lat": 42.715833, "lon": 14.243083, "tags": {"seamark:name": "Squalo", "seamark:type": "platform"}}, {"type": "node", "id": 3444707562, "lat": 42.7676671, "lon": 14.4624998, "tags": {"seamark:name": "Giovanna", "seamark:type": "platform"}}, {"type": "node", "id": 3444707563, "lat": 42.808, "lon": 14.378167, "tags": {"seamark:name": "Emma Ovest", "seamark:type": "platform"}}, {"type": "node", "id": 3444707564, "lat": 42.839486, "lon": 14.155817, "tags": {"seamark:name": "Eleonora", "seamark:type": "platform"}}, {"type": "node", "id": 3444707565, "lat": 42.896222, "lon": 14.243417, "tags": {"seamark:name": "Camilla 2", "seamark:type": "platform"}}, {"type": "node", "id": 3444707566, "lat": 42.9302775, "lon": 14.2441673, "tags": {"seamark:name": "Emilio", "seamark:type": "platform"}}, {"type": "node", "id": 3444707567, "lat": 42.9374921, "lon": 14.233944, "tags": {"seamark:name": "Emilio 3", "seamark:type": "platform"}}, {"type": "node", "id": 3444707568, "lat": 43.02125, "lon": 14.163417, "tags": {"seamark:name": "Pennina", "seamark:type": "platform"}}, {"type": "node", "id": 3444707569, "lat": 43.0400139, "lon": 14.210319, "tags": {"seamark:name": "Elena 1", "seamark:type": "platform"}}, {"type": "node", "id": 3444707570, "lat": 43.0402779, "lon": 13.9266671, "tags": {"seamark:name": "Jole 1", "seamark:type": "platform"}}, {"type": "node", "id": 3444707571, "lat": 43.040703, "lon": 14.001278, "tags": {"seamark:name": "Fabrizia 1", "seamark:type": "platform"}}, {"type": "node", "id": 3444707572, "lat": 43.0953071, "lon": 14.0172683, "tags": {"seamark:name": "David 3", "seamark:type": "platform"}}, {"type": "node", "id": 3444707573, "lat": 43.1969863, "lon": 13.9222406, "tags": {"seamark:name": "San Giorgio Mare 3", "seamark:type": "platform"}}, {"type": "node", "id": 3444707574, "lat": 43.1994288, "lon": 13.911848, "tags": {"seamark:name": "San Giorgio Mare Centrale", "seamark:type": "platform"}}, {"type": "node", "id": 3444707575, "lat": 43.2058764, "lon": 13.9230672, "tags": {"seamark:name": "San Giorgio Mare 6", "seamark:type": "platform"}}, {"type": "node", "id": 3444707576, "lat": 43.2535, "lon": 13.8097499, "tags": {"seamark:name": "Vongola Mare 1", "seamark:type": "platform"}}, {"type": "node", "id": 3444707577, "lat": 43.2881692, "lon": 13.7888859, "tags": {"seamark:name": "Sarago Mare A", "seamark:type": "platform"}}, {"type": "node", "id": 3444707578, "lat": 43.320172, "lon": 13.785511, "tags": {"seamark:name": "Sarago Mare 1", "seamark:type": "platform"}}, {"type": "node", "id": 3444707579, "lat": 43.591858, "lon": 14.3596469, "tags": {"seamark:name": "Bonaccia", "seamark:type": "platform"}}, {"type": "node", "id": 3444707580, "lat": 43.779014, "lon": 14.0718829, "tags": {"seamark:name": "Clara Est", "seamark:type": "platform"}}, {"type": "node", "id": 3444707581, "lat": 43.8267751, "lon": 13.8636058, "tags": {"seamark:name": "Calipso", "seamark:type": "platform"}}, {"type": "node", "id": 3444707582, "lat": 43.8280561, "lon": 13.7116669, "tags": {"seamark:name": "Clara Ovest", "seamark:type": "platform"}}, {"type": "node", "id": 3444707583, "lat": 43.8989057, "lon": 14.1540478, "tags": {"seamark:name": "Calpurnia", "seamark:type": "platform"}}, {"type": "node", "id": 3444707584, "lat": 43.9387316, "lon": 13.9768071, "tags": {"seamark:name": "Clara Nord", "seamark:type": "platform"}}, {"type": "node", "id": 3444707585, "lat": 44.03, "lon": 13.80825, "tags": {"seamark:name": "Barbara D", "seamark:type": "platform"}}, {"type": "node", "id": 3444707586, "lat": 44.046667, "lon": 13.803611, "tags": {"seamark:name": "Barbara A", "seamark:type": "platform"}}, {"type": "node", "id": 3444707587, "lat": 44.051217, "lon": 13.815167, "tags": {"seamark:name": "Barbara F", "seamark:type": "platform"}}, {"type": "node", "id": 3444707588, "lat": 44.06405, "lon": 13.7900499, "tags": {"seamark:name": "Barbara G", "seamark:type": "platform"}}, {"type": "node", "id": 3444707589, "lat": 44.0662859, "lon": 13.2498862, "tags": {"seamark:name": "Daria B", "seamark:type": "platform"}}, {"type": "node", "id": 3444707590, "lat": 44.0669441, "lon": 13.2492107, "tags": {"seamark:name": "Daria A", "seamark:type": "platform"}}, {"type": "node", "id": 3444707591, "lat": 44.069717, "lon": 13.76065, "tags": {"seamark:name": "Barbara H", "seamark:type": "platform"}}, {"type": "node", "id": 3444707592, "lat": 44.076389, "lon": 13.781389, "tags": {"seamark:name": "Barbara T", "seamark:type": "platform"}}, {"type": "node", "id": 3444709493, "lat": 44.076767, "lon": 13.780933, "tags": {"seamark:name": "Barbara C", "seamark:type": "platform"}}, {"type": "node", "id": 3444709494, "lat": 44.0770689, "lon": 13.7821687, "tags": {"seamark:name": "Barbara T2", "seamark:type": "platform"}}, {"type": "node", "id": 3444709495, "lat": 44.0867171, "lon": 13.7555828, "tags": {"seamark:name": "Barbara E", "seamark:type": "platform"}}, {"type": "node", "id": 3444709496, "lat": 44.0916662, "lon": 13.7388169, "tags": {"seamark:name": "Barbara B", "seamark:type": "platform"}}, {"type": "node", "id": 3444709497, "lat": 44.1025001, "lon": 12.835, "tags": {"seamark:name": "Regina 1", "seamark:type": "platform"}}, {"type": "node", "id": 3444709498, "lat": 44.104333, "lon": 12.8401669, "tags": {"seamark:name": "Regina", "seamark:type": "platform"}}, {"type": "node", "id": 3444709499, "lat": 44.1088891, "lon": 13.6488889, "tags": {"seamark:name": "Barbara NW", "seamark:type": "platform"}}, {"type": "node", "id": 3444709500, "lat": 44.117167, "lon": 13.0449169, "tags": {"seamark:name": "Brenda", "seamark:type": "platform"}}, {"type": "node", "id": 3444709501, "lat": 44.130306, "lon": 12.7535669, "tags": {"seamark:name": "Giulia 1", "seamark:type": "platform"}}, {"type": "node", "id": 3444709502, "lat": 44.1340002, "lon": 13.0024328, "tags": {"seamark:name": "Basil", "seamark:type": "platform"}}, {"type": "node", "id": 3444709503, "lat": 44.167, "lon": 12.7196669, "tags": {"seamark:name": "Azalea B", "seamark:type": "platform"}}, {"type": "node", "id": 3444709504, "lat": 44.1693372, "lon": 13.1135996, "tags": {"seamark:name": "Annalisa", "seamark:type": "platform"}}, {"type": "node", "id": 3444709505, "lat": 44.1711746, "lon": 12.7145362, "tags": {"seamark:name": "Azalea A Cluster", "seamark:type": "platform"}}, {"type": "node", "id": 3444709506, "lat": 44.2120169, "lon": 12.7054078, "tags": {"seamark:name": "Anemone Cluster", "seamark:type": "platform"}}, {"type": "node", "id": 3444709507, "lat": 44.214333, "lon": 12.7773329, "tags": {"seamark:name": "Antonella", "seamark:type": "platform"}}, {"type": "node", "id": 3444709508, "lat": 44.228611, "lon": 12.7049999, "tags": {"seamark:name": "Anemone B", "seamark:type": "platform"}}, {"type": "node", "id": 3444709509, "lat": 44.2299998, "lon": 13.0833328, "tags": {"seamark:name": "Annabella", "seamark:type": "platform"}}, {"type": "node", "id": 3444709510, "lat": 44.230278, "lon": 12.483056, "tags": {"seamark:name": "Morena 1", "seamark:type": "platform"}}, {"type": "node", "id": 3444709511, "lat": 44.289167, "lon": 12.6461669, "tags": {"seamark:name": "Cervia B", "seamark:type": "platform"}}, {"type": "node", "id": 3444709512, "lat": 44.294083, "lon": 12.6395, "tags": {"seamark:name": "Cervia A", "seamark:type": "platform"}}, {"type": "node", "id": 3444709513, "lat": 44.294797, "lon": 12.639142, "tags": {"seamark:name": "Cervia K", "seamark:type": "platform"}}, {"type": "node", "id": 3444709514, "lat": 44.301083, "lon": 12.6400829, "tags": {"seamark:name": "Cervia C", "seamark:type": "platform"}}, {"type": "node", "id": 3444709515, "lat": 44.305, "lon": 12.627222, "tags": {"seamark:name": "Arianna A Cluster", "seamark:type": "platform"}}, {"type": "node", "id": 3444709516, "lat": 44.305667, "lon": 12.62825, "tags": {"seamark:name": "Arianna", "seamark:type": "platform"}}, {"type": "node", "id": 3444709517, "lat": 44.3218751, "lon": 13.4074563, "tags": {"man_made": "offshore_platform", "seamark:name": "Annamaria B", "seamark:type": "platform"}}, {"type": "node", "id": 3444709518, "lat": 44.3426149, "lon": 12.7456055, "tags": {"seamark:name": "Naide", "seamark:type": "platform"}}, {"type": "node", "id": 3444709519, "lat": 44.3480561, "lon": 12.5891672, "tags": {"seamark:name": "Porto Corsini M Sud 1", "seamark:type": "platform"}}, {"type": "node", "id": 3444709520, "lat": 44.3681466, "lon": 12.5771299, "tags": {"seamark:fog_signal:category": "nautophone", "seamark:fog_signal:group": "U", "seamark:light:character": "Mo", "seamark:light:colour": "white", "seamark:light:group": "U", "seamark:light:period": "15", "seamark:light:range": "5", "seamark:name": "Porto Corsini M Sud 2", "seamark:type": "platform"}}, {"type": "node", "id": 3444709521, "lat": 44.3894032, "lon": 12.4537237, "tags": {"seamark:name": "Antares", "seamark:type": "platform"}}, {"type": "node", "id": 3444709522, "lat": 44.3906581, "lon": 12.5604828, "tags": {"seamark:name": "Porto Corsini C", "seamark:type": "platform"}}, {"type": "node", "id": 3444709523, "lat": 44.394639, "lon": 12.44411, "tags": {"seamark:name": "Antares 1", "seamark:type": "platform"}}, {"type": "node", "id": 3444709524, "lat": 44.4050003, "lon": 12.5465274, "tags": {"seamark:name": "Porto Corsini 80", "seamark:type": "platform"}}, {"type": "node", "id": 3444709525, "lat": 44.405017, "lon": 12.6608331, "tags": {"seamark:name": "Amelia A", "seamark:type": "platform"}}, {"type": "node", "id": 3444709526, "lat": 44.406296, "lon": 12.6630539, "tags": {"seamark:name": "Amelia C", "seamark:type": "platform"}}, {"type": "node", "id": 3444709527, "lat": 44.4066669, "lon": 12.6622218, "tags": {"seamark:name": "Amelia B", "seamark:type": "platform"}}, {"type": "node", "id": 3444709528, "lat": 44.4072146, "lon": 12.6614187, "tags": {"seamark:name": "Amelia D", "seamark:type": "platform"}}, {"type": "node", "id": 3444709529, "lat": 44.4227781, "lon": 12.5208332, "tags": {"seamark:name": "Porto Corsini 80 bis", "seamark:type": "platform"}}, {"type": "node", "id": 3444709530, "lat": 44.4408335, "lon": 12.4261239, "tags": {"seamark:name": "Diana", "seamark:type": "platform"}}, {"type": "node", "id": 3444709531, "lat": 44.4750562, "lon": 12.4544718, "tags": {"seamark:name": "Armida 1", "seamark:type": "platform"}}, {"type": "node", "id": 3444709532, "lat": 44.4775002, "lon": 12.5461573, "tags": {"seamark:name": "Garibaldi D", "seamark:type": "platform"}}, {"type": "node", "id": 3444709533, "lat": 44.4796476, "lon": 12.4534043, "tags": {"seamark:name": "Armida", "seamark:type": "platform"}}, {"type": "node", "id": 3444709534, "lat": 44.4863535, "lon": 12.5315101, "tags": {"seamark:name": "Garibaldi B", "seamark:type": "platform"}}, {"type": "node", "id": 3444709535, "lat": 44.5008657, "lon": 13.0190096, "tags": {"seamark:name": "Tea Lavanda Arnica", "seamark:type": "platform"}}, {"type": "node", "id": 3444709536, "lat": 44.5080785, "lon": 12.367409, "tags": {"seamark:name": "Porto Corsini WC", "seamark:type": "platform"}}, {"type": "node", "id": 3444709537, "lat": 44.5110832, "lon": 12.3741947, "tags": {"seamark:name": "Porto Corsini MWB", "seamark:type": "platform"}}, {"type": "node", "id": 3444709539, "lat": 44.5093006, "lon": 12.3520283, "tags": {"name": "PORTO CORSINI M W A", "seamark:name": "Porto Corsini MWA", "seamark:platform:category": "production", "seamark:type": "platform", "source": "http://unmig.sviluppoeconomico.gov.it/unmig/strutturemarine/dettaglio.asp?id=256"}}, {"type": "node", "id": 3444709540, "lat": 44.5223893, "lon": 12.510717, "tags": {"seamark:name": "Garibaldi A", "seamark:type": "platform"}}, {"type": "node", "id": 3444709541, "lat": 44.5309456, "lon": 12.5154968, "tags": {"seamark:name": "Garibaldi C", "seamark:type": "platform"}}, {"type": "node", "id": 3444709543, "lat": 44.5463889, "lon": 12.4947186, "tags": {"seamark:name": "Agostino C", "seamark:type": "platform"}}, {"type": "node", "id": 3444709544, "lat": 44.5537315, "lon": 12.4727857, "tags": {"seamark:name": "Agostino B", "seamark:type": "platform"}}, {"type": "node", "id": 3444709545, "lat": 44.6884179, "lon": 12.8476166, "tags": {"seamark:name": "Naomi Pandora", "seamark:platform:category": "gas", "seamark:type": "platform"}}, {"type": "node", "id": 4937558264, "lat": 44.5401686, "lon": 12.4955576, "tags": {"man_made": "offshore_platform", "name": "Agostino A", "seamark:name": "Agostino A", "seamark:platform:category": "production", "seamark:type": "platform", "source": "http://unmig.sviluppoeconomico.gov.it/unmig/strutturemarine/dettaglio.asp?id=164"}}, {"type": "node", "id": 5592637102, "lat": 42.323409, "lon": 14.533455, "tags": {"depth": "20", "name": "Ombrina Mare 2", "operator": "Rockhopper Italia", "ref": "291", "seamark:type": "platform", "start_date": "2008", "website": "https://sanvitobenecomune.wordpress.com/no-ombrina-mare-2/"}}, {"type": "node", "id": 7817964589, "lat": 45.7081915, "lon": 13.7132384, "tags": {"name": "Piattaforma per tuffi", "seamark:type": "platform"}}, {"type": "node", "id": 8356483731, "lat": 42.1248257, "lon": 11.7271864, "tags": {"seamark:fog_signal:category": "horn", "seamark:light:character": "Mo", "seamark:light:colour": "white", "seamark:light:period": "15", "seamark:light:range": "10", "seamark:type": "platform"}}, {"type": "node", "id": 9048823285, "lat": 44.6872067, "lon": 13.3181759, "tags": {"man_made": "offshore_platform", "name": "Vesna", "operator": "INA", "operator:wikidata": "Q1662137", "seamark:name": "Vesna", "seamark:type": "platform", "source": "US NGA Pub. 113. 2020", "substance": "gas"}}, {"type": "node", "id": 9048823286, "lat": 44.6833012, "lon": 13.2687374, "tags": {"man_made": "offshore_platform", "name": "Ana", "operator": "INA", "operator:wikidata": "Q1662137", "seamark:type": "platform", "source": "US NGA Pub. 113. 2020", "substance": "gas"}}, {"type": "node", "id": 9048823287, "lat": 44.6166225, "lon": 13.1877133, "tags": {"man_made": "offshore_platform", "seamark:name": "Ivana C", "seamark:type": "platform", "source": "US NGA Pub. 113. 2020", "substance": "gas"}}, {"type": "node", "id": 9603312472, "lat": 44.7460537, "lon": 13.2997486, "tags": {"man_made": "offshore_platform", "operator": "INA", "operator:wikidata": "Q1662137", "seamark:name": "Ivana K", "seamark:type": "platform", "substance": "gas"}}, {"type": "node", "id": 10132324088, "lat": 42.4, "lon": 14.4183333, "tags": {"man_made": "floating_storage", "seamark:platform:category": "fpso", "seamark:type": "platform"}}, {"type": "way", "id": 102780539, "center": {"lat": 45.091165, "lon": 12.5847609}, "nodes": [1187041502, 1187041501, 1187041500, 1187041499, 1187041502], "tags": {"building": "yes", "industrial": "gas", "man_made": "offshore_platform", "name": "Adriatic LNG Terminal", "operator": "Adriatic LNG"}}, {"type": "way", "id": 524213614, "center": {"lat": 44.5464064, "lon": 12.4947245}, "nodes": [5101749046, 5101749047, 5101749048, 5101749049, 5101749046], "tags": {"building": "industrial", "man_made": "offshore_platform", "name": "Agostino C"}}, {"type": "way", "id": 563126443, "center": {"lat": 44.3911602, "lon": 12.3432658}, "nodes": [5427540622, 5427540623, 5427540624, 5427540625, 5427540622], "tags": {"area": "yes", "building": "industrial", "man_made": "offshore_platform", "name": "Angela Angelina", "operator": "ENI", "seamark:type": "platform", "substance": "gas", "website": "https://unmig.mise.gov.it/unmig/strutturemarine/dettaglio.asp?id=175"}}, {"type": "way", "id": 563131952, "center": {"lat": 44.3929575, "lon": 12.3448381}, "nodes": [5427604749, 5427604750, 5427604751, 5427604752, 5427604749], "tags": {"area": "yes", "building": "industrial", "man_made": "offshore_platform", "name": "Angela cluster", "seamark:type": "platform", "substance": "gas", "website": "https://unmig.mise.gov.it/unmig/strutturemarine/dettaglio.asp?id=176"}}, {"type": "way", "id": 881699634, "center": {"lat": 42.4656918, "lon": 14.32052}, "nodes": [8199673423, 8199673424, 8199673425, 8199673426, 8199673423], "tags": {"building:levels": "4", "colour": "white", "description": "https://issuu.com/lucianopalusci/docs/dati_tecnici-torre F88C+83 Pescara, Province of Pescara http://www.biotecnomares.eu/pdf/ricerca_scentifica/Posidonia-Ambiente-e-Ricerca.pdf", "height": "20", "man_made": "offshore_platform", "material": "steel", "name": "Piattaforma Posidonia", "website": "http://www.litaliaindigitale.it/abruzzoindigitale/archivionewsabruzzo/specialepescaraposidonia"}}, {"type": "way", "id": 1156154522, "center": {"lat": 42.9395813, "lon": 10.5593634}, "nodes": [10751743489, 10751743488, 10751761663, 10751743487, 10751761665, 10751743486, 10751761664, 10751743489], "tags": {"description:it": "Nave rigassificatrice, sar\u00e0 in porto a Piombino per 3 anni, fino al 2026.", "man_made": "floating_storage", "seamark:name": "Golar Tundra", "seamark:platform:category": "fpso", "seamark:platform:height": "44", "seamark:type": "platform"}}, {"type": "way", "id": 1172721745, "center": {"lat": 42.3995292, "lon": 18.7070413}, "nodes": [10896113722, 10896113721, 10896113720, 10896113719, 10896113718, 10896113717, 10896113716, 10896113715, 10896113714, 10896113713, 10896113712, 10896113711, 10896113710, 10896113709, 10896113708, 10896113707, 10896113706, 10896113722], "tags": {"man_made": "offshore_platform"}}, {"type": "way", "id": 1172721746, "center": {"lat": 42.3993312, "lon": 18.7067909}, "nodes": [10896113734, 10896113733, 10896113732, 10896113731, 10896113730, 10896113729, 10896113728, 10896113727, 10896113726, 10896113725, 10896113724, 10896113723, 10896113734], "tags": {"man_made": "offshore_platform"}}]}