{"version": 0.6, "generator": "Overpass API 0.7.61.5 4133829e", "osm3s": {"timestamp_osm_base": "2023-11-02T14:40:29Z", "copyright": "The data included in this document is from www.openstreetmap.org. The data is made available under ODbL."}, "elements": [{"type": "node", "id": 338602772, "lat": 53.5006944, "lon": -3.5168611, "tags": {"disused": "yes", "man_made": "petroleum_well", "name": "Natural Gas Well", "ref:GB:decc": "110/13-15", "seamark:type": "platform", "source": "DECC"}}, {"type": "node", "id": 1552981318, "lat": 58.8708833, "lon": -3.0986167, "tags": {"seamark:fog_signal:category": "horn", "seamark:fog_signal:group": "N", "seamark:fog_signal:period": "60", "seamark:light:character": "Fl", "seamark:light:colour": "yellow", "seamark:light:group": "4", "seamark:light:height": "12", "seamark:light:period": "15", "seamark:light:range": "3", "seamark:light:reference": "A 3611.2", "seamark:name": "SPM No.2", "seamark:platform:category": "mooring", "seamark:type": "platform", "source": "US NGA Pub. 114. 2011-05-26."}}, {"type": "node", "id": 1552981912, "lat": 58.8692167, "lon": -3.1239, "tags": {"seamark:fog_signal:category": "horn", "seamark:fog_signal:group": "A", "seamark:fog_signal:period": "60", "seamark:light:character": "Fl", "seamark:light:colour": "yellow", "seamark:light:height": "12", "seamark:light:period": "5", "seamark:light:range": "3", "seamark:light:reference": "A 3611", "seamark:name": "SPM No.1", "seamark:platform:category": "mooring", "seamark:type": "platform", "source": "US NGA Pub. 114. 2011-05-26."}}, {"type": "node", "id": 2060038525, "lat": 55.1464998, "lon": -1.4208329, "tags": {"height": "103 m", "man_made": "monitoring_station", "monitoring:water_level": "yes", "monitoring:weather": "yes", "name": "NAREC Offshore Anemometry Hub (NOAH)", "operator": "National Renewable Energy Centre (NAREC)", "recording:automated": "yes", "recording:remote": "yes", "seamark:fog_signal:category": "horn", "seamark:fog_signal:group": "1", "seamark:fog_signal:period": "30", "seamark:landmark:category": "mast", "seamark:landmark:function": "radar", "seamark:light:character": "Mo", "seamark:light:colour": "white", "seamark:light:group": "U", "seamark:light:height": "17", "seamark:light:period": "15", "seamark:light:range": "10", "seamark:name": "NH", "seamark:platform:category": "research", "seamark:radar_reflector": "yes", "seamark:type": "platform", "source": "survey", "tower:type": "monitoring"}}, {"type": "node", "id": 2362978632, "lat": 53.9874608, "lon": -3.2701138, "tags": {"location": "platform", "name": "Substation for Barrow Windfarm", "power": "substation", "seamark:platform:category": "production", "seamark:type": "platform", "voltage": "132000;33000"}}, {"type": "node", "id": 2363140323, "lat": 54.0446444, "lon": -3.5023713, "tags": {"power": "substation", "seamark:platform:category": "production", "seamark:type": "platform", "substation": "distribution", "voltage": "132000;33000"}}, {"type": "node", "id": 2363140352, "lat": 54.0785193, "lon": -3.4111891, "tags": {"power": "substation", "seamark:platform:category": "production", "seamark:type": "platform", "substation": "distribution", "voltage": "132000;33000"}}, {"type": "node", "id": 2363140353, "lat": 54.0794735, "lon": -3.5759736, "tags": {"power": "substation", "seamark:platform:category": "production", "seamark:type": "platform", "substation": "distribution", "voltage": "132000"}}, {"type": "node", "id": 4378096816, "lat": 51.369722, "lon": -7.946667, "tags": {"aeroway": "helipad", "man_made": "offshore_platform", "name": "KINSALE ALPHA NE", "note": "location based on AIS", "operator": "Marathon", "seamark:name": "KINSALE ALPHA NE", "seamark:platform:category": "gas", "seamark:radio_station:category": "ais", "seamark:radio_station:mmsi": "992501309", "seamark:type": "platform", "website": "https://www.kinsale-energy.ie/living-offshore.html"}}, {"type": "node", "id": 4378096817, "lat": 51.35981, "lon": -8.017157, "tags": {"aeroway": "helipad", "man_made": "offshore_platform", "name": "KINSALE BRAVO SW", "note": "location based on AIS", "operator": "Marathon", "seamark:name": "KINSALE BRAVO SW", "seamark:platform:category": "gas", "seamark:radio_station:category": "ais", "seamark:radio_station:mmsi": "992501310", "seamark:type": "platform"}}, {"type": "node", "id": 9163396418, "lat": 50.6928285, "lon": -0.259831, "tags": {"name": "Rampion Wind Farm Offshore Substation", "operator": "RWE", "power": "substation", "seamark:type": "platform", "substation": "transmission", "voltage": "150000;33000", "website": "https://www.rampionoffshore.com/wind-farm/components/offshore-substation/"}}, {"type": "node", "id": 9887521150, "lat": 56.5849318, "lon": -1.7589614, "tags": {"frequency": "50", "man_made": "offshore_platform", "name": "Seagreen Offshore Substation", "power": "substation", "seamark:platform:category": "production", "seamark:type": "platform", "start_date": "2018", "substation": "transmission", "voltage": "220000"}}, {"type": "node", "id": 10142939787, "lat": 58.305, "lon": -1.745, "tags": {"seamark:platform:category": "fpso", "seamark:radio_station:category": "ais", "seamark:type": "platform"}}, {"type": "node", "id": 10142939788, "lat": 58.3066667, "lon": -1.77, "tags": {"seamark:radio_station:category": "ais", "seamark:type": "platform"}}, {"type": "node", "id": 11193058147, "lat": 57.6845116, "lon": -4.0946254, "tags": {"man_made": "offshore_platform"}}, {"type": "node", "id": 11193058148, "lat": 57.6849675, "lon": -4.0687931, "tags": {"man_made": "offshore_platform", "name": "Noble Sam Hartley"}}, {"type": "node", "id": 11193058149, "lat": 57.6873018, "lon": -4.0481025, "tags": {"man_made": "offshore_platform", "name": "Transocean Leader"}}, {"type": "way", "id": 304904641, "center": {"lat": 50.7667863, "lon": -1.2948424}, "nodes": [3094760015, 6274092206, 7015793517, 3094760014, 3094760013, 3094760010, 7015793514, 3094760011, 7015793515, 3094760012, 7015793516, 3094760015], "tags": {"area": "yes", "man_made": "breakwater", "seamark:platform:category": "island", "seamark:type": "platform", "source": "survey - triangulated edges"}}, {"type": "way", "id": 635731836, "center": {"lat": 54.0523576, "lon": -3.6557001}, "nodes": [5996041662, 5996041659, 5996041660, 5996041661, 5996041662], "tags": {"building": "yes", "power": "substation", "seamark:platform:category": "production", "seamark:type": "platform", "substation": "transmission", "voltage": "220000"}}, {"type": "way", "id": 635731837, "center": {"lat": 54.0947271, "lon": -3.8556182}, "nodes": [5996041666, 5996041663, 5996041664, 5996041665, 5996041666], "tags": {"building": "yes", "power": "substation", "seamark:platform:category": "production", "seamark:type": "platform", "substation": "transmission", "voltage": "220000"}}, {"type": "way", "id": 890094190, "center": {"lat": 58.9064389, "lon": -2.950214}, "nodes": [8273569612, 8273569611, 8273569610, 8273569609, 8273569612], "tags": {"seamark:platform:category": "salm", "seamark:source": "Bing;Esri", "seamark:type": "platform"}}, {"type": "way", "id": 993061026, "center": {"lat": 50.7062227, "lon": -1.9679921}, "nodes": [9174523583, 9174523582, 9174523581, 9174523580, 9174523583], "tags": {"building": "yes", "name": "Parkstone Yacht Club Platform", "seamark:name": "Parkstone Yacht Club Platform", "seamark:type": "platform"}}]}