{"version": 0.6, "generator": "Overpass API 0.7.61.5 4133829e", "osm3s": {"timestamp_osm_base": "2023-11-02T14:40:29Z", "copyright": "The data included in this document is from www.openstreetmap.org. The data is made available under ODbL."}, "elements": [{"type": "node", "id": 428643285, "lat": 55.39889, "lon": 3.81, "tags": {"aeroway": "helipad", "icao": "EHAK", "man_made": "pumping_rig;monitoring_station", "monitoring:tide_gauge": "yes", "monitoring:wave_height": "yes", "monitoring:weather": "yes", "name": "A12-CPP", "operator": "Chevron", "recording": "yes", "recording:automated": "yes", "recording:remote": "yes", "seamark:name": "A12-CPP", "seamark:platform:category": "production", "seamark:radio_station:category": "ais", "seamark:radio_station:mmsi": "2442009", "seamark:type": "platform", "seamark:waterway_gauge:category": "recording_remote_access", "type": "gas", "url": "https://waterberichtgeving.rws.nl/wbviewer/maak_grafiek.php?loc=A12&set=eindverwachting&nummer=1", "weather:anemometer": "yes", "weather:thermometer": "yes", "website": "https://waterinfo.rws.nl/#!/details/publiek/wind/A12-platform(A12)/"}}, {"type": "node", "id": 715385975, "lat": 54.01482, "lon": 6.587584, "tags": {"aeroway": "helipad", "height": "101.5", "man_made": "monitoring_station", "monitoring:water_direction": "yes", "monitoring:water_temperature": "yes", "monitoring:water_velocity": "yes", "monitoring:wave_direction": "yes", "monitoring:wave_height": "yes", "monitoring:weather": "yes", "name": "FINO 1 research platform", "recording:automated": "yes", "recording:remote": "yes", "ref": "FINO 1", "seamark:name": "FINO 1", "seamark:platform:category": "observation", "seamark:radio_station:callsign": "FINO 1", "seamark:radio_station:category": "ais", "seamark:radio_station:mmsi": "211395390", "seamark:type": "platform", "source:coordinates": "AIS", "tower:type": "scientific", "weather:anemometer": "yes", "weather:barometer": "yes", "weather:humidity_sensor": "yes", "weather:pyranometer": "yes", "weather:thermometer": "yes", "website": "https://www.fino-offshore.de/"}}, {"type": "node", "id": 1042134334, "lat": 51.2744446, "lon": 2.4475, "tags": {"aeroway": "helipad", "amenity": "coast_radar_station", "icao": "EBOO", "name": "Oostdijckbank platform heliport", "operator": "VTS-Scheldt", "operator:website": "https://www.vts-scheldt.net/", "seamark:fog_signal:category": "horn", "seamark:fog_signal:group": "U", "seamark:fog_signal:period": "30", "seamark:light:character": "Mo", "seamark:light:colour": "white", "seamark:light:group": "U", "seamark:light:height": "13", "seamark:light:period": "15", "seamark:light:range": "12", "seamark:light:reference": "B 0147", "seamark:light:sequence": "0.5+(0.5)+0.5+(0.5)+1.5+(11.5)", "seamark:name": "Oostdyck", "seamark:platform:category": "observation", "seamark:radar_transponder:category": "racon", "seamark:radar_transponder:group": "O", "seamark:radar_transponder:range": "10", "seamark:radio_station:category": "ais", "seamark:radio_station:mmsi": "2053500", "seamark:type": "platform"}}, {"type": "node", "id": 1042143305, "lat": 58.1882629, "lon": 2.471212, "tags": {"aeroway": "helipad", "man_made": "offshore_platform", "name": "Draupner S"}}, {"type": "node", "id": 1042145807, "lat": 55.46907, "lon": 5.13308, "tags": {"seamark:fog_signal:category": "horn", "seamark:fog_signal:group": "U", "seamark:fog_signal:period": "30", "seamark:light:1:character": "Mo", "seamark:light:1:colour": "white", "seamark:light:1:group": "U", "seamark:light:1:height": "27", "seamark:light:1:period": "15", "seamark:light:1:range": "10", "seamark:light:1:sector_end": "360", "seamark:light:1:sector_start": "0", "seamark:light:2:character": "Mo", "seamark:light:2:colour": "red", "seamark:light:2:group": "U", "seamark:light:2:height": "19", "seamark:light:2:period": "15", "seamark:light:2:range": "2", "seamark:light:2:sector_end": "360", "seamark:light:2:sector_start": "0", "seamark:name": "DUC-A", "seamark:platform:category": "production", "seamark:radar_transponder:category": "racon", "seamark:radar_transponder:period": "90", "seamark:radio_station:category": "ais", "seamark:radio_station:mmsi": "992191501", "seamark:source": "https://map.openseamap.org", "seamark:type": "platform"}}, {"type": "node", "id": 1042145829, "lat": 55.5317967, "lon": 5.0072183, "tags": {"aeroway": "helipad", "man_made": "offshore_platform", "name": "Halfdan A", "seamark:name": "Halfdan A", "seamark:platform:category": "production", "seamark:radar_transponder:category": "racon", "seamark:type": "platform"}}, {"type": "node", "id": 1042145842, "lat": 56.34412, "lon": 4.2719169, "tags": {"aeroway": "helipad", "name": "Harald Helideck", "seamark:name": "Harald Platform B", "seamark:platform:category": "production", "seamark:radar_transponder:category": "racon", "seamark:radar_transponder:period": "60", "seamark:type": "platform", "source": "US NGA Pub. 114. 2011-04-02"}}, {"type": "node", "id": 1042145877, "lat": 55.5315933, "lon": 4.9066672, "tags": {"access": "private", "aeroway": "helipad", "fvst:name": "Aramark Denmark ApS - Skjold", "fvst:navnelbnr": "75113", "man_made": "offshore_platform", "name": "Skjold C", "offshore_platform:accomodation": "yes", "operator": "Aramark Denmark", "ref:DK:cvr": "32946593", "ref:DK:cvr:pnummer": "1016098902", "waterway": "offshore_field"}}, {"type": "node", "id": 1042145933, "lat": 56.2780991, "lon": 3.3927801, "tags": {"aeroway": "helipad", "man_made": "offshore_platform", "name": "Valhall Q", "seamark:name": "Valhall Q", "seamark:platform:category": "production", "seamark:type": "platform"}}, {"type": "node", "id": 1042145937, "lat": 56.5625, "lon": 3.0841701, "tags": {"aeroway": "helipad", "man_made": "offshore_platform", "name": "Ekofisk D"}}, {"type": "node", "id": 1042145941, "lat": 56.1758003, "lon": 3.4586101, "tags": {"aeroway": "helipad", "man_made": "offshore_platform", "name": "Hod Platform", "seamark:name": "Hod Platform", "seamark:platform:category": "production", "seamark:type": "platform", "source": "ourairports.com"}}, {"type": "node", "id": 1042145942, "lat": 56.2270514, "lon": 3.4359347, "tags": {"aeroway": "helipad", "man_made": "offshore_platform", "name": "Valhall Flanke S\u00f8r", "name:en": "Valhall Flank South", "seamark:name": "Valhall Flank South", "seamark:platform:category": "production", "seamark:type": "platform"}}, {"type": "node", "id": 1042145944, "lat": 56.3763913, "lon": 3.2640817, "tags": {"seamark:name": "Eldfisk 2/7-A Platform", "seamark:platform:category": "production", "seamark:radar_transponder:category": "racon", "seamark:type": "platform", "source": "US NGA Pub. 114. 2011-04-02"}}, {"type": "node", "id": 1042145945, "lat": 56.3325808, "lon": 3.2467763, "tags": {"aeroway": "helipad", "man_made": "offshore_platform", "name": "Embla", "seamark:name": "Embla", "seamark:platform:category": "production", "seamark:type": "platform"}}, {"type": "node", "id": 1042145966, "lat": 56.6414213, "lon": 3.3254474, "tags": {"aeroway": "helipad", "kystverket:racon_information": "Ukjent racon type", "man_made": "offshore_platform", "name": "Tor Platform", "note": "Lanterne", "ref:kystverket": "10050", "seamark:light:character": "Fl", "seamark:light:colour": "red", "seamark:light:range": "3", "seamark:name": "Tor", "seamark:platform:category": "production", "seamark:radar_transponder:category": "racon", "seamark:radar_transponder:group": "N", "seamark:radar_transponder:period": "30", "seamark:radar_transponder:range": "2", "seamark:radar_transponder:sequence": "15+(15)", "seamark:type": "platform"}}, {"type": "node", "id": 1042145976, "lat": 57.6236, "lon": 2.8472199, "tags": {"aeroway": "helipad", "man_made": "offshore_platform", "name": "Enor", "seamark:name": "Enor", "seamark:platform:category": "production", "seamark:type": "platform"}}, {"type": "node", "id": 1042145977, "lat": 58.4173007, "lon": 1.7162971, "tags": {"aeroway": "helipad", "icao": "ENXZ", "man_made": "offshore_platform", "name": "Sleipner B", "note": "Lanterne", "ref:kystverket": "1005op", "seamark:light:character": "Fl", "seamark:light:colour": "red", "seamark:light:group": "1", "seamark:light:period": "1", "seamark:light:range": "3", "seamark:name": "Sleipner B", "seamark:platform:category": "production", "seamark:type": "platform"}}, {"type": "node", "id": 1097171705, "lat": 53.4911832, "lon": 5.9415097, "tags": {"man_made": "offshore_platform", "monitoring:weather": "yes", "name": "AWG-1", "operator": "NAM", "place": "locality", "recording:automated": "yes", "recording:remote": "yes", "seamark:fog_signal:category": "horn", "seamark:fog_signal:group": "U", "seamark:fog_signal:period": "30", "seamark:light:character": "Mo", "seamark:light:colour": "white", "seamark:light:group": "U", "seamark:light:period": "15", "seamark:name": "AWG-1", "seamark:platform:category": "production", "seamark:type": "platform", "source": "http://www.nam.nl/nl/our-activities/ameland/nam-locaties-ameland.html", "start_date": "1984", "type": "gas", "weather:anemometer": "yes", "weather:thermometer": "yes", "website": "https://waterinfo.rws.nl/#!/details/publiek/wind/AWG-platform(AWG)/"}}, {"type": "node", "id": 1138058093, "lat": 54.0, "lon": 6.6233333, "tags": {"frequency": "50", "location": "platform", "man_made": "offshore_platform", "name": "Alpha Ventus", "operator": "Avacon", "operator:wikidata": "Q1273382", "power": "substation", "seamark:light:character": "Oc", "seamark:light:colour": "yellow", "seamark:light:group": "3", "seamark:light:period": "16", "seamark:name": "Alpha Ventus", "seamark:platform:category": "production", "seamark:radio_station:category": "ais", "seamark:source": "https://english.defensie.nl/topics/notices-to-mariners/weekly-editions/2018/45 (387/18)", "seamark:type": "platform", "source": "http://upload.wikimedia.org/wikipedia/commons/c/ca/Windpark_alpha_ventus_Lagekarte.png", "source:coordinates": "AIS", "start_date": "2010", "substation": "transmission", "voltage": "110000;30000"}}, {"type": "node", "id": 1138074873, "lat": 54.3516114, "lon": 6.0106898, "tags": {"frequency": "50", "location": "platform", "man_made": "offshore_platform", "name": "BARD 1", "operator": "OWS Off-Shore Wind Solutions GmbH", "power": "substation", "seamark:platform:category": "substation", "seamark:radio_station:category": "ais", "seamark:type": "platform", "source": "survey", "start_date": "2013", "substation": "generation", "voltage": "155000", "wikidata": "Q795432", "wikipedia": "de:BARD Offshore 1"}}, {"type": "node", "id": 1333850400, "lat": 52.1911667, "lon": 4.1361667, "tags": {"seamark:fog_signal:category": "horn", "seamark:fog_signal:period": "30", "seamark:light:colour": "white", "seamark:light:period": "15", "seamark:name": "Q13a-A", "seamark:platform:colour": "yellow;black", "seamark:platform:colour_pattern": "horizontal", "seamark:radar_transponder:category": "ramark", "seamark:radar_transponder:period": "15", "seamark:radio_station:category": "omnidirectional", "seamark:topmark:colour": "black", "seamark:topmark:shape": "2 cones down", "seamark:type": "platform", "source": "Rijkswaterstaat.nl"}}, {"type": "node", "id": 1375241354, "lat": 51.924808, "lon": 3.668653, "tags": {"aeroway": "helipad", "communication:mobile_phone": "yes", "communication:mobile_phone:height": "22;24.8;22;23.5;24.8;26;22;24.8", "communication:mobile_phone:technology": "GSM 900;GSM 900;UMTS;UMTS;UMTS;UMTS;LTE;LTE", "man_made": "offshore_platform", "monitoring:tide_gauge": "yes", "name": "Lichteiland Goeree", "recording:automated": "yes", "recording:remote": "yes", "seamark:fog_signal:category": "horn", "seamark:fog_signal:group": "U", "seamark:fog_signal:period": "30", "seamark:information": "Red and white checkered light tower. Helicopter platform.", "seamark:light:1:character": "Fl", "seamark:light:1:colour": "white", "seamark:light:1:group": "4", "seamark:light:1:height": "32", "seamark:light:1:period": "20", "seamark:light:1:range": "28", "seamark:light:1:sequence": "0.1+(3.2)+0.1+(3.2)+0.1+(3.2)+0.1+(10)", "seamark:light:2:category": "aero", "seamark:light:2:character": "F", "seamark:light:2:colour": "yellow", "seamark:light:reference": "B 0630", "seamark:name": "LP GOEREE: LICHTTOREN", "seamark:platform:category": "observation", "seamark:platform:colour": "red;white", "seamark:platform:colour_pattern": "squared", "seamark:radar_transponder:category": "racon", "seamark:radar_transponder:group": "T", "seamark:source": "http://www.vaarweginformatie.nl/fdd/main/infra/downloads \u2192 Actuele vaarwegmarkering (vast) Author: RWS CIV Version: 10 Date: 23-02-2018", "seamark:type": "platform", "source": "Pub114bk(2017)", "start_date": "1971", "wikidata": "Q2707830", "wikipedia": "nl:Lichtplatform Goeree"}}, {"type": "node", "id": 1449112302, "lat": 52.28958, "lon": 3.81714, "tags": {"aeroway": "helipad", "alt_name": "Rijn Charlie", "man_made": "offshore_platform", "name": "P 15C", "seamark:name": "P 15C", "seamark:platform:category": "oil;gas", "seamark:radio_station:category": "ais", "seamark:radio_station:mmsi": "245453000", "seamark:source": "https://map.openseamap.org/ (AIS)", "seamark:type": "platform"}}, {"type": "node", "id": 1452286669, "lat": 53.5811667, "lon": 4.6041, "tags": {"aeroway": "helipad", "height": "83.6", "man_made": "offshore_platform", "name": "L8-G", "operator": "Wintershall", "seamark:fog_signal:category": "horn", "seamark:fog_signal:group": "U", "seamark:fog_signal:period": "30", "seamark:light:1:character": "F", "seamark:light:1:colour": "red", "seamark:light:1:multiple": "2", "seamark:light:2:character": "Mo", "seamark:light:2:colour": "white", "seamark:light:2:group": "U", "seamark:light:2:period": "15", "seamark:light:reference": "A 7581.85", "seamark:name": "L8-G", "seamark:platform:category": "gas", "seamark:radio_station:category": "ais", "seamark:radio_station:mmsi": "992441001", "seamark:source": "https://english.defensie.nl/topics/notices-to-mariners/weekly-editions/2020/48 (*373/20)", "seamark:type": "platform", "source": "US NGA Pub. 114. (2020)", "start_date": "1988"}}, {"type": "node", "id": 1452291060, "lat": 52.8715, "lon": 4.14052, "tags": {"aeroway": "helipad", "man_made": "offshore_platform", "name": "Helm A", "seamark:name": "Platform Helm A", "seamark:platform:category": "production", "seamark:radar_transponder:category": "racon", "seamark:radar_transponder:group": "T", "seamark:radio_station:category": "ais", "seamark:radio_station:mmsi": "244105000", "seamark:source": "https://map.openseamap.org/", "seamark:type": "platform", "source": "US NGA Pub. 114. 2011-04-02"}}, {"type": "node", "id": 1452291086, "lat": 53.00142, "lon": 4.1995333, "tags": {"seamark:name": "Logger L16 Platform", "seamark:radar_transponder:category": "racon", "seamark:radar_transponder:group": "X", "seamark:type": "platform", "source": "US NGA Pub. 114. 2011-04-02"}}, {"type": "node", "id": 1452291193, "lat": 53.960537, "lon": 4.4965814, "tags": {"seamark:name": "Platform L2FA1", "seamark:radar_transponder:category": "racon", "seamark:radar_transponder:group": "9", "seamark:type": "platform", "source": "US NGA Pub. 114. 2011-04-02"}}, {"type": "node", "id": 1452291487, "lat": 53.6525219, "lon": 3.8727712, "tags": {"seamark:fog_signal:category": "horn", "seamark:light:character": "Mo", "seamark:light:colour": "white", "seamark:light:group": "U", "seamark:light:period": "15", "seamark:light:range": "15", "seamark:name": "Placid K9CPA Platform", "seamark:platform:category": "production", "seamark:radar_transponder:category": "racon", "seamark:radar_transponder:group": "8", "seamark:radio_station:category": "omnidirectional", "seamark:type": "platform", "source": "US NGA Pub. 114. 2011-04-02"}}, {"type": "node", "id": 1460228607, "lat": 55.5089333, "lon": 7.8749167, "tags": {"seamark:information": "Lights synchronized", "seamark:light:character": "Mo", "seamark:light:colour": "white", "seamark:light:group": "U", "seamark:light:height": "15", "seamark:light:period": "15", "seamark:light:range": "5", "seamark:light:reference": "B 1848.7", "seamark:light:sequence": "0.7+(0.7)+0.7+(2.1)+0.7+(10.1)", "seamark:name": "Munk S. Wind Farm", "seamark:type": "platform", "source": "US NGA Pub. 114. 2011-04-02"}}, {"type": "node", "id": 1460252873, "lat": 56.1785, "lon": 4.1795, "tags": {"seamark:light:character": "Mo", "seamark:light:colour": "red", "seamark:light:group": "U", "seamark:light:reference": "A 7880", "seamark:name": "Platform Svend", "seamark:platform:category": "production", "seamark:radar_transponder:category": "racon", "seamark:radar_transponder:group": "U", "seamark:radar_transponder:period": "30", "seamark:radio_station:category": "ais", "seamark:radio_station:mmsi": "992191521", "seamark:type": "platform"}}, {"type": "node", "id": 1504409302, "lat": 53.3678833, "lon": 1.6515, "tags": {"seamark:light:character": "Mo", "seamark:light:colour": "white", "seamark:light:group": "U", "seamark:light:period": "15", "seamark:light:range": "15", "seamark:light:reference": "A 7562.5", "seamark:name": "48/19b-A", "seamark:platform:category": "production", "seamark:radar_transponder:category": "racon", "seamark:radar_transponder:group": "Q", "seamark:type": "platform", "source": "US NGA Pub. 114. 2011-04-02"}}, {"type": "node", "id": 1504411939, "lat": 53.8233333, "lon": 2.9433167, "tags": {"man_made": "monitoring_station", "monitoring:wave_height": "yes", "monitoring:weather": "yes", "recording": "yes", "recording:automated": "yes", "recording:remote": "yes", "seamark:fog_signal:category": "horn", "seamark:fog_signal:group": "U", "seamark:fog_signal:period": "30", "seamark:light:1:character": "Mo", "seamark:light:1:colour": "white", "seamark:light:1:group": "U", "seamark:light:1:period": "15", "seamark:light:1:range": "15", "seamark:light:2:category": "vertical", "seamark:light:2:character": "F", "seamark:light:2:colour": "red", "seamark:light:2:multiple": "2", "seamark:light:reference": "A 7576.97", "seamark:name": "Markham Field J6A", "seamark:radar_transponder:category": "racon", "seamark:radar_transponder:group": "M", "seamark:type": "platform", "source": "US NGA Pub. 114.(2019)", "url": "https://waterinfo.rws.nl/#!/details/publiek/luchttemperatuur/J6-platform(J6)/", "weather:anemometer": "yes", "weather:thermometer": "yes", "website": "https://waterinfo.rws.nl/#!/details/publiek/wind/J6-platform(J6)/"}}, {"type": "node", "id": 1709157728, "lat": 54.2117525, "lon": 6.0013371, "tags": {"man_made": "offshore_platform", "seamark:conspicuity": "conspicuous", "seamark:construction": "metal", "seamark:information": "Windfarm", "seamark:platform:category": "island", "seamark:reflectivity": "reflector", "seamark:status": "permanent", "seamark:type": "platform"}}, {"type": "node", "id": 1733820372, "lat": 55.40207, "lon": 5.07835, "tags": {"man_made": "offshore_platform", "seamark:fog_signal:category": "horn", "seamark:fog_signal:group": "U", "seamark:fog_signal:period": "30", "seamark:light:1:character": "Mo", "seamark:light:1:colour": "white", "seamark:light:1:group": "U", "seamark:light:1:height": "27", "seamark:light:1:period": "15", "seamark:light:1:range": "10", "seamark:light:1:sector_end": "360", "seamark:light:1:sector_start": "0", "seamark:light:2:character": "Mo", "seamark:light:2:colour": "red", "seamark:light:2:group": "U", "seamark:light:2:height": "19", "seamark:light:2:period": "15", "seamark:light:2:range": "2", "seamark:light:2:sector_end": "360", "seamark:light:2:sector_start": "0", "seamark:name": "DUC-KR-A", "seamark:platform:category": "production", "seamark:radar_transponder:category": "racon", "seamark:radar_transponder:period": "90", "seamark:radio_station:category": "ais", "seamark:radio_station:mmsi": "992191516", "seamark:source": "https://map.openseamap.org", "seamark:type": "platform"}}, {"type": "node", "id": 1733820400, "lat": 55.4779933, "lon": 5.106585, "tags": {"man_made": "offshore_platform", "seamark:fog_signal:category": "horn", "seamark:fog_signal:group": "U", "seamark:fog_signal:period": "30", "seamark:light:1:character": "Mo", "seamark:light:1:colour": "white", "seamark:light:1:group": "U", "seamark:light:1:height": "27", "seamark:light:1:period": "15", "seamark:light:1:range": "10", "seamark:light:1:sector_end": "360", "seamark:light:1:sector_start": "0", "seamark:light:2:character": "Mo", "seamark:light:2:colour": "red", "seamark:light:2:group": "U", "seamark:light:2:height": "19", "seamark:light:2:period": "15", "seamark:light:2:range": "2", "seamark:light:2:sector_end": "360", "seamark:light:2:sector_start": "0", "seamark:name": "DUC-DF-A", "seamark:platform:category": "production", "seamark:type": "platform"}}, {"type": "node", "id": 1733820403, "lat": 55.48029, "lon": 5.1170217, "tags": {"man_made": "offshore_platform", "seamark:fog_signal:category": "horn", "seamark:fog_signal:group": "U", "seamark:fog_signal:period": "30", "seamark:light:1:character": "Mo", "seamark:light:1:colour": "white", "seamark:light:1:group": "U", "seamark:light:1:height": "27", "seamark:light:1:period": "15", "seamark:light:1:range": "10", "seamark:light:1:sector_end": "360", "seamark:light:1:sector_start": "0", "seamark:light:2:character": "Mo", "seamark:light:2:colour": "red", "seamark:light:2:group": "U", "seamark:light:2:height": "19", "seamark:light:2:period": "15", "seamark:light:2:range": "2", "seamark:light:2:sector_end": "360", "seamark:light:2:sector_start": "0", "seamark:name": "DUC-B", "seamark:platform:category": "production", "seamark:type": "platform"}}, {"type": "node", "id": 1733820421, "lat": 55.48194, "lon": 5.1082317, "tags": {"man_made": "offshore_platform", "seamark:fog_signal:category": "horn", "seamark:fog_signal:group": "U", "seamark:fog_signal:period": "30", "seamark:light:1:character": "Mo", "seamark:light:1:colour": "white", "seamark:light:1:group": "U", "seamark:light:1:height": "27", "seamark:light:1:period": "15", "seamark:light:1:range": "10", "seamark:light:1:sector_end": "360", "seamark:light:1:sector_start": "0", "seamark:light:2:character": "Mo", "seamark:light:2:colour": "red", "seamark:light:2:group": "U", "seamark:light:2:height": "19", "seamark:light:2:period": "15", "seamark:light:2:range": "2", "seamark:light:2:sector_end": "360", "seamark:light:2:sector_start": "0", "seamark:name": "DUC-DF-D", "seamark:platform:category": "production", "seamark:type": "platform"}}, {"type": "node", "id": 1733820431, "lat": 55.53109, "lon": 4.90724, "tags": {"man_made": "offshore_platform", "seamark:light:1:character": "Mo", "seamark:light:1:colour": "white", "seamark:light:1:group": "U", "seamark:light:1:height": "27", "seamark:light:1:period": "15", "seamark:light:1:range": "10", "seamark:light:1:sector_end": "360", "seamark:light:1:sector_start": "0", "seamark:light:2:character": "Mo", "seamark:light:2:colour": "red", "seamark:light:2:group": "U", "seamark:light:2:height": "19", "seamark:light:2:period": "15", "seamark:light:2:range": "2", "seamark:light:2:sector_end": "360", "seamark:light:2:sector_start": "0", "seamark:name": "DUC-S-A", "seamark:platform:category": "production", "seamark:radar_transponder:category": "racon", "seamark:radar_transponder:group": "U", "seamark:type": "platform"}}, {"type": "node", "id": 1733820442, "lat": 55.5396783, "lon": 5.0327917, "tags": {"man_made": "offshore_platform", "seamark:name": "DUC-HB-A", "seamark:platform:category": "production", "seamark:radar_transponder:category": "racon", "seamark:type": "platform"}}, {"type": "node", "id": 1733820443, "lat": 55.5570833, "lon": 5.1344167, "tags": {"man_made": "offshore_platform", "seamark:name": "DUC-HC-A", "seamark:platform:category": "production", "seamark:radar_transponder:category": "racon", "seamark:type": "platform"}}, {"type": "node", "id": 1733820456, "lat": 55.5765367, "lon": 4.6184783, "tags": {"man_made": "offshore_platform", "seamark:fog_signal:category": "horn", "seamark:fog_signal:group": "U", "seamark:fog_signal:period": "30", "seamark:light:1:character": "Mo", "seamark:light:1:colour": "white", "seamark:light:1:group": "U", "seamark:light:1:height": "27", "seamark:light:1:period": "15", "seamark:light:1:range": "10", "seamark:light:1:sector_end": "360", "seamark:light:1:sector_start": "0", "seamark:light:2:character": "Mo", "seamark:light:2:colour": "red", "seamark:light:2:group": "U", "seamark:light:2:height": "19", "seamark:light:2:period": "15", "seamark:light:2:range": "2", "seamark:light:2:sector_end": "360", "seamark:light:2:sector_start": "0", "seamark:name": "DUC-DM-A", "seamark:platform:category": "production", "seamark:radar_transponder:category": "racon", "seamark:radar_transponder:group": "U", "seamark:radar_transponder:period": "90", "seamark:radio_station:category": "ais", "seamark:source": "https://www.defensie.nl/english/topics/notices-to-mariners/contents/database/by-week?week=32&year=2016&nauticalcharts=true (308/16)", "seamark:type": "platform"}}, {"type": "node", "id": 1733820465, "lat": 55.5791817, "lon": 4.759045, "tags": {"man_made": "offshore_platform", "seamark:fog_signal:category": "horn", "seamark:fog_signal:group": "U", "seamark:fog_signal:period": "30", "seamark:light:1:character": "Mo", "seamark:light:1:colour": "white", "seamark:light:1:group": "U", "seamark:light:1:height": "27", "seamark:light:1:period": "15", "seamark:light:1:range": "10", "seamark:light:1:sector_end": "360", "seamark:light:1:sector_start": "0", "seamark:light:2:character": "Mo", "seamark:light:2:colour": "red", "seamark:light:2:group": "U", "seamark:light:2:height": "19", "seamark:light:2:period": "15", "seamark:light:2:range": "2", "seamark:light:2:sector_end": "360", "seamark:light:2:sector_start": "0", "seamark:name": "A", "seamark:platform:category": "production", "seamark:radar_transponder:category": "racon", "seamark:radar_transponder:period": "12", "seamark:type": "platform"}}, {"type": "node", "id": 1733820490, "lat": 55.605495, "lon": 4.49128, "tags": {"man_made": "offshore_platform", "seamark:fog_signal:category": "horn", "seamark:fog_signal:group": "U", "seamark:fog_signal:period": "30", "seamark:light:1:character": "Mo", "seamark:light:1:colour": "white", "seamark:light:1:group": "U", "seamark:light:1:height": "27", "seamark:light:1:period": "15", "seamark:light:1:range": "10", "seamark:light:1:sector_end": "360", "seamark:light:1:sector_start": "0", "seamark:light:2:character": "Mo", "seamark:light:2:colour": "red", "seamark:light:2:group": "U", "seamark:light:2:height": "19", "seamark:light:2:period": "15", "seamark:light:2:range": "2", "seamark:light:2:sector_end": "360", "seamark:light:2:sector_start": "0", "seamark:name": "DUC-RF-A", "seamark:platform:category": "production", "seamark:radar_transponder:category": "racon", "seamark:type": "platform"}}, {"type": "node", "id": 1733820513, "lat": 55.640005, "lon": 4.8840467, "tags": {"man_made": "offshore_platform", "seamark:fog_signal:category": "horn", "seamark:fog_signal:group": "U", "seamark:fog_signal:period": "30", "seamark:light:1:character": "Mo", "seamark:light:1:colour": "white", "seamark:light:1:group": "U", "seamark:light:1:height": "27", "seamark:light:1:period": "15", "seamark:light:1:range": "10", "seamark:light:1:sector_end": "360", "seamark:light:1:sector_start": "0", "seamark:light:2:character": "Mo", "seamark:light:2:colour": "red", "seamark:light:2:group": "U", "seamark:light:2:height": "19", "seamark:light:2:period": "15", "seamark:light:2:range": "2", "seamark:light:2:sector_end": "360", "seamark:light:2:sector_start": "0", "seamark:name": "DUC-T-SE", "seamark:platform:category": "production", "seamark:type": "platform"}}, {"type": "node", "id": 1733820526, "lat": 55.715333, "lon": 4.749167, "tags": {"man_made": "offshore_platform", "name": "Tyra West A,B,C,D,E,F", "seamark:fog_signal:category": "horn", "seamark:fog_signal:group": "U", "seamark:fog_signal:period": "30", "seamark:light:1:character": "Mo", "seamark:light:1:colour": "white", "seamark:light:1:group": "U", "seamark:light:1:height": "27", "seamark:light:1:period": "15", "seamark:light:1:range": "10", "seamark:light:1:sector_end": "360", "seamark:light:1:sector_start": "0", "seamark:light:2:character": "Mo", "seamark:light:2:colour": "red", "seamark:light:2:group": "U", "seamark:light:2:height": "19", "seamark:light:2:period": "15", "seamark:light:2:range": "2", "seamark:light:2:sector_end": "360", "seamark:light:2:sector_start": "0", "seamark:name": "Tyra West A,B,C,D,E,F", "seamark:platform:category": "production", "seamark:source": "https://english.defensie.nl/topics/notices-to-mariners/weekly-editions/2020/50 (374/20)", "seamark:type": "platform"}}, {"type": "node", "id": 1733820541, "lat": 55.72076, "lon": 4.800915, "tags": {"man_made": "offshore_platform", "name": "Tyra East A,B,C,D", "seamark:fog_signal:category": "horn", "seamark:fog_signal:group": "U", "seamark:fog_signal:period": "30", "seamark:light:1:character": "Mo", "seamark:light:1:colour": "white", "seamark:light:1:group": "U", "seamark:light:1:height": "27", "seamark:light:1:period": "15", "seamark:light:1:range": "10", "seamark:light:1:sector_end": "360", "seamark:light:1:sector_start": "0", "seamark:light:2:character": "Mo", "seamark:light:2:colour": "red", "seamark:light:2:group": "U", "seamark:light:2:height": "19", "seamark:light:2:period": "15", "seamark:light:2:range": "2", "seamark:light:2:sector_end": "360", "seamark:light:2:sector_start": "0", "seamark:name": "Tyra East A,B,C,D", "seamark:platform:category": "production", "seamark:radar_transponder:category": "racon", "seamark:radar_transponder:period": "90", "seamark:source": "https://english.defensie.nl/topics/notices-to-mariners/weekly-editions/2020/50 (374/20)", "seamark:type": "platform"}}, {"type": "node", "id": 1733820561, "lat": 55.7669817, "lon": 4.6486917, "tags": {"man_made": "offshore_platform", "seamark:name": "DUC-RO-A", "seamark:platform:category": "production", "seamark:radar_transponder:category": "racon", "seamark:type": "platform"}}, {"type": "node", "id": 1733820562, "lat": 55.8039783, "lon": 4.5644617, "tags": {"man_made": "offshore_platform", "seamark:fog_signal:category": "horn", "seamark:fog_signal:group": "U", "seamark:fog_signal:period": "30", "seamark:light:1:character": "Mo", "seamark:light:1:colour": "white", "seamark:light:1:group": "U", "seamark:light:1:height": "27", "seamark:light:1:period": "15", "seamark:light:1:range": "10", "seamark:light:1:sector_end": "360", "seamark:light:1:sector_start": "0", "seamark:light:2:character": "Mo", "seamark:light:2:colour": "red", "seamark:light:2:group": "U", "seamark:light:2:height": "19", "seamark:light:2:period": "15", "seamark:light:2:range": "2", "seamark:light:2:sector_end": "360", "seamark:light:2:sector_start": "0", "seamark:name": "DUC-VB-A", "seamark:platform:category": "production", "seamark:radar_transponder:category": "racon", "seamark:radar_transponder:group": "U", "seamark:type": "platform"}}, {"type": "node", "id": 1733820572, "lat": 55.8337017, "lon": 4.5615933, "tags": {"man_made": "offshore_platform", "seamark:fog_signal:category": "horn", "seamark:fog_signal:group": "U", "seamark:fog_signal:period": "30", "seamark:light:1:character": "Mo", "seamark:light:1:colour": "white", "seamark:light:1:group": "U", "seamark:light:1:height": "27", "seamark:light:1:period": "15", "seamark:light:1:range": "10", "seamark:light:1:sector_end": "360", "seamark:light:1:sector_start": "0", "seamark:light:2:character": "Mo", "seamark:light:2:colour": "red", "seamark:light:2:group": "U", "seamark:light:2:height": "19", "seamark:light:2:period": "15", "seamark:light:2:range": "2", "seamark:light:2:sector_end": "360", "seamark:light:2:sector_start": "0", "seamark:name": "DUC-VA-A", "seamark:platform:category": "production", "seamark:radar_transponder:category": "racon", "seamark:radar_transponder:group": "U", "seamark:radar_transponder:period": "90", "seamark:type": "platform"}}, {"type": "node", "id": 1801025870, "lat": 54.35417, "lon": 6.0250083, "tags": {"frequency": "0", "location": "platform", "man_made": "offshore_platform", "name": "BorWin Alpha", "operator": "BARD Engineering", "power": "substation", "seamark:platform:category": "substation", "seamark:radio_station:category": "ais", "seamark:source": "BfS 71/18 WSA Cuxhaven", "seamark:type": "platform", "source": "http://de.wikipedia.org/wiki/BorWin_Alpha", "start_date": "2013", "substation": "converter", "voltage": "150000", "wikidata": "Q823183", "wikipedia": "de:BorWin Alpha"}}, {"type": "node", "id": 1973798991, "lat": 53.6909435, "lon": 6.4846323, "tags": {"frequency": "50", "location": "platform", "name": "Riffgat", "operator": "TenneT TSO GmbH", "power": "substation", "seamark:name": "Riffgat platform", "seamark:platform:category": "production", "seamark:type": "platform", "start_date": "2014-12", "substation": "transmission", "voltage": "155000;33000"}}, {"type": "node", "id": 1979140842, "lat": 53.996819, "lon": 6.4205971, "tags": {"frequency": "0", "location": "platform", "man_made": "offshore_platform", "name": "DolWin Alpha", "operator": "TenneT TSO GmbH", "operator:wikidata": "Q1127569", "power": "substation", "seamark:name": "DolWin Alpha", "seamark:platform:category": "production", "seamark:radio_station:callsign": "JACKET DOLWIN ALPHA", "seamark:radio_station:category": "ais", "seamark:radio_station:mmsi": "992111869", "seamark:type": "platform", "substation": "converter", "voltage": "220000", "wikidata": "Q60154705"}}, {"type": "node", "id": 2136693974, "lat": 54.354933, "lon": 6.025033, "tags": {"frequency": "0", "location": "platform", "man_made": "offshore_platform", "name": "BorWin Beta", "operator": "TenneT TSO GmbH", "operator:wikidata": "Q1127569", "power": "substation", "seamark:name": "BorWin Beta", "seamark:platform:category": "substation", "seamark:radio_station:category": "ais", "seamark:source": "BfS 71/18 WSA Cuxhaven", "seamark:type": "platform", "source": "http://www.4coffshore.com/windfarms/hvdc-converter-borwin-beta-cid3.html", "start_date": "2015", "substation": "converter", "voltage": "300000;155000", "wikidata": "Q60159567"}}, {"type": "node", "id": 2275396323, "lat": 51.4374246, "lon": 1.6221121, "tags": {"frequency": "50", "man_made": "offshore_platform", "power": "substation", "substation": "transmission", "voltage": "132000;33000"}}, {"type": "node", "id": 2324245219, "lat": 55.0627, "lon": 7.24095, "tags": {"aeroway": "helipad", "frequency": "0;50", "man_made": "offshore_platform", "name": "SylWin Alpha", "operator": "Tennet", "power": "substation", "seamark:name": "SYLWIN ALPHA", "seamark:platform:category": "production", "seamark:radio_station:category": "ais", "seamark:radio_station:mmsi": "992111821", "seamark:source": "https://map.openseamap.org/ (AIS)", "seamark:type": "platform", "substation": "converter", "voltage": "320000;155000", "wikidata": "Q60153323"}}, {"type": "node", "id": 2342437616, "lat": 51.9978165, "lon": 3.2748416, "tags": {"aeroway": "helipad", "man_made": "monitoring_station", "monitoring:tide_gauge": "yes", "monitoring:water_temperature": "yes", "monitoring:wave_height": "yes", "monitoring:weather": "yes", "name": "Europlatform", "recording:automated": "yes", "recording:remote": "yes", "seamark:fog_signal": "yes", "seamark:light:1:character": "Mo", "seamark:light:1:colour": "white", "seamark:light:1:group": "U", "seamark:light:1:height": "22", "seamark:light:1:period": "15", "seamark:light:2:category": "air_obstruction", "seamark:light:2:character": "F", "seamark:light:2:colour": "red", "seamark:light:3:category": "aero", "seamark:light:3:character": "F", "seamark:light:3:colour": "yellow", "seamark:name": "MEETPLATFORM", "seamark:platform:category": "observation", "seamark:platform:colour": "red;white;red;white", "seamark:platform:colour_pattern": "horizontal", "seamark:radio_station:category": "ais", "seamark:radio_station:mmsi": "2442019", "seamark:source": "https://geoservices.rijkswaterstaat.nl/apps/geoserver/vaarweg_markeringen/ows?service=WFS&version=1.1.0&request=GetFeature&typeName=vaarweg_markering_vast&outputFormat=csv Date:2019-10-07", "seamark:status": "illuminated", "seamark:type": "platform", "weather:anemometer": "yes", "weather:wind_vane": "yes", "website": "https://waterinfo.rws.nl/#!/kaart/waterhoogte-t-o-v-nap/"}}, {"type": "node", "id": 2342437617, "lat": 52.37, "lon": 3.352222, "tags": {"aeroway": "helipad", "alt_name": "P11-B De Ruyter", "man_made": "monitoring_station", "monitoring:weather": "yes", "name": "P11-B", "operator": "Dana Petroleum", "recording:automated": "yes", "recording:remote": "yes", "seamark:name": "P11-B", "seamark:platform:category": "gas", "seamark:radio_station:category": "ais", "seamark:radio_station:mmsi": "164868879", "seamark:type": "platform", "weather:anemometer": "yes", "weather:barometer": "yes", "weather:humidity_sensor": "yes", "weather:wind_vane": "yes", "website": "https://www.knmi.nl/nederland-nu/weer/actueel-weer/kust-en-noordzee"}}, {"type": "node", "id": 2342437619, "lat": 52.75417, "lon": 3.75528, "tags": {"aerialway": "helipad", "man_made": "ofshore_platform", "name": "P6A Platform", "seamark:landmark:category": "flare_stack", "seamark:name": "PLATFORM P6A", "seamark:platform:category": "gas", "seamark:radio_station:category": "ais", "seamark:radio_station:mmsi": "2442023", "seamark:source": "https://map.openseamap.org", "seamark:type": "platform"}}, {"type": "node", "id": 2342437620, "lat": 53.2171667, "lon": 3.219, "tags": {"man_made": "monitoring_station", "monitoring:tide_gauge": "yes", "monitoring:water_temperature": "yes", "monitoring:wave_height": "yes", "monitoring:weather": "yes", "recording": "yes", "recording:automated": "yes", "recording:remote": "yes", "seamark:name": "K13 Alpha", "seamark:platform:category": "production", "seamark:radio_station:category": "ais", "seamark:type": "platform", "seamark:waterway_gauge:category": "recording_remote_access", "url": "https://waterberichtgeving.rws.nl/wbviewer/maak_grafiek.php?loc=K13&set=eindverwachting&nummer=1", "weather:anemometer": "yes", "weather:thermometer": "yes", "website": "https://waterinfo.rws.nl/#!/details/publiek/wind/K13-Alpha(K13)"}}, {"type": "node", "id": 2342437621, "lat": 54.116, "lon": 4.0111667, "tags": {"description": "monitoring ended 2020-08-31", "disused:man_made": "monitoring_station", "monitoring:tide_gauge": "yes", "monitoring:wave_height": "yes", "monitoring:weather": "yes", "name": "F16 platform", "recording": "yes", "recording:automated": "yes", "recording:remote": "yes", "seamark:name": "F-16A", "seamark:platform:category": "production", "seamark:radio_station:category": "ais", "seamark:source": "https://www.knmi.nl/nederland-nu/weer/actueel-weer/kust-en-noordzee", "seamark:type": "platform", "seamark:waterway_gauge:category": "recording_remote_access", "weather:anemometer": "yes", "website": "https://waterinfo.rws.nl/#!/details/publiek/golfhoogte/F16-platform(F16)/"}}, {"type": "node", "id": 2342583834, "lat": 53.268611, "lon": 3.625, "tags": {"aeroway": "helipad", "man_made": "monitoring_station;offshore_platform", "monitoring:tide_gauge": "yes", "monitoring:wave_height": "yes", "monitoring:weather": "yes", "name": "K14 PLATFORM", "recording:automated": "yes", "recording:remote": "yes", "seamark:name": "NAM K14FA1", "seamark:platform:category": "gas", "seamark:radar_transponder:category": "racon", "seamark:radar_transponder:group": "7", "seamark:radio_station:category": "ais", "seamark:radio_station:mmsi": "2442017", "seamark:type": "platform", "source": "US NGA Pub. 114.(2019);https://waterinfo.rws.nl/#!/kaart/wind/", "url": "https://waterberichtgeving.rws.nl/wbviewer/maak_grafiek.php?loc=K14&set=eindverwachting&nummer=1", "weather:anemometer": "yes", "weather:thermometer": "yes", "website": "https://waterinfo.rws.nl/#!/details/publiek/wind/K14-platform(K14)/"}}, {"type": "node", "id": 2342583835, "lat": 53.4948333, "lon": 3.369, "tags": {"seamark:fog_signal": "yes", "seamark:fog_signal:group": "U", "seamark:fog_signal:period": "30", "seamark:light:character": "Mo", "seamark:light:colour": "white", "seamark:light:group": "U", "seamark:light:period": "15", "seamark:light:range": "15", "seamark:name": "NAM K8FA1", "seamark:type": "platform"}}, {"type": "node", "id": 2342583836, "lat": 53.61384, "lon": 4.96089, "tags": {"aeroway": "helipad", "man_made": "monitoring_station", "monitoring:tide_gauge": "yes", "monitoring:wave_height": "yes", "monitoring:weather": "yes", "name": "L9 platform", "recording:automated": "yes", "recording:remote": "yes", "seamark:fog_signal": "yes", "seamark:light:character": "Mo", "seamark:light:colour": "white", "seamark:light:group": "U", "seamark:name": "L9-FF1", "seamark:radio_station:category": "ais", "seamark:radio_station:mmsi": "2442016", "seamark:source": "https://map.openseamap.org", "seamark:type": "platform", "seamark:waterway_gauge:category": "recording_remote_access", "weather:anemometer": "yes", "weather:humidity_sensor": "yes", "weather:thermometer": "yes", "weather:transmissometer": "yes", "website": "https://waterinfo.rws.nl/#!/details/publiek/wind/L9-platform(L9)/"}}, {"type": "node", "id": 2342583838, "lat": 53.9486667, "lon": 3.6625, "tags": {"seamark:fog_signal:category": "horn", "seamark:light:character": "Mo", "seamark:light:colour": "white", "seamark:light:group": "U", "seamark:light:period": "15", "seamark:light:range": "15", "seamark:name": "K 2b-A", "seamark:platform:category": "production", "seamark:radio_station:category": "omnidirectional", "seamark:type": "platform"}}, {"type": "node", "id": 2342583839, "lat": 54.0494993, "lon": 5.4380015, "tags": {"aeroway": "helipad", "seamark:fog_signal:category": "horn", "seamark:fog_signal:generation": "automatic", "seamark:fog_signal:group": "MO(U)", "seamark:fog_signal:period": "30", "seamark:fog_signal:range": "15", "seamark:light:character": "Mo", "seamark:light:colour": "white", "seamark:light:group": "U", "seamark:light:period": "15", "seamark:light:range": "15", "seamark:name": "G17d-A", "seamark:platform:category": "oil;gas", "seamark:radio_station:category": "ais_base", "seamark:source": "https://map.openseamap.org", "seamark:type": "platform"}}, {"type": "node", "id": 2342583840, "lat": 54.3248333, "lon": 2.9343333, "tags": {"man_made": "monitoring_station", "monitoring:tide_gauge": "yes", "monitoring:weather": "yes", "name": "D15 platform", "recording": "yes", "recording:automated": "yes", "recording:remote": "yes", "seamark:name": "PLATFORM D15FA1", "seamark:platform:category": "oil;gas", "seamark:radio_station:category": "ais", "seamark:radio_station:mmsi": "2442011", "seamark:type": "platform", "seamark:waterway_gauge:category": "recording_remote_access", "weather:anemometer": "yes", "weather:thermometer": "yes", "website": "https://waterberichtgeving.rws.nl/wbviewer/maak_grafiek.php?loc=D15&set=eindverwachting&nummer=1"}}, {"type": "node", "id": 2342583841, "lat": 54.8531667, "lon": 4.6948333, "tags": {"aeroway": "helipad", "icao": "EHFD", "man_made": "monitoring_station", "monitoring:tide_gauge": "yes", "monitoring:weather": "yes", "name": "F3-FB1 Platform", "recording": "yes", "recording:automated": "yes", "recording:remote": "yes", "seamark:name": "F3-FB1 PLATFORM", "seamark:platform:category": "production", "seamark:radio_station:category": "ais", "seamark:type": "platform", "seamark:waterway_gauge:category": "recording_remote_access", "weather:anemometer": "yes", "weather:thermometer": "yes", "website": "https://waterberichtgeving.rws.nl/wbviewer/maak_grafiek.php?loc=F003&set=eindverwachting&nummer=1"}}, {"type": "node", "id": 2451840837, "lat": 55.195, "lon": 7.1583333, "tags": {"aeroway": "helipad", "height": "101.5", "man_made": "monitoring_station", "monitoring:weather": "yes", "name": "FINO 3", "recording:automated": "yes", "recording:remote": "yes", "ref": "FINO3", "seamark:light:character": "Mo", "seamark:light:colour": "yellow", "seamark:light:group": "U", "seamark:light:height": "22", "seamark:light:range": "5", "seamark:name": "FINO 3", "seamark:platform:category": "island", "seamark:radio_station:category": "ais", "seamark:radio_station:mmsi": "992111827", "seamark:type": "platform", "source:coordinates": "AIS", "tower:type": "scientific", "weather:anemometer": "yes", "weather:barometer": "yes", "weather:humidity_sensor": "yes", "weather:thermometer": "yes", "website": "https://www.fino-offshore.de/"}}, {"type": "node", "id": 2671881618, "lat": 54.4008333, "lon": 7.6402778, "tags": {"seamark:light:character": "Oc", "seamark:light:colour": "yellow", "seamark:light:group": "3", "seamark:light:period": "16", "seamark:light:range": "5", "seamark:name": "Mess", "seamark:source": "https://www.defensie.nl/english/topics/notices-to-mariners/contents/database/by-week?week=32&year=2016&nauticalcharts=true (308/16)", "seamark:type": "platform"}}, {"type": "node", "id": 2671881622, "lat": 54.4523833, "lon": 7.7394333, "tags": {"seamark:light:character": "Oc", "seamark:light:colour": "yellow", "seamark:light:group": "3", "seamark:light:multiple": "2", "seamark:light:period": "16", "seamark:light:range": "5", "seamark:name": "HelWin Alpha Helwin Beta", "seamark:radio_station:category": "ais", "seamark:source": "https://english.defensie.nl/topics/notices-to-mariners/weekly-editions/2018/35 (302/18)", "seamark:type": "platform"}}, {"type": "node", "id": 2671881625, "lat": 54.5064047, "lon": 7.7066221, "tags": {"seamark:light:character": "Oc", "seamark:light:group": "3", "seamark:light:period": "12", "seamark:name": "Amrumbank West", "seamark:type": "platform"}}, {"type": "node", "id": 2719435862, "lat": 53.5084311, "lon": 6.017454, "tags": {"seamark:fog_signal": "yes", "seamark:light:character": "Mo", "seamark:light:colour": "white", "seamark:light:group": "U", "seamark:light:period": "15", "seamark:name": "N7-FA-1", "seamark:platform:category": "production", "seamark:type": "platform"}}, {"type": "node", "id": 2740400010, "lat": 54.5132509, "lon": 6.3686292, "tags": {"frequency": "50", "location": "platform", "operator": "Global Tech I Offshore Wind GmbH", "power": "substation", "seamark:platform:category": "substation", "seamark:type": "platform", "start_date": "2015", "substation": "transmission", "voltage": "155000"}}, {"type": "node", "id": 2833623694, "lat": 52.8722552, "lon": 4.1712807, "tags": {"name": "Q1D", "seamark:name": "Platform Q1D", "seamark:type": "platform", "website": "https://www.wintershall.com/"}}, {"type": "node", "id": 2966671478, "lat": 53.7091667, "lon": 4.8191667, "tags": {"seamark:name": "L 6-B", "seamark:platform:category": "oil", "seamark:type": "platform"}}, {"type": "node", "id": 2970004477, "lat": 54.4416008, "lon": 7.6792211, "tags": {"frequency": "50", "location": "platform", "man_made": "offshore_platform", "name": "NSO 0 Platform", "operator": "Windpark Nordsee Ost GmbH", "power": "substation", "seamark:platform:category": "production", "seamark:radio_station:category": "ais", "seamark:radio_station:mmsi": "992111851", "seamark:source": "https://map.openseamap.org/", "seamark:type": "platform", "start_date": "2015", "substation": "transmission", "voltage": "155000;33000", "wikidata": "Q123136272"}}, {"type": "node", "id": 2974296226, "lat": 53.561667, "lon": 0.878611, "tags": {"aeroway": "helipad", "seamark:fog_signal:category": "horn", "seamark:fog_signal:group": "2", "seamark:fog_signal:period": "60", "seamark:light:character": "Fl", "seamark:light:colour": "white", "seamark:light:group": "2", "seamark:light:period": "10", "seamark:light:range": "22", "seamark:name": "Amethyst B1D", "seamark:platform:category": "gas", "seamark:radio_station:category": "ais", "seamark:radio_station:mmsi": "992355154", "seamark:type": "platform", "source:location": "ais"}}, {"type": "node", "id": 2974296227, "lat": 53.611389, "lon": 0.723889, "tags": {"aeroway": "helipad", "seamark:fog_signal:group": "U", "seamark:light:character": "Mo", "seamark:light:colour": "white", "seamark:light:group": "U", "seamark:light:period": "15", "seamark:light:range": "15", "seamark:name": "Amethyst A1D", "seamark:platform:category": "gas", "seamark:radio_station:category": "ais", "seamark:radio_station:mmsi": "992355152", "seamark:type": "platform", "source:location": "ais"}}, {"type": "node", "id": 2974296228, "lat": 53.623333, "lon": 0.790556, "tags": {"aeroway": "helipad", "seamark:fog_signal:category": "siren", "seamark:fog_signal:group": "U", "seamark:light:character": "Mo", "seamark:light:colour": "white", "seamark:light:group": "U", "seamark:light:period": "15", "seamark:light:range": "15", "seamark:name": "Amethyst A2D", "seamark:platform:category": "gas", "seamark:radio_station:category": "ais", "seamark:radio_station:mmsi": "992355153", "seamark:type": "platform", "source:location": "ais"}}, {"type": "node", "id": 2974296229, "lat": 53.6451167, "lon": 0.6022167, "tags": {"aeroway": "helipad", "seamark:fog_signal:category": "bell", "seamark:fog_signal:group": "U", "seamark:light:character": "Mo", "seamark:light:colour": "white", "seamark:light:group": "U", "seamark:light:period": "15", "seamark:light:range": "15", "seamark:name": "Amethyst C1D", "seamark:platform:category": "production", "seamark:type": "platform"}}, {"type": "node", "id": 3033682394, "lat": 53.9785, "lon": 6.9231667, "tags": {"frequency": "0;50", "location": "platform", "name": "DolWin Beta", "operator": "TenneT TSO GmbH", "operator:wikidata": "Q1127569", "power": "substation", "seamark:name": "DolWin Beta", "seamark:platform:colour": "yellow", "seamark:radio_station:category": "ais", "seamark:radio_station:mmsi": "992111822", "seamark:source": "https://map.openseamap.org/", "seamark:type": "platform", "substation": "converter", "voltage": "320000;155000", "wikidata": "Q60152307"}}, {"type": "node", "id": 3306444095, "lat": 55.3845, "lon": 5.229, "tags": {"man_made": "offshore_platform", "seamark:name": "DUC-HC-A", "seamark:platform:category": "production", "seamark:radar_transponder:category": "racon", "seamark:type": "platform"}}, {"type": "node", "id": 3306444096, "lat": 55.43, "lon": 5.261, "tags": {"man_made": "offshore_platform", "seamark:name": "DUC-HC-A", "seamark:platform:category": "production", "seamark:radar_transponder:category": "racon", "seamark:type": "platform"}}, {"type": "node", "id": 3306444097, "lat": 55.448, "lon": 5.099, "tags": {"man_made": "offshore_platform", "seamark:name": "DUC-HC-A", "seamark:platform:category": "production", "seamark:radar_transponder:category": "racon", "seamark:radar_transponder:group": "U", "seamark:radar_transponder:period": "60", "seamark:radar_transponder:sector_end": "360", "seamark:radar_transponder:sector_start": "0", "seamark:type": "platform"}}, {"type": "node", "id": 3306444099, "lat": 55.4765, "lon": 5.261, "tags": {"man_made": "offshore_platform", "seamark:name": "DUC-HC-A", "seamark:platform:category": "production", "seamark:radar_transponder:category": "racon", "seamark:type": "platform"}}, {"type": "node", "id": 3474740564, "lat": 54.3993331, "lon": 7.699482, "tags": {"frequency": "50", "location": "platform", "man_made": "offshore_platform", "operator": "WindMW GmbH", "power": "substation", "seamark:platform:category": "production", "seamark:type": "platform", "start_date": "2014-04", "substation": "transmission", "voltage": "155000;33000", "wikidata": "Q60181332"}}, {"type": "node", "id": 3474762050, "lat": 54.5200383, "lon": 7.7350615, "tags": {"aeroway": "helipad", "location": "platform", "man_made": "offshore_platform", "name": "Amrumbank platform", "operator": "Amrum-Offshore West GmbH", "power": "substation", "seamark:name": "AMRUMBANK PLATFORM", "seamark:platform:category": "production", "seamark:radio_station:category": "ais", "seamark:radio_station:mmsi": "992111970", "seamark:source": "https://map.openseamap.org/ (AIS)", "seamark:type": "platform", "start_date": "2015-10", "substation": "transmission", "voltage": "155000;33000", "wikidata": "Q123127119"}}, {"type": "node", "id": 3474779076, "lat": 55.01961, "lon": 7.7997687, "tags": {"aeroway": "helipad", "frequency": "50", "location": "platform", "man_made": "offshore_platform", "power": "substation", "seamark:name": "BU 0", "seamark:platform:category": "production", "seamark:radio_station:category": "ais", "seamark:radio_station:mmsi": "992111930", "seamark:source": "https://map.openseamap.org/ (AIS)", "seamark:type": "platform", "substation": "distribution", "voltage": "155000", "wikidata": "Q123140867"}}, {"type": "node", "id": 3595409150, "lat": 55.1050664, "lon": 3.8317638, "tags": {"aeroway": "helipad", "icao": "EHAX", "seamark:name": "A18-A", "seamark:platform:category": "production", "seamark:type": "platform"}}, {"type": "node", "id": 3604895280, "lat": 54.0326106, "lon": 5.8884886, "tags": {"location": "platform", "man_made": "offshore_platform", "name": "220 kV Gemini II ZeeEnergie", "operator": "TenneT", "operator:wikidata": "Q1127569", "operator:wikipedia": "nl:TenneT", "power": "substation", "seamark:name": "OHVS1", "seamark:platform:category": "production", "seamark:radio_station:category": "ais", "seamark:radio_station:mmsi": "992441003", "seamark:source": "https://map.openseamap.org/", "seamark:type": "platform", "substation": "transmission", "voltage": "220000;33000", "wikidata": "Q123039860"}}, {"type": "node", "id": 3604943003, "lat": 54.03697, "lon": 6.04163, "tags": {"aeroway": "helipad", "icao": "EHHW", "location": "platform", "man_made": "offshore_platform", "name": "220 kV Gemini I Buitengaats", "operator": "TenneT", "operator:wikidata": "Q1127569", "operator:wikipedia": "nl:TenneT", "power": "substation", "seamark:name": "OHVS2", "seamark:platform:category": "production", "seamark:radio_station:category": "ais", "seamark:radio_station:mmsi": "992441020", "seamark:source": "https://map.openseamap.org/", "seamark:type": "platform", "substation": "transmission", "voltage": "220000;33000", "wikidata": "Q123039748"}}, {"type": "node", "id": 3605426367, "lat": 54.0465, "lon": 6.4669, "tags": {"frequency": "50", "location": "platform", "man_made": "offshore_platform", "operator": "Trianel Windkraftwerk Borkum GmbH & Co. KG", "power": "substation", "ref": "BW UW", "seamark:platform:category": "production", "seamark:source": "AIS", "seamark:type": "platform", "start_date": "2015", "substation": "transmission", "voltage": "155000"}}, {"type": "node", "id": 3655419885, "lat": 53.824291, "lon": 8.178985, "tags": {"frequency": "50", "location": "platform", "man_made": "offshore_platform", "name": "Nordergr\u00fcnde", "power": "substation", "seamark:light:character": "Oc", "seamark:light:colour": "yellow", "seamark:light:group": "3", "seamark:light:period": "16", "seamark:light:range": "5", "seamark:light:reference": "B 1192", "seamark:light:sequence": "2.5+(1.5)+2.5+(1.5)+6.5+(1.5)", "seamark:name": "NG PLATFORM", "seamark:platform:category": "production", "seamark:radio_station:category": "ais", "seamark:radio_station:mmsi": "992111848", "seamark:source": "https://www.admiralty.co.uk/WeeklyNMs/Year%20-%202016/32wknm16_week32_2016.pdf (NP75)", "seamark:type": "platform", "substation": "transmission", "voltage": "155000;33000"}}, {"type": "node", "id": 3708682628, "lat": 53.3298923, "lon": 4.8310849, "tags": {"seamark:platform:category": "gas", "seamark:type": "platform"}}, {"type": "node", "id": 3774582304, "lat": 55.198889, "lon": 6.855278, "tags": {"man_made": "offshore_platform", "name": "Sandbank Platform", "power": "substation", "seamark:name": "SB UW", "seamark:platform:category": "production", "seamark:radio_station:category": "ais", "seamark:radio_station:mmsi": "992111835", "seamark:type": "platform", "substation": "transmission", "voltage": "155000", "wikidata": "Q123147068"}}, {"type": "node", "id": 4026401271, "lat": 55.8714602, "lon": 4.5395324, "tags": {"fvst:name": "Aramark Denmark ApS - Halfdan A", "fvst:navnelbnr": "74623", "man_made": "offshore_platform", "name": "Halfdan HDA", "operator": "Total A/S", "ref:DK:cvr": "32946593", "ref:DK:cvr:pnummer": "1016098902", "source": "http://www.foga.dk/tekster/duc-felterne", "waterway": "offshore_field"}}, {"type": "node", "id": 4027040147, "lat": 55.5397969, "lon": 5.034988, "tags": {"aeroway": "helipad", "fvst:fixme": "wrong location in FVST", "fvst:name": "Aramark Denmark ApS - Halfdan BC", "fvst:navnelbnr": "75114", "man_made": "offshore_platform", "name": "Halfdan BC", "note": "living quarters", "ref:DK:cvr": "32946593", "ref:DK:cvr:pnummer": "1016098902", "waterway": "offshore_field", "year": "2007"}}, {"type": "node", "id": 4034649290, "lat": 55.717, "lon": 4.752, "tags": {"aeroway": "helipad", "fvst:name": "Aramark Denmark ApS - Tyra Vest", "man_made": "offshore_platform", "name": "Tyra Vest A", "waterway": "offshore_field"}}, {"type": "node", "id": 4034649293, "lat": 55.58, "lon": 4.76, "tags": {"access": "private", "aeroway": "helipad", "man_made": "offshore_platform", "name": "Gorm C", "operator": "Aramark Denmark", "waterway": "offshore_field"}}, {"type": "node", "id": 4034657559, "lat": 55.722, "lon": 4.803, "tags": {"access": "private", "aeroway": "helipad", "amenity": "restaurant", "fvst:name": "Aramark Denmark ApS - Tyra \u00d8st\"", "man_made": "offshore_platform", "name": "Tyra \u00d8st A", "operator": "Aramark Denmark", "waterway": "offshore_field"}}, {"type": "node", "id": 4034670627, "lat": 55.48, "lon": 5.109, "tags": {"man_made": "offshore_platform", "name": "Dan Bravo Kantine", "operator": "Aramark Denmark", "waterway": "offshore_field"}}, {"type": "node", "id": 4036292896, "lat": 56.079, "lon": 4.231, "tags": {"access": "private", "aeroway": "helipad", "amenity": "restaurant", "fvst:name": "SYD ARNE ESS Offshore", "fvst:navnelbnr": "74926", "man_made": "offshore_platform", "name": "SYD ARNE ESS Offshore", "ref:DK:cvr": "81093628", "ref:DK:cvr:pnummer": "1019144247", "seamark:light:1:character": "Mo", "seamark:light:1:colour": "white", "seamark:light:1:group": "U", "seamark:light:1:period": "15", "seamark:light:1:sector_end": "360", "seamark:light:1:sector_start": "0", "seamark:light:2:character": "Mo", "seamark:light:2:colour": "red", "seamark:light:2:group": "U", "seamark:light:2:period": "15", "seamark:light:2:range": "3", "seamark:light:2:sector_end": "360", "seamark:light:2:sector_start": "0", "seamark:name": "SOUTH ARNE", "seamark:type": "platform", "waterway": "offshore_plaform"}}, {"type": "node", "id": 4224622289, "lat": 55.716, "lon": 4.7483333, "tags": {"seamark:name": "Seafox 5", "seamark:platform:category": "oil", "seamark:type": "platform", "source": "http://www.soefartsstyrelsen.dk/SikkerhedTilSoes/Sejladsinformation/EfS/Current3/2016%20EfS%2022.pdf"}}, {"type": "node", "id": 4224622290, "lat": 55.8801667, "lon": 4.2328333, "tags": {"seamark:name": "Ensco 121", "seamark:platform:category": "oil", "seamark:type": "platform", "source": "http://www.soefartsstyrelsen.dk/SikkerhedTilSoes/Sejladsinformation/EfS/Current3/2016%20EfS%2022.pdf"}}, {"type": "node", "id": 4224622291, "lat": 56.1783333, "lon": 4.179, "tags": {"seamark:name": "Resilient", "seamark:platform:category": "oil", "seamark:type": "platform", "source": "http://www.soefartsstyrelsen.dk/SikkerhedTilSoes/Sejladsinformation/EfS/Current3/2016%20EfS%2022.pdf"}}, {"type": "node", "id": 4224622292, "lat": 56.2466667, "lon": 3.959, "tags": {"seamark:name": "Resolve", "seamark:platform:category": "oil", "seamark:type": "platform", "source": "http://www.soefartsstyrelsen.dk/SikkerhedTilSoes/Sejladsinformation/EfS/Current3/2016%20EfS%2022.pdf"}}, {"type": "node", "id": 4224622293, "lat": 56.4826667, "lon": 4.9113333, "tags": {"seamark:name": "M\u00e6rsk Giant", "seamark:platform:category": "oil", "seamark:type": "platform", "source": "http://www.soefartsstyrelsen.dk/SikkerhedTilSoes/Sejladsinformation/EfS/Current3/2016%20EfS%2022.pdf"}}, {"type": "node", "id": 4224622351, "lat": 55.4768333, "lon": 5.1075, "tags": {"seamark:name": "Ensco 71", "seamark:platform:category": "oil", "seamark:type": "platform", "source": "http://www.soefartsstyrelsen.dk/SikkerhedTilSoes/Sejladsinformation/EfS/Current3/2016%20EfS%2022.pdf"}}, {"type": "node", "id": 4224622352, "lat": 55.4788333, "lon": 5.1078333, "tags": {"seamark:name": "Atlantic Amsterdam", "seamark:platform:category": "oil", "seamark:type": "platform", "source": "http://www.soefartsstyrelsen.dk/SikkerhedTilSoes/Sejladsinformation/EfS/Current3/2016%20EfS%2022.pdf"}}, {"type": "node", "id": 4224622353, "lat": 55.4813333, "lon": 5.1101667, "tags": {"seamark:name": "Haven", "seamark:platform:category": "oil", "seamark:type": "platform", "source": "http://www.soefartsstyrelsen.dk/SikkerhedTilSoes/Sejladsinformation/EfS/Current3/2016%20EfS%2022.pdf"}}, {"type": "node", "id": 4224630833, "lat": 55.6396667, "lon": 4.884, "tags": {"seamark:name": "Noble Sam Turner", "seamark:platform:category": "oil", "seamark:type": "platform", "source": "http://www.soefartsstyrelsen.dk/SikkerhedTilSoes/Sejladsinformation/EfS/Current3/2016%20EfS%2022.pdf"}}, {"type": "node", "id": 4224630834, "lat": 55.7191667, "lon": 4.798, "tags": {"seamark:name": "Ensco 72", "seamark:platform:category": "oil", "seamark:type": "platform", "source": "http://www.soefartsstyrelsen.dk/SikkerhedTilSoes/Sejladsinformation/EfS/Current3/2016%20EfS%2022.pdf"}}, {"type": "node", "id": 4248353927, "lat": 52.35448, "lon": 3.587823, "tags": {"aeroway": "helipad", "man_made": "monitoring_station", "monitoring:weather": "yes", "note": "seamark:light:colour=unknown", "recording:automated": "yes", "recording:remote": "yes", "seamark:information": "unmanned", "seamark:light:character": "F", "seamark:light:colour": "yellow", "seamark:name": "P11-E", "seamark:platform:category": "production", "seamark:radio_station:category": "ais", "seamark:radio_station:mmsi": "244630786", "seamark:type": "platform", "source": "https://www.defensie.nl/english/topics/notices-to-mariners/contents/database/by-week?week=24&year=2016&nauticalcharts=true *244/16", "weather:anemometer": "yes", "weather:thermometer": "yes"}}, {"type": "node", "id": 4263311387, "lat": 56.078833, "lon": 4.230333, "tags": {"man_made": "offshore_platform", "seamark:light:1:character": "Mo", "seamark:light:1:colour": "white", "seamark:light:1:group": "U", "seamark:light:1:period": "15", "seamark:light:1:sector_end": "360", "seamark:light:1:sector_start": "0", "seamark:light:2:character": "Mo", "seamark:light:2:colour": "red", "seamark:light:2:group": "U", "seamark:light:2:period": "15", "seamark:light:2:range": "3", "seamark:light:2:sector_end": "360", "seamark:light:2:sector_start": "0", "seamark:name": "HESS SA WHP-E", "seamark:type": "platform"}}, {"type": "node", "id": 4263311388, "lat": 56.095667, "lon": 4.219167, "tags": {"man_made": "offshore_platform", "seamark:light:1:character": "Mo", "seamark:light:1:colour": "white", "seamark:light:1:group": "U", "seamark:light:1:period": "15", "seamark:light:1:sector_end": "360", "seamark:light:1:sector_start": "0", "seamark:light:2:character": "Mo", "seamark:light:2:colour": "red", "seamark:light:2:group": "U", "seamark:light:2:period": "15", "seamark:light:2:range": "3", "seamark:light:2:sector_end": "360", "seamark:light:2:sector_start": "0", "seamark:name": "HESS SA WHP-N", "seamark:type": "platform"}}, {"type": "node", "id": 4553094877, "lat": 56.3452667, "lon": 4.2719833, "tags": {"fvst:name": "Aramark Denmark ApS - Harald", "fvst:navnelbnr": "75457", "man_made": "offshore_platform", "name": "Harald A", "ref:DK:cvr": "32946593", "ref:DK:cvr:pnummer": "1016098902", "waterway": "offshore_field"}}, {"type": "node", "id": 4847657589, "lat": 54.26755, "lon": 2.321983, "tags": {"seamark:name": "Murdoch", "seamark:radio_station:category": "ais", "seamark:radio_station:mmsi": "999999997", "seamark:type": "platform", "source": "OpenSeaMap, AIS"}}, {"type": "node", "id": 4866705161, "lat": 51.9516947, "lon": 2.0202505, "tags": {"power": "substation", "seamark:name": "Substation", "seamark:platform:category": "production", "seamark:source": "https://english.defensie.nl/topics/notices-to-mariners/weekly-editions/2019/28 (254/19)", "seamark:type": "platform", "substation": "transmission", "voltage": "132000;33000"}}, {"type": "node", "id": 4904888700, "lat": 53.241667, "lon": 4.0825, "tags": {"seamark:name": "L13-FI-1", "seamark:platform:category": "oil;gas", "seamark:source": "https://www.defensie.nl/english/topics/notices-to-mariners/contents/database/by-week?week=23&year=2017&nauticalcharts=true&1800series=true(NtM 185/17)", "seamark:type": "platform"}}, {"type": "node", "id": 5137826688, "lat": 51.5755679, "lon": 2.9188744, "tags": {"frequency": "50", "name": "Rentel Wind Offshore Farm Substation", "power": "substation", "seamark:name": "REN", "seamark:platform:category": "production", "seamark:radio_station:category": "ais", "seamark:radio_station:mmsi": "992051049", "seamark:type": "platform", "substation": "transmission", "voltage": "220000;33000", "wikidata": "Q123053682"}}, {"type": "node", "id": 5324479980, "lat": 56.2782512, "lon": 3.3927795, "tags": {"note": "Lysb\u00f8ye", "ref:kystverket": "10065", "seamark:light:character": "Fl", "seamark:name": "Valhall Q", "seamark:platform:category": "production", "seamark:type": "platform", "source": "Kystverket"}}, {"type": "node", "id": 5324479981, "lat": 56.2768965, "lon": 3.3949454, "tags": {"note": "Lysb\u00f8ye", "ref:kystverket": "10066", "seamark:light:character": "Fl", "seamark:name": "Valhall 2/8 PCP", "seamark:platform:category": "production", "seamark:type": "platform", "source": "Kystverket"}}, {"type": "node", "id": 5324479984, "lat": 56.2760613, "lon": 3.3949088, "tags": {"note": "Lysb\u00f8ye", "ref:kystverket": "10067", "seamark:light:character": "Fl", "seamark:name": "Valhall 2/8 WP", "seamark:platform:category": "production", "seamark:type": "platform", "source": "Kystverket"}}, {"type": "node", "id": 5324636746, "lat": 56.4186495, "lon": 3.2169125, "tags": {"note": "HIB", "ref:kystverket": "1057op", "seamark:light:character": "Fl", "seamark:light:colour": "red", "seamark:light:range": "3", "seamark:name": "Eldfisk 2/7 B", "seamark:platform:category": "production", "seamark:type": "platform", "source": "Kystverket"}}, {"type": "node", "id": 5324638279, "lat": 56.6402877, "lon": 3.3261074, "tags": {"note": "HIB", "ref:kystverket": "1065op", "seamark:light:character": "Fl", "seamark:light:colour": "red", "seamark:light:range": "3", "seamark:platform:category": "production", "seamark:type": "platform", "source": "Kystverket"}}, {"type": "node", "id": 5324638285, "lat": 56.5642243, "lon": 3.2017503, "tags": {"note": "HIB", "ref:kystverket": "1068op", "seamark:light:character": "Fl", "seamark:light:colour": "red", "seamark:light:range": "3", "seamark:platform:category": "production", "seamark:type": "platform", "source": "Kystverket"}}, {"type": "node", "id": 5326007178, "lat": 58.18928, "lon": 2.4711384, "tags": {"note": "Lanterne", "ref:kystverket": "10100E", "seamark:light:1:character": "Mo", "seamark:light:1:colour": "white", "seamark:light:1:group": "K", "seamark:light:1:range": "15", "seamark:light:2:character": "F", "seamark:light:2:colour": "red", "seamark:light:2:range": "5", "seamark:name": "Draupner E", "seamark:platform:category": "production", "seamark:type": "platform", "source": "Kystverket"}}, {"type": "node", "id": 5326007183, "lat": 56.2748529, "lon": 3.3940847, "tags": {"note": "Lanterne", "ref:kystverket": "10069", "seamark:light:character": "Fl", "seamark:name": "Valhall 2/8 PH", "seamark:platform:category": "production", "seamark:type": "platform", "source": "Kystverket"}}, {"type": "node", "id": 5326007189, "lat": 57.1104332, "lon": 2.8444393, "tags": {"note": "Lanterne", "ref:kystverket": "1108op", "seamark:light:character": "Fl", "seamark:light:colour": "red", "seamark:light:group": "1", "seamark:light:period": "1", "seamark:light:range": "3", "seamark:name": "ULA QP", "seamark:platform:category": "production", "seamark:type": "platform", "source": "Kystverket"}}, {"type": "node", "id": 5326007191, "lat": 56.3750635, "lon": 3.2643983, "tags": {"note": "Lanterne", "ref:kystverket": "1059op", "seamark:light:character": "Fl", "seamark:light:colour": "red", "seamark:light:range": "3", "seamark:platform:category": "production", "seamark:type": "platform", "source": "Kystverket"}}, {"type": "node", "id": 5326007192, "lat": 56.3731015, "lon": 3.2657269, "tags": {"note": "Lanterne", "ref:kystverket": "1062op", "seamark:light:character": "Fl", "seamark:light:colour": "red", "seamark:light:range": "3", "seamark:platform:category": "production", "seamark:type": "platform", "source": "Kystverket"}}, {"type": "node", "id": 5326007195, "lat": 56.5203577, "lon": 3.2213505, "tags": {"note": "Lanterne", "ref:kystverket": "1067op", "seamark:light:character": "Fl", "seamark:light:colour": "red", "seamark:light:range": "3", "seamark:name": "Ekofisk 2/4 A", "seamark:platform:category": "production", "seamark:type": "platform", "source": "Kystverket"}}, {"type": "node", "id": 5326007196, "lat": 56.3744113, "lon": 3.2637128, "tags": {"note": "Lanterne", "ref:kystverket": "1060op", "seamark:light:character": "Fl", "seamark:light:colour": "red", "seamark:light:range": "3", "seamark:platform:category": "production", "seamark:type": "platform", "source": "Kystverket"}}, {"type": "node", "id": 5326007197, "lat": 56.3740013, "lon": 3.2649977, "tags": {"note": "Lanterne", "ref:kystverket": "1061op", "seamark:light:character": "Fl", "seamark:light:colour": "red", "seamark:light:range": "3", "seamark:platform:category": "production", "seamark:type": "platform", "source": "Kystverket"}}, {"type": "node", "id": 5326007198, "lat": 56.4922764, "lon": 2.921921, "tags": {"note": "Lanterne", "ref:kystverket": "1066op", "seamark:light:character": "Fl", "seamark:light:colour": "red", "seamark:light:range": "3", "seamark:platform:category": "production", "seamark:type": "platform", "source": "Kystverket"}}, {"type": "node", "id": 5326007203, "lat": 59.26527, "lon": 2.44777, "tags": {"aeroway": "helipad", "man_made": "offshore_platform", "name": "Ringhorne", "note": "Lanterne", "ref:kystverket": "1105op", "seamark:light:character": "Fl", "seamark:light:colour": "red", "seamark:light:group": "1", "seamark:light:period": "1", "seamark:light:range": "3", "seamark:name": "Ringhorne", "seamark:platform:category": "production", "seamark:radio_station:category": "ais", "seamark:radio_station:mmsi": "992572070", "seamark:type": "platform", "source": "Kystverket", "wikimedia_commons": "File:Ringhorne,_Nordsj\u00f8en_(28529976756).jpg"}}, {"type": "node", "id": 5326007206, "lat": 59.1909786, "lon": 2.3858436, "tags": {"aeroway": "helipad", "man_made": "floating_storage", "name": "BALDER FPU", "note": "Lanterne", "ref:kystverket": "1104op", "seamark:light:character": "Fl", "seamark:light:colour": "red", "seamark:light:group": "1", "seamark:light:period": "1", "seamark:light:range": "3", "seamark:name": "BALDER FPU", "seamark:platform:category": "fpso", "seamark:platform:colour": "red", "seamark:radio_station:category": "ais", "seamark:radio_station:mmsi": "992572071", "seamark:type": "platform", "source": "Kystverket", "website": "https://www.norskpetroleum.no/en/facts/field/balder/"}}, {"type": "node", "id": 5326007213, "lat": 58.3679885, "lon": 1.9048624, "tags": {"note": "Lanterne", "ref:kystverket": "1095op", "seamark:light:character": "Fl", "seamark:light:colour": "red", "seamark:light:group": "1", "seamark:light:period": "1", "seamark:light:range": "3", "seamark:name": "Sleipner T", "seamark:platform:category": "production", "seamark:type": "platform", "source": "Kystverket"}}, {"type": "node", "id": 5326007219, "lat": 59.5747354, "lon": 2.2266407, "tags": {"note": "Lanterne", "ref:kystverket": "1098op", "seamark:light:character": "Fl", "seamark:light:colour": "red", "seamark:light:group": "1", "seamark:light:period": "1", "seamark:light:range": "3", "seamark:name": "Heimdal Riser Platform", "seamark:platform:category": "production", "seamark:type": "platform", "source": "Kystverket"}}, {"type": "node", "id": 5326007220, "lat": 56.2355042, "lon": 3.7084758, "tags": {"note": "Lanterne", "ref:kystverket": "1099op", "seamark:light:character": "Fl", "seamark:light:colour": "red", "seamark:light:range": "3", "seamark:name": "Mj\u00f8lner", "seamark:platform:category": "production", "seamark:type": "platform", "source": "Kystverket"}}, {"type": "node", "id": 5326009421, "lat": 58.1881645, "lon": 2.4710661, "tags": {"kystverket:racon_information": "Ukjent racon type", "note": "Lanterne", "ref:kystverket": "10100S", "seamark:light:1:character": "Mo", "seamark:light:1:colour": "white", "seamark:light:1:group": "K", "seamark:light:1:range": "15", "seamark:light:2:character": "F", "seamark:light:2:colour": "red", "seamark:light:2:range": "5", "seamark:name": "Draupner S", "seamark:platform:category": "production", "seamark:radar_transponder:category": "racon", "seamark:radar_transponder:group": "G", "seamark:radar_transponder:period": "30", "seamark:radar_transponder:range": "2", "seamark:radar_transponder:sequence": "15+(15)", "seamark:radar_transponder:wavelength": "0.03-X;0.10-S", "seamark:type": "platform", "source": "Kystverket"}}, {"type": "node", "id": 5326009428, "lat": 59.5736561, "lon": 2.2271047, "tags": {"note": "Lanterne", "ref:kystverket": "1097op", "seamark:light:character": "Mo", "seamark:light:colour": "red", "seamark:light:group": "U", "seamark:light:period": "15", "seamark:light:range": "3", "seamark:name": "Heimdal HMP", "seamark:platform:category": "production", "seamark:type": "platform", "source": "Kystverket"}}, {"type": "node", "id": 5326009432, "lat": 56.46419, "lon": 3.1029547, "tags": {"note": "Lanterne", "ref:kystverket": "10030", "seamark:light:character": "Mo", "seamark:light:colour": "red", "seamark:light:range": "3", "seamark:name": "Edda 2/7 C", "seamark:platform:category": "production", "seamark:type": "platform", "source": "Kystverket"}}, {"type": "node", "id": 5326009435, "lat": 57.8153179, "lon": 4.534151, "tags": {"kystverket:racon_information": "(FA) Frequency Agile", "man_made": "offshore_platform", "name": "Inspirer", "note": "Lanterne", "operator": "Repsol Norge", "ref:kystverket": "093501P", "seamark:light:1:character": "Mo", "seamark:light:1:colour": "white", "seamark:light:1:group": "K", "seamark:light:1:height": "30", "seamark:light:1:range": "10", "seamark:light:2:character": "Mo", "seamark:light:2:colour": "red", "seamark:light:2:group": "U", "seamark:light:2:height": "30", "seamark:light:2:period": "15", "seamark:light:2:range": "3", "seamark:name": "Inspirer", "seamark:platform:category": "production", "seamark:platform:vertical_length": "30", "seamark:radar_transponder:category": "racon", "seamark:radar_transponder:group": "M", "seamark:radar_transponder:height": "30", "seamark:radio_station:category": "ais", "seamark:radio_station:mmsi": "257828000", "seamark:type": "platform", "source": "Kystverket"}}, {"type": "node", "id": 5326009448, "lat": 58.844722, "lon": 1.742222, "tags": {"aeroway": "helipad", "man_made": "floating_storage", "name": "Gudrun", "note": "Lanterne", "ref:kystverket": "1118op", "seamark:light:character": "Fl", "seamark:light:colour": "red", "seamark:light:range": "3", "seamark:name": "Gudrun", "seamark:platform:category": "fpso", "seamark:platform:colour": "orange", "seamark:radio_station:category": "ais", "seamark:radio_station:mmsi": "992576016", "seamark:type": "platform", "source": "Kystverket"}}, {"type": "node", "id": 5326009449, "lat": 56.5625537, "lon": 3.0840863, "tags": {"note": "Lanterne", "ref:kystverket": "1054op", "seamark:light:character": "Fl", "seamark:light:colour": "red", "seamark:light:range": "3", "seamark:name": "West Ekofisk 2/4 D", "seamark:platform:category": "production", "seamark:type": "platform", "source": "Kystverket"}}, {"type": "node", "id": 5326009453, "lat": 58.3679271, "lon": 1.9089524, "tags": {"note": "Lanterne", "ref:kystverket": "1094op", "seamark:light:character": "Fl", "seamark:light:colour": "red", "seamark:light:group": "1", "seamark:light:period": "1", "seamark:light:range": "3", "seamark:name": "Sleipner R", "seamark:platform:category": "production", "seamark:type": "platform", "source": "Kystverket"}}, {"type": "node", "id": 5326009454, "lat": 59.8747316, "lon": 2.0600972, "tags": {"kystverket:racon_information": "(FA) Frequency Agile", "note": "Lanterne", "ref:kystverket": "1114op", "seamark:light:character": "Fl", "seamark:light:colour": "white", "seamark:light:height": "38.4", "seamark:light:period": "10", "seamark:light:range": "10", "seamark:name": "CDP1", "seamark:platform:category": "production", "seamark:platform:vertical_length": "38.4", "seamark:radar_transponder:category": "racon", "seamark:radar_transponder:group": "D", "seamark:radar_transponder:height": "38.4", "seamark:radar_transponder:wavelength": "0.03-X;0.10-S", "seamark:type": "platform", "source": "Kystverket", "wikidata": "Q3086641"}}, {"type": "node", "id": 5326009455, "lat": 59.8791448, "lon": 2.0627695, "tags": {"note": "Lanterne", "ref:kystverket": "1115op", "seamark:light:character": "Fl", "seamark:light:colour": "white", "seamark:light:height": "26.8", "seamark:light:range": "10", "seamark:name": "TP1", "seamark:platform:category": "production", "seamark:platform:vertical_length": "26.8", "seamark:type": "platform", "source": "Kystverket", "wikidata": "Q3086641"}}, {"type": "node", "id": 5326009457, "lat": 59.8794699, "lon": 2.065039, "tags": {"note": "Lanterne", "ref:kystverket": "1116op", "seamark:light:character": "Fl", "seamark:light:colour": "white", "seamark:light:group": "3", "seamark:light:height": "33.8", "seamark:light:period": "15", "seamark:light:range": "10", "seamark:name": "TCP2", "seamark:platform:category": "production", "seamark:platform:vertical_length": "33.8", "seamark:type": "platform", "source": "Kystverket", "wikidata": "Q3086641"}}, {"type": "node", "id": 5326009460, "lat": 56.3762238, "lon": 3.2642718, "tags": {"kystverket:racon_information": "Ukjent racon type", "note": "Lanterne", "ref:kystverket": "10022", "seamark:light:character": "Fl", "seamark:light:colour": "red", "seamark:light:range": "3", "seamark:name": "Eldfisk 2/7 A", "seamark:platform:category": "production", "seamark:radar_transponder:category": "racon", "seamark:radar_transponder:group": "O", "seamark:radar_transponder:period": "30", "seamark:radar_transponder:range": "2", "seamark:radar_transponder:sequence": "15+(15)", "seamark:type": "platform", "source": "Kystverket"}}, {"type": "node", "id": 5326009463, "lat": 59.1646618, "lon": 2.4857433, "tags": {"aeroway": "helipad", "man_made": "offshore_platform", "name": "Grane", "note": "Lanterne", "ref:kystverket": "1013op", "seamark:light:character": "Fl", "seamark:light:colour": "red", "seamark:light:group": "1", "seamark:light:period": "1", "seamark:light:range": "3", "seamark:name": "Grane", "seamark:platform:category": "production", "seamark:type": "platform", "source": "Kystverket"}}, {"type": "node", "id": 5326009464, "lat": 58.7127013, "lon": 1.6664895, "tags": {"note": "Lanterne", "ref:kystverket": "1007op", "seamark:light:character": "Fl", "seamark:name": "Petrojarl 1", "seamark:platform:category": "production", "seamark:type": "platform", "source": "Kystverket"}}, {"type": "node", "id": 5326009465, "lat": 56.982105, "lon": 2.9572448, "tags": {"note": "Lanterne", "ref:kystverket": "1009op", "seamark:light:character": "Fl", "seamark:light:colour": "red", "seamark:light:group": "1", "seamark:light:period": "1", "seamark:light:range": "3", "seamark:name": "Tambar", "seamark:platform:category": "production", "seamark:type": "platform", "source": "Kystverket"}}, {"type": "node", "id": 5326009469, "lat": 58.3666996, "lon": 1.9069911, "tags": {"aeroway": "helipad", "icao": "ENSL", "man_made": "offshore_platform", "name": "Sleipner A", "note": "Lanterne", "ref:kystverket": "1093op", "seamark:light:character": "Fl", "seamark:light:colour": "red", "seamark:light:group": "1", "seamark:light:period": "1", "seamark:light:range": "3", "seamark:name": "Sleipner A", "seamark:platform:category": "production", "seamark:type": "platform", "source": "Kystverket"}}, {"type": "node", "id": 5326009472, "lat": 59.5669473, "lon": 1.9967936, "tags": {"aeroway": "helipad", "comment": "is the near buoy existing? (node 5323261729)", "man_made": "floating_storage", "name": "Alvheim", "note": "Lanterne", "ref:kystverket": "1028op", "seamark:light:character": "Fl", "seamark:light:colour": "red", "seamark:light:group": "1", "seamark:light:period": "1", "seamark:light:range": "3", "seamark:name": "Alvheim", "seamark:platform:category": "fpso", "seamark:platform:colour": "blue", "seamark:radio_station:category": "ais", "seamark:radio_station:mmsi": "9170078", "seamark:type": "platform", "source": "Kystverket", "wikidata": "Q48772445", "wikipedia": "en:Alvheim FPSO"}}, {"type": "node", "id": 5326009477, "lat": 56.2757652, "lon": 3.3948377, "tags": {"note": "Lanterne", "ref:kystverket": "10068", "seamark:light:character": "Fl", "seamark:name": "Valhall 2/8 IP", "seamark:platform:category": "production", "seamark:type": "platform", "source": "Kystverket"}}, {"type": "node", "id": 5326009479, "lat": 56.4175577, "lon": 3.2179682, "tags": {"note": "Lanterne", "ref:kystverket": "1072op", "seamark:light:character": "Fl", "seamark:light:colour": "red", "seamark:light:range": "3", "seamark:platform:category": "production", "seamark:type": "platform", "source": "Kystverket"}}, {"type": "node", "id": 5326009480, "lat": 56.2776634, "lon": 3.3935649, "tags": {"note": "Lanterne", "ref:kystverket": "10002", "seamark:light:character": "Mo", "seamark:light:colour": "red", "seamark:light:range": "3", "seamark:name": "Valhall 2/8", "seamark:platform:category": "production", "seamark:type": "platform", "source": "Kystverket"}}, {"type": "node", "id": 5398346805, "lat": 53.9956865, "lon": 6.4206505, "tags": {"construction": "yes", "frequency": "0;50", "location": "platform", "man_made": "offshore_platform", "name": "DolWin Gamma", "operator": "TenneT TSO GmbH", "operator:wikidata": "Q1127569", "power": "substation", "seamark:name": "DolWin Gamma", "seamark:platform:category": "production", "seamark:type": "platform", "substation": "converter", "voltage": "600000;155000", "wikidata": "Q60173970"}}, {"type": "node", "id": 5398346954, "lat": 54.388, "lon": 6.3804, "tags": {"frequency": "0", "location": "platform", "man_made": "offshore_platform", "name": "BorWin gamma", "operator": "TenneT TSO GmbH", "power": "substation", "seamark:light:character": "Mo", "seamark:light:colour": "yellow", "seamark:light:group": "U", "seamark:light:range": "10", "seamark:name": "BORWIN GAMMA", "seamark:radar_transponder:category": "ramark", "seamark:radar_transponder:period": "8", "seamark:radar_transponder:range": "10", "seamark:radar_transponder:sequence": "U", "seamark:radio_station:category": "ais", "seamark:source": "BfS 21/18 WSA Wilhelmshaven;Dutch NtM 289/18", "seamark:type": "platform", "start_date": "2020-02", "substation": "converter", "voltage": "320000", "wikidata": "Q15789376"}}, {"type": "node", "id": 5398417100, "lat": 53.9782254, "lon": 6.9205928, "tags": {"construction": "yes", "construction:power": "substation", "frequency": "0", "man_made": "offshore_platform", "name": "DolWin Kappa", "opening_date": "2023", "seamark:name": "DolWin Kappa", "seamark:platform:category": "production", "seamark:type": "platform", "voltage": "320000"}}, {"type": "node", "id": 5401418646, "lat": 56.3326623, "lon": 3.246969, "tags": {"note": "Lanterne", "ref:kystverket": "1063op", "seamark:light:character": "Fl", "seamark:light:colour": "red", "seamark:light:range": "3", "seamark:platform:category": "production", "seamark:type": "platform", "source": "Kystverket"}}, {"type": "node", "id": 5424808557, "lat": 53.233833, "lon": 3.242167, "tags": {"seamark:name": "Allseas test", "seamark:platform:category": "research", "seamark:source": "https://english.defensie.nl/topics/notices-to-mariners/weekly-editions/2018/07 (*83/18)", "seamark:type": "platform"}}, {"type": "node", "id": 5869292673, "lat": 51.7, "lon": 3.056667, "tags": {"man_made": "offshore_platform", "monitoring:tide_gauge": "yes", "monitoring:wave_energy": "yes", "monitoring:wave_height": "yes", "monitoring:weather": "yes", "name": "220 kV Borssele Alpha", "operator": "TenneT", "operator:wikidata": "Q1127569", "power": "substation", "recording:automated": "yes", "recording:remote": "yes", "seamark:fog_signal:category": "horn", "seamark:fog_signal:group": "U", "seamark:fog_signal:period": "30", "seamark:fog_signal:sequence": "Mo", "seamark:light:character": "Mo", "seamark:light:colour": "white", "seamark:light:group": "U", "seamark:light:period": "15", "seamark:name": "Borssele Alpha", "seamark:platform:category": "production", "seamark:radio_station:category": "ais", "seamark:radio_station:mmsi": "992441014", "seamark:source": "https://english.defensie.nl/topics/notices-to-mariners/weekly-editions/2018/35 (*309/18)", "seamark:type": "platform", "start_date": "2018", "substation": "transmission", "voltage": "220000;66000", "weather:anemometer": "yes", "wikidata": "Q122976514"}}, {"type": "node", "id": 5996810908, "lat": 53.188448, "lon": 0.4906076, "tags": {"name": "Lincs Wind Farm Substation", "power": "substation", "seamark:type": "platform", "substation": "transmission", "voltage": "132000"}}, {"type": "node", "id": 5996847573, "lat": 53.6585258, "lon": 0.2528142, "tags": {"name": "Humber Gateway Offshore Substation", "power": "substation", "seamark:fog_signal:category": "horn", "seamark:light:character": "Fl", "seamark:light:colour": "yellow", "seamark:light:period": "5", "seamark:type": "platform", "substation": "transmission", "voltage": "132000"}}, {"type": "node", "id": 5996847717, "lat": 53.8044547, "lon": 0.1330602, "tags": {"name": "Westermost Rough Offshore Substation", "power": "substation", "seamark:name": "Z01", "seamark:type": "platform", "substation": "transmission", "voltage": "150000"}}, {"type": "node", "id": 6000764140, "lat": 51.6946422, "lon": 2.8172649, "tags": {"frequency": "50", "man_made": "offshore_platform", "name": "Belwind Substation", "power": "substation", "seamark:name": "Blight Bank OVHS", "seamark:platform:category": "production", "seamark:radio_station:category": "ais", "seamark:radio_station:mmsi": "2053506", "seamark:source": "https://map.openseamap.org", "seamark:type": "platform", "substation": "transmission", "voltage": "150000;33000", "wikidata": "Q123094990"}}, {"type": "node", "id": 6000766191, "lat": 51.6899917, "lon": 2.8254382, "tags": {"frequency": "50", "man_made": "offshore_platform", "name": "Nobelwind Substation", "power": "substation", "seamark:name": "Blightbank OVHS", "seamark:platform:category": "production", "seamark:radio_station:category": "ais", "seamark:radio_station:mmsi": "992051003", "seamark:source": "https://map.openseamap.org", "seamark:type": "platform", "substation": "transmission", "voltage": "220000;33000", "wikidata": "Q123084694"}}, {"type": "node", "id": 6124672387, "lat": 51.582367, "lon": 2.868583, "tags": {"frequency": "50", "man_made": "offshore_platform", "name": "OSY-OS1st", "operator": "Elia", "operator:wikidata": "Q1131131", "power": "substation", "seamark:fog_signal:category": "horn", "seamark:fog_signal:group": "U", "seamark:fog_signal:period": "30", "seamark:light:1:character": "Mo", "seamark:light:1:colour": "white", "seamark:light:1:group": "U", "seamark:light:1:height": "27", "seamark:light:1:period": "15", "seamark:light:1:range": "10", "seamark:light:2:character": "Mo", "seamark:light:2:colour": "red", "seamark:light:2:group": "U", "seamark:light:2:height": "27", "seamark:light:2:period": "15", "seamark:light:2:range": "10", "seamark:light:reference": "B 0147.9", "seamark:name": "OSY-OS1ST", "seamark:platform:category": "production", "seamark:radar_transponder:category": "racon", "seamark:radar_transponder:group": "D", "seamark:radio_station:category": "ais", "seamark:radio_station:mmsi": "992051092", "seamark:source": "\u201cMSC \u2013 Coastal Division \u2013 Flemish Hydrography\u201d.https://afdelingkust.login.kanooh.be/sites/default/files/atoms/files/baz202011_203-214.pdf (2020-11/203)", "seamark:type": "platform", "substation": "transmission", "voltage": "220000", "wikidata": "Q123082079"}}, {"type": "node", "id": 6126336185, "lat": 52.495667, "lon": 4.214667, "tags": {"seamark:fog_signal": "yes", "seamark:fog_signal:group": "U", "seamark:fog_signal:period": "30", "seamark:light:character": "Mo", "seamark:light:group": "U", "seamark:light:period": "15", "seamark:name": "Q10-A", "seamark:source": "https://english.defensie.nl/topics/notices-to-mariners/weekly-editions/2018/49(408/18 )", "seamark:type": "platform"}}, {"type": "node", "id": 6152762868, "lat": 51.5328333, "lon": 2.955, "tags": {"name": "C-Power Substation", "power": "substation", "seamark:name": "CP-OTS", "seamark:platform:category": "production", "seamark:type": "platform", "voltage": "150000;33000", "wikidata": "Q123053606"}}, {"type": "node", "id": 6273857077, "lat": 53.6274563, "lon": 0.9366097, "tags": {"name": "Hornsea 1 Compensation Substation", "note": "Reactive compensation substation", "power": "substation", "ref": "HA-Z01", "seamark:name": "HA-Z01", "seamark:radio_station:category": "ais", "seamark:radio_station:mmsi": "992351306", "seamark:type": "platform", "substation": "compensation", "voltage": "220000"}}, {"type": "node", "id": 6273857078, "lat": 53.87746, "lon": 2.1027242, "tags": {"name": "Hornsea 1 Substation 3", "power": "substation", "ref": "HA-Z13", "seamark:name": "HA-Z13", "seamark:radio_station:category": "ais", "seamark:radio_station:mmsi": "992351310", "seamark:type": "platform", "substation": "transmission", "voltage": "220000;33000"}}, {"type": "node", "id": 6273857079, "lat": 53.8778361, "lon": 1.8952606, "tags": {"name": "Hornsea 1 Substation 2", "power": "substation", "ref": "HA-Z12", "seamark:name": "HA-Z12", "seamark:radio_station:category": "ais", "seamark:radio_station:mmsi": "992351309", "seamark:type": "platform", "substation": "transmission", "voltage": "220000;33000"}}, {"type": "node", "id": 6273857080, "lat": 53.8908275, "lon": 1.7144031, "tags": {"name": "Hornsea 1 Offshore Substation", "power": "substation", "ref": "HA-Z11", "seamark:name": "HA-Z11", "seamark:radio_station:category": "ais", "seamark:radio_station:mmsi": "992351308", "seamark:type": "platform", "substation": "transmission", "voltage": "220000;33000"}}, {"type": "node", "id": 6474564947, "lat": 53.4142, "lon": 1.2725, "tags": {"seamark:fog_signal": "yes", "seamark:fog_signal:group": "U", "seamark:light:character": "Mo", "seamark:light:group": "U", "seamark:name": "Guinevere", "seamark:platform:category": "production", "seamark:radio_station:category": "ais", "seamark:radio_station:mmsi": "992351245", "seamark:type": "platform"}}, {"type": "node", "id": 6474580411, "lat": 53.404, "lon": 1.7832, "tags": {"aeroway": "helipad", "man_made": "offshore_platform", "name": "Clipper South", "seamark:light:character": "Mo", "seamark:name": "Clipper South", "seamark:platform:category": "production", "seamark:radio_station:category": "ais", "seamark:radio_station:mmsi": "992351160", "seamark:type": "platform"}}, {"type": "node", "id": 6474658895, "lat": 53.2469, "lon": 2.2958, "tags": {"seamark:name": "Europa EZ", "seamark:platform:category": "production", "seamark:radio_station:category": "ais", "seamark:radio_station:mmsi": "992351219", "seamark:type": "platform"}}, {"type": "node", "id": 6474658896, "lat": 53.2572, "lon": 1.9703, "tags": {"seamark:name": "Vulcan 2UR", "seamark:platform:category": "production", "seamark:radio_station:category": "ais", "seamark:radio_station:mmsi": "992351214", "seamark:type": "platform"}}, {"type": "node", "id": 6474658897, "lat": 53.3239, "lon": 2.2367, "tags": {"seamark:light:character": "Mo", "seamark:light:colour": "white", "seamark:light:group": "U", "seamark:light:period": "15", "seamark:light:range": "15", "seamark:name": "49/22-ZD", "seamark:platform:category": "production", "seamark:radio_station:category": "ais", "seamark:radio_station:mmsi": "992351217", "seamark:type": "platform"}}, {"type": "node", "id": 6474658898, "lat": 53.3275, "lon": 2.3622, "tags": {"seamark:name": "Victor JD", "seamark:platform:category": "production", "seamark:radio_station:category": "ais", "seamark:radio_station:mmsi": "992351216", "seamark:type": "platform"}}, {"type": "node", "id": 6474658899, "lat": 53.3861, "lon": 2.1486, "tags": {"seamark:name": "Viscount VO", "seamark:platform:category": "production", "seamark:radio_station:category": "ais", "seamark:radio_station:mmsi": "992351220", "seamark:type": "platform"}}, {"type": "node", "id": 6474658900, "lat": 53.4233, "lon": 2.3753, "tags": {"seamark:name": "Viking CD", "seamark:platform:category": "production", "seamark:radio_station:category": "ais", "seamark:radio_station:mmsi": "992351164", "seamark:type": "platform"}}, {"type": "node", "id": 6474658901, "lat": 53.4331, "lon": 2.153, "tags": {"seamark:name": "Viking ED", "seamark:platform:category": "production", "seamark:radio_station:category": "ais", "seamark:radio_station:mmsi": "992351166", "seamark:type": "platform"}}, {"type": "node", "id": 6474658902, "lat": 53.4475, "lon": 2.2547, "tags": {"seamark:name": "Viking GD", "seamark:platform:category": "production", "seamark:radio_station:category": "ais", "seamark:radio_station:mmsi": "992351167", "seamark:type": "platform"}}, {"type": "node", "id": 6474658903, "lat": 53.465, "lon": 2.0411, "tags": {"seamark:name": "Vampire OD", "seamark:platform:category": "production", "seamark:radio_station:category": "ais", "seamark:radio_station:mmsi": "992351218", "seamark:type": "platform"}}, {"type": "node", "id": 6474658904, "lat": 53.4967, "lon": 2.3245, "tags": {"seamark:name": "Viking HD", "seamark:platform:category": "production", "seamark:radio_station:category": "ais", "seamark:radio_station:mmsi": "992351168", "seamark:type": "platform"}}, {"type": "node", "id": 6474658905, "lat": 53.5281, "lon": 2.2217, "tags": {"seamark:name": "Viking KD", "seamark:platform:category": "production", "seamark:radio_station:category": "ais", "seamark:radio_station:mmsi": "992351212", "seamark:type": "platform"}}, {"type": "node", "id": 6474658906, "lat": 53.5331, "lon": 2.2547, "tags": {"seamark:name": "Viking AR", "seamark:platform:category": "production", "seamark:radio_station:category": "ais", "seamark:radio_station:mmsi": "992351215", "seamark:type": "platform"}}, {"type": "node", "id": 6476651394, "lat": 52.248505, "lon": 2.5060803, "tags": {"comment": "according to https://english.defensie.nl/topics/notices-to-mariners/weekly-editions/2021/02 (15/21) changed to the converter platform, just 102 (not 103) windmotors are build.", "man_made": "offshore_platform", "name": "EA 1 OSS", "power": "substation", "seamark:name": "EA 1 OSS", "seamark:platform:category": "production", "seamark:type": "platform", "substation": "transmission", "voltage": "220000;66000"}}, {"type": "node", "id": 6495305691, "lat": 51.2464, "lon": 2.919283, "tags": {"man_made": "offshore_platform", "name": "Nemos platform", "name:en": "Ostend Research Tower", "name:nl": "Nemos platform", "operator": "NEMOS GmbH", "seamark:fog_signal:category": "horn", "seamark:fog_signal:group": "U", "seamark:light:character": "Mo", "seamark:light:colour": "white", "seamark:light:group": "U", "seamark:light:period": "15", "seamark:light:range": "5", "seamark:name": "RT1", "seamark:platform:category": "research", "seamark:radio_station:category": "ais", "seamark:radio_station:mmsi": "992051094", "seamark:source": "https://afdelingkust.login.kanooh.be/sites/default/files/atoms/files/baz201913_186-196.pdf (2019-13/189)", "seamark:type": "platform", "source": "https://www.nemos.org/testfacilities", "start_date": "2019", "website": "https://www.nemos.org/testfacilities"}}, {"type": "node", "id": 6634849626, "lat": 54.0372283, "lon": 6.5605545, "tags": {"frequency": "50", "location": "platform", "man_made": "offshore_platform", "operator": "Merkur Offshore GmbH", "power": "substation", "rating": "300 MVA", "seamark:platform:category": "substation", "seamark:type": "platform", "start_date": "2018", "substation": "distribution", "voltage": "155000"}}, {"type": "node", "id": 6647221742, "lat": 51.726224, "lon": 2.9655, "tags": {"man_made": "offshore_platform", "name": "220 kV Borssele Beta", "operator": "TenneT", "operator:wikidata": "Q1127569", "power": "substation", "seamark:light:character": "Mo", "seamark:light:colour": "white", "seamark:light:group": "U", "seamark:light:period": "15", "seamark:name": "Borssele Beta", "seamark:platform:category": "production", "seamark:radio_station:category": "ais", "seamark:radio_station:mmsi": "992441015", "seamark:source": "https://english.defensie.nl/topics/notices-to-mariners/weekly-editions/2019/30 (*271/19)", "seamark:type": "platform", "start_date": "2019", "substation": "transmission", "voltage": "220000;66000", "wikidata": "Q122976844"}}, {"type": "node", "id": 7306201863, "lat": 53.54931, "lon": 1.07596, "tags": {"seamark:name": "PICKERILL ALPHA PLAT", "seamark:radio_station:category": "ais", "seamark:radio_station:mmsi": "992351324", "seamark:source": "https://english.defensie.nl/topics/notices-to-mariners/weekly-editions/2020/10 (91/20)", "seamark:type": "platform"}}, {"type": "node", "id": 7306201867, "lat": 54.405833, "lon": 2.816667, "tags": {"aeroway": "helipad", "man_made": "offshore_platform", "name": "D12B", "seamark:name": "D12B", "seamark:platform:category": "oil;gas", "seamark:radio_station:category": "ais", "seamark:radio_station:mmsi": "992441002", "seamark:source": "https://map.openseamap.org", "seamark:type": "platform"}}, {"type": "node", "id": 7385889449, "lat": 51.6881675, "lon": 2.7593346, "tags": {"frequency": "50", "man_made": "offshore_platform", "name": "Northwester 2 OHVS", "power": "substation", "seamark:name": "Northwester 2 OHVS", "seamark:platform:category": "production", "seamark:radio_station:category": "ais", "seamark:radio_station:mmsi": "992051096", "seamark:source": "https://map.openseamap.org", "seamark:type": "platform", "substation": "transmission", "voltage": "220000", "wikidata": "Q123081345"}}, {"type": "node", "id": 7577231520, "lat": 53.9639128, "lon": 6.5656185, "tags": {"frequency": "50", "location": "platform", "man_made": "offshore_platform", "operator": "Borkum Riffgrund I Offshore Windpark A/S GmbH & Co. OHG", "power": "substation", "seamark:platform:category": "production", "seamark:type": "platform", "start_date": "2015", "substation": "transmission", "voltage": "155000"}}, {"type": "node", "id": 7577237975, "lat": 53.957121, "lon": 6.4742087, "tags": {"frequency": "50", "location": "platform", "man_made": "offshore_platform", "operator": "Borkum Riffgrund 2 Offshore Wind Farm GmbH & Co. OHG", "power": "substation", "seamark:platform:category": "production", "seamark:type": "platform", "start_date": "2015", "substation": "distribution", "voltage": "155000"}}, {"type": "node", "id": 7700496467, "lat": 58.8422922, "lon": 2.2467481, "tags": {"description": "Morse \"U\" visual signal at each corner of lowest deck.", "seamark:light:character": "Mo", "seamark:light:colour": "white", "seamark:light:exhibition": "24h", "seamark:light:group": "U", "seamark:platform:category": "production", "seamark:type": "platform"}}, {"type": "node", "id": 7731566750, "lat": 55.5996264, "lon": 7.6227574, "tags": {"access": "private", "amenity": "cafe", "description": "Beboelsesplatform", "fvst:navnelbnr": "936812", "man_made": "offshore_platform", "name": "Poseidon", "operator": "\u00d8rsted", "ref:DK:cvr": "31849322", "ref:DK:cvr:pnummer": "1022236276"}},