{"version": 0.6, "generator": "Overpass API 0.7.61.5 4133829e", "osm3s": {"timestamp_osm_base": "2023-11-02T14:41:36Z", "copyright": "The data included in this document is from www.openstreetmap.org. The data is made available under ODbL."}, "elements": [{"type": "node", "id": 1042145920, "lat": 60.4912458, "lon": 2.8249003, "tags": {"aeroway": "helipad", "icao": "ENOA", "man_made": "offshore_platform", "name": "Oseberg A"}}, {"type": "node", "id": 1042145923, "lat": 60.6078248, "lon": 2.7739218, "tags": {"aeroway": "helipad", "icao": "ENOC", "man_made": "offshore_platform", "name": "Oseberg C", "note": "Lanterne", "ref:kystverket": "1006op", "seamark:light:character": "Mo", "seamark:light:colour": "red", "seamark:light:group": "U", "seamark:light:period": "15", "seamark:name": "Oseberg C", "seamark:platform:category": "production", "seamark:type": "platform", "source": "Kystverket"}}, {"type": "node", "id": 1042145924, "lat": 60.6451321, "lon": 3.7248112, "tags": {"aeroway": "helipad", "man_made": "offshore_platform", "name": "Troll A", "note": "Lanterne", "ref:kystverket": "1092op", "seamark:light:character": "Fl", "seamark:name": "Troll A", "seamark:platform:category": "production", "seamark:type": "platform"}}, {"type": "node", "id": 1042145925, "lat": 60.7738991, "lon": 3.50139, "tags": {"aeroway": "helipad", "man_made": "offshore_platform", "name": "Troll B", "seamark:name": "Troll B", "seamark:platform:category": "production", "seamark:type": "platform"}}, {"type": "node", "id": 1042145926, "lat": 60.8858247, "lon": 3.6097442, "tags": {"aeroway": "helipad", "man_made": "offshore_platform", "name": "Troll C Platform", "note": "Lanterne", "ref:kystverket": "1017op", "seamark:light:character": "Fl", "seamark:light:colour": "red", "seamark:light:range": "3", "seamark:name": "Troll C", "seamark:platform:category": "production", "seamark:type": "platform"}}, {"type": "node", "id": 1042145927, "lat": 60.54204, "lon": 3.045098, "tags": {"aeroway": "helipad", "icao": "ENQD", "man_made": "offshore_platform", "name": "Brage", "note": "Lanterne", "ref:kystverket": "1018op", "seamark:light:character": "Mo", "seamark:light:colour": "red", "seamark:light:group": "U", "seamark:light:period": "15", "seamark:name": "Brage", "seamark:platform:category": "production", "seamark:type": "platform"}}, {"type": "node", "id": 1208622725, "lat": 64.3528632, "lon": 7.7808744, "tags": {"man_made": "offshore_platform", "name": "Draugen", "seamark:name": "Draugen D", "seamark:platform:category": "production", "seamark:radar_transponder:category": "racon", "seamark:radar_transponder:group": "N", "seamark:type": "platform", "wikidata": "Q17767282"}}, {"type": "node", "id": 1208625034, "lat": 65.3255651, "lon": 7.3156766, "tags": {"man_made": "offshore_platform", "name": "Heidrun", "note": "Lysb\u00f8ye", "ref:kystverket": "1073op", "seamark:fog_signal:category": "horn", "seamark:fog_signal:group": "U", "seamark:fog_signal:period": "30", "seamark:light:character": "Mo", "seamark:light:colour": "white", "seamark:light:group": "U", "seamark:light:period": "15", "seamark:light:reference": "L 1935", "seamark:name": "Heidrun", "seamark:platform:category": "production", "seamark:radar_transponder:category": "racon", "seamark:radar_transponder:group": "M", "seamark:type": "platform", "wikidata": "Q11974698"}}, {"type": "node", "id": 1854085695, "lat": 61.2738, "lon": 1.59595, "tags": {"seamark:light:character": "Mo", "seamark:light:colour": "white", "seamark:light:group": "U", "seamark:light:period": "15", "seamark:light:range": "15", "seamark:name": "211/23-A", "seamark:platform:category": "production", "seamark:type": "platform"}}, {"type": "node", "id": 1854085699, "lat": 61.2760828, "lon": 0.9192575, "tags": {"name": "Tern 210/25 A Platform", "seamark:light:character": "Mo", "seamark:light:colour": "white", "seamark:light:group": "U", "seamark:light:period": "15", "seamark:light:range": "15", "seamark:name": "Tern 210/25 A", "seamark:platform:category": "production", "seamark:type": "platform"}}, {"type": "node", "id": 5326007164, "lat": 61.2144468, "lon": 2.2721526, "tags": {"man_made": "offshore_platform", "name": "Gullfaks C", "note": "Lanterne", "ref:kystverket": "10437", "seamark:light:character": "Mo", "seamark:light:colour": "red", "seamark:light:group": "U", "seamark:name": "Gullfaks C", "seamark:platform:category": "production", "seamark:type": "platform", "source": "Kystverket"}}, {"type": "node", "id": 5326007165, "lat": 61.079806, "lon": 2.4980108, "tags": {"man_made": "offshore_platform", "name": "Kvitebj\u00f8rn", "note": "Lanterne", "seamark:light:character": "Mo", "seamark:light:colour": "red", "seamark:light:group": "U", "seamark:light:period": "15", "seamark:name": "Kvitebj\u00f8rn", "seamark:platform:category": "production", "seamark:type": "platform", "source": "Kystverket"}}, {"type": "node", "id": 5326007167, "lat": 61.2024139, "lon": 2.199547, "tags": {"note": "Lanterne", "ref:kystverket": "1083op", "seamark:light:1:character": "Mo", "seamark:light:1:colour": "white", "seamark:light:1:group": "K", "seamark:light:1:range": "15", "seamark:light:2:character": "Mo", "seamark:light:2:colour": "red", "seamark:light:2:group": "U", "seamark:light:2:period": "15", "seamark:light:2:range": "3", "seamark:name": "Gullfaks B", "seamark:platform:category": "production", "seamark:type": "platform", "source": "Kystverket"}}, {"type": "node", "id": 5326007177, "lat": 61.5249483, "lon": 2.2097284, "tags": {"note": "Lanterne", "ref:kystverket": "1008op", "seamark:light:character": "Fl", "seamark:light:colour": "red", "seamark:light:range": "3", "seamark:name": "Snorre B", "seamark:platform:category": "production", "seamark:type": "platform", "source": "Kystverket"}}, {"type": "node", "id": 5326007180, "lat": 64.2706651, "lon": 7.1997692, "tags": {"man_made": "offshore_platform", "name": "Njord A", "note": "Lanterne", "ref:kystverket": "1015op", "seamark:light:character": "Fl", "seamark:name": "Njord A FPU", "seamark:platform:category": "production", "seamark:type": "platform", "source": "Kystverket"}}, {"type": "node", "id": 5326007194, "lat": 65.0641273, "lon": 6.7255802, "tags": {"note": "Lanterne", "ref:kystverket": "1076op", "seamark:light:character": "Fl", "seamark:name": "\u00c5sgard A", "seamark:platform:category": "production", "seamark:type": "platform", "wikidata": "Q4071190"}}, {"type": "node", "id": 5326007201, "lat": 61.2805512, "lon": 1.8820603, "tags": {"note": "Lanterne", "ref:kystverket": "1024op", "seamark:light:character": "Fl", "seamark:name": "Statfjord C-SPM", "seamark:platform:category": "production", "seamark:type": "platform", "source": "Kystverket"}}, {"type": "node", "id": 5326007202, "lat": 60.7816746, "lon": 2.8976434, "tags": {"note": "Lanterne", "ref:kystverket": "1090op", "seamark:light:character": "Mo", "seamark:light:colour": "red", "seamark:light:group": "U", "seamark:light:period": "15", "seamark:name": "Veslefrikk B (FPU)", "seamark:platform:category": "fpso", "seamark:type": "platform", "source": "Kystverket"}}, {"type": "node", "id": 5326007204, "lat": 61.3696614, "lon": 2.4571622, "tags": {"note": "Lanterne", "ref:kystverket": "1084op", "seamark:light:character": "Fl", "seamark:light:colour": "red", "seamark:light:range": "3", "seamark:name": "Visund FPU", "seamark:platform:category": "production", "seamark:type": "platform", "source": "Kystverket"}}, {"type": "node", "id": 5326007207, "lat": 60.4901436, "lon": 2.8272882, "tags": {"note": "Lanterne", "ref:kystverket": "1088op", "seamark:light:character": "Mo", "seamark:light:colour": "red", "seamark:light:group": "U", "seamark:light:period": "15", "seamark:name": "Oseberg D", "seamark:platform:category": "production", "seamark:type": "platform", "source": "Kystverket"}}, {"type": "node", "id": 5326007208, "lat": 60.699916, "lon": 2.932897, "tags": {"note": "Lanterne", "ref:kystverket": "1091op", "seamark:light:character": "Mo", "seamark:light:colour": "red", "seamark:light:group": "U", "seamark:light:period": "15", "seamark:name": "Oseberg \u00d8st", "seamark:platform:category": "production", "seamark:type": "platform", "source": "Kystverket"}}, {"type": "node", "id": 5326007215, "lat": 60.7822481, "lon": 2.8962276, "tags": {"note": "Lanterne", "ref:kystverket": "1089op", "seamark:light:character": "Mo", "seamark:light:colour": "red", "seamark:light:group": "U", "seamark:light:period": "15", "seamark:name": "Veslefrikk A", "seamark:platform:category": "production", "seamark:type": "platform", "source": "Kystverket"}}, {"type": "node", "id": 5326009423, "lat": 65.1310828, "lon": 6.8637226, "tags": {"note": "Lanterne", "ref:kystverket": "0174op", "seamark:light:character": "Fl", "seamark:name": "\u00c5sgard C", "seamark:platform:category": "production", "seamark:type": "platform", "wikidata": "Q4071190"}}, {"type": "node", "id": 5326009424, "lat": 65.1100842, "lon": 6.7893341, "tags": {"note": "Lanterne", "ref:kystverket": "1075op", "seamark:light:character": "Fl", "seamark:name": "\u00c5sgard B", "seamark:platform:category": "production", "seamark:type": "platform", "wikidata": "Q4071190"}}, {"type": "node", "id": 5326009431, "lat": 64.9936537, "lon": 6.549536, "tags": {"man_made": "offshore_platform", "name": "Kristin", "note": "Lanterne", "ref:kystverket": "1077op", "seamark:light:character": "Fl", "seamark:name": "Kristin Semi Platform", "seamark:platform:category": "production", "seamark:type": "platform", "wikidata": "Q3444684"}}, {"type": "node", "id": 5326009433, "lat": 66.0270589, "lon": 8.0864894, "tags": {"note": "Lanterne", "ref:kystverket": "1078op", "seamark:light:character": "Fl", "seamark:name": "Norne FPSO", "seamark:platform:category": "production", "seamark:type": "platform", "wikidata": "Q52334637"}}, {"type": "node", "id": 5326009436, "lat": 60.3896462, "lon": 2.7952644, "tags": {"note": "Lanterne", "ref:kystverket": "1085op", "seamark:light:character": "Mo", "seamark:light:colour": "red", "seamark:light:group": "U", "seamark:light:period": "15", "seamark:name": "Oseberg s\u00f8r", "seamark:platform:category": "production", "seamark:type": "platform", "source": "Kystverket"}}, {"type": "node", "id": 5326009438, "lat": 60.491343, "lon": 2.8256192, "tags": {"kystverket:racon_information": "Ukjent racon type", "note": "Lanterne", "ref:kystverket": "1086op", "seamark:light:character": "Mo", "seamark:light:colour": "red", "seamark:light:group": "U", "seamark:light:period": "15", "seamark:name": "Oseberg A", "seamark:platform:category": "production", "seamark:radar_transponder:category": "racon", "seamark:radar_transponder:group": "K", "seamark:radar_transponder:period": "30", "seamark:radar_transponder:range": "2", "seamark:radar_transponder:sequence": "15+(15)", "seamark:radar_transponder:wavelength": "0.03-X;0.10-S", "seamark:type": "platform", "source": "Kystverket"}}, {"type": "node", "id": 5326009439, "lat": 61.1756019, "lon": 2.1873981, "tags": {"note": "Lanterne", "ref:kystverket": "1082op", "seamark:light:1:character": "Fl", "seamark:light:1:colour": "white", "seamark:light:1:height": "95", "seamark:light:1:period": "10", "seamark:light:1:range": "22", "seamark:light:2:character": "Mo", "seamark:light:2:colour": "white", "seamark:light:2:group": "K", "seamark:light:2:height": "95", "seamark:light:2:period": "10", "seamark:light:2:range": "15", "seamark:light:3:character": "Mo", "seamark:light:3:colour": "red", "seamark:light:3:group": "U", "seamark:light:3:height": "95", "seamark:light:3:period": "15", "seamark:light:3:range": "3", "seamark:name": "Gullfaks A", "seamark:platform:category": "production", "seamark:type": "platform", "source": "Kystverket"}}, {"type": "node", "id": 5326009441, "lat": 61.2551784, "lon": 1.8521147, "tags": {"aeroway": "helipad", "ele": "58", "man_made": "offshore_platform", "name": "Statfjord A", "note": "Oil Rigg", "ref:kystverket": "1080op", "seamark:light:character": "Mo", "seamark:light:colour": "red", "seamark:light:range": "3", "seamark:name": "Statfjord A", "seamark:platform:category": "production", "seamark:type": "platform", "source": "Kystverket"}}, {"type": "node", "id": 5326009444, "lat": 61.2064062, "lon": 1.8288761, "tags": {"aeroway": "helipad", "man_made": "offshore_platform", "name": "Statfjord B", "note": "Lanterne", "ref:kystverket": "1079op", "seamark:light:character": "Mo", "seamark:light:colour": "red", "seamark:light:range": "3", "seamark:name": "Statfjord B", "seamark:platform:category": "production", "seamark:type": "platform", "source": "Kystverket"}}, {"type": "node", "id": 5326009447, "lat": 61.4488368, "lon": 2.1416332, "tags": {"note": "Lanterne", "ref:kystverket": "1025op", "seamark:light:character": "Fl", "seamark:light:colour": "red", "seamark:light:range": "3", "seamark:name": "Snorre A", "seamark:platform:category": "production", "seamark:type": "platform", "source": "Kystverket"}}, {"type": "node", "id": 5326009450, "lat": 61.3318907, "lon": 3.8951388, "tags": {"man_made": "offshore_platform", "name": "Gj\u00f8a", "note": "Lanterne", "ref:kystverket": "1109op", "seamark:light:character": "Fl", "seamark:light:colour": "red", "seamark:light:range": "3", "seamark:name": "Gj\u00f8a", "seamark:platform:category": "production", "seamark:type": "platform", "source": "Kystverket"}}, {"type": "node", "id": 5326009458, "lat": 61.2960789, "lon": 1.9007824, "tags": {"note": "Lanterne", "ref:kystverket": "1081op", "seamark:light:character": "Mo", "seamark:light:colour": "white", "seamark:light:range": "15", "seamark:name": "Statfjord C", "seamark:platform:category": "production", "seamark:type": "platform", "source": "Kystverket"}}, {"type": "node", "id": 5326009461, "lat": 60.7738718, "lon": 3.5014831, "tags": {"note": "Lanterne", "ref:kystverket": "1014op", "seamark:light:character": "Fl", "seamark:light:colour": "red", "seamark:light:range": "3", "seamark:name": "Troll B", "seamark:platform:category": "production", "seamark:type": "platform", "source": "Kystverket"}}, {"type": "node", "id": 5326009466, "lat": 60.4928158, "lon": 2.826554, "tags": {"note": "Lanterne", "ref:kystverket": "1087op", "seamark:light:character": "Mo", "seamark:light:colour": "red", "seamark:light:group": "U", "seamark:light:period": "15", "seamark:name": "Oseberg B", "seamark:platform:category": "production", "seamark:type": "platform", "source": "Kystverket"}}, {"type": "node", "id": 5326009470, "lat": 64.2717433, "lon": 7.2513332, "tags": {"man_made": "offshore_platform", "name": "Njord B", "note": "Lanterne", "ref:kystverket": "1016op", "seamark:light:character": "Fl", "seamark:name": "Njord B FSU", "seamark:platform:category": "production", "seamark:type": "platform", "source": "Kystverket"}}, {"type": "node", "id": 5869459266, "lat": 60.8087839, "lon": 1.7348025, "tags": {"description": "drilling & accommodation platform", "man_made": "offshore_platform", "name": "North Alwyn A", "operator": "TOTAL E&P UK", "ref": "NAA", "short_name": "Alwyn", "start_date": "1987"}}, {"type": "node", "id": 8607310538, "lat": 61.4975, "lon": 1.598056, "tags": {"aeroway": "helipad", "man_made": "offshore_platform", "name": "Magnus Don Manifold", "seamark:name": "MAGNUS DON MANIFOLD", "seamark:platform:category": "production", "seamark:radio_station:category": "ais", "seamark:radio_station:mmsi": "992356002", "seamark:source": "https://map.openseamap.org/", "seamark:type": "platform"}}, {"type": "node", "id": 8607310539, "lat": 61.667778, "lon": 1.367778, "tags": {"aeroway": "helipad", "man_made": "offshore_platform", "name": "Magnus D6", "seamark:name": "MAGNUS D9", "seamark:platform:category": "production", "seamark:radio_station:category": "ais", "seamark:radio_station:mmsi": "992356001", "seamark:source": "https://map.openseamap.org/", "seamark:type": "platform"}}, {"type": "node", "id": 8607310540, "lat": 61.651667, "lon": 1.340556, "tags": {"aeroway": "helipad", "man_made": "offshore_platform", "name": "Magnus D9", "seamark:name": "MAGNUS D9", "seamark:platform:category": "production", "seamark:radio_station:category": "ais", "seamark:radio_station:mmsi": "992356000", "seamark:source": "https://map.openseamap.org/", "seamark:type": "platform"}}, {"type": "node", "id": 8607310541, "lat": 61.619722, "lon": 1.305278, "tags": {"aeroway": "helipad", "man_made": "offshore_platform", "name": "Magnus Platform", "seamark:light:character": "Mo", "seamark:light:colour": "white", "seamark:light:group": "U", "seamark:light:period": "15", "seamark:light:range": "15", "seamark:name": "MAGNUS PLATFOROM 211/12", "seamark:platform:category": "production", "seamark:radio_station:category": "ais", "seamark:source": "https://map.openseamap.org/", "seamark:type": "platform"}}, {"type": "node", "id": 9054610718, "lat": 67.0667645, "lon": 7.0954513, "tags": {"man_made": "offshore_platform", "name": "Aasta Hansteen", "seamark:platform:category": "production", "seamark:type": "platform", "wikidata": "Q16001321"}}, {"type": "node", "id": 9054610719, "lat": 63.3856781, "lon": 5.309829, "tags": {"man_made": "offshore_platform", "name": "Ormen Lange D", "seamark:platform:category": "production", "seamark:type": "platform", "wikidata": "Q1968052"}}, {"type": "node", "id": 9054610720, "lat": 63.5727052, "lon": 5.3475945, "tags": {"man_made": "offshore_platform", "name": "Ormen Lange C", "seamark:platform:category": "production", "seamark:type": "platform", "wikidata": "Q1968052"}}, {"type": "node", "id": 9054610721, "lat": 63.5283587, "lon": 5.38536, "tags": {"man_made": "offshore_platform", "name": "Ormen Lange B", "seamark:platform:category": "production", "seamark:type": "platform", "wikidata": "Q1968052"}}, {"type": "node", "id": 9054610722, "lat": 63.4965091, "lon": 5.38536, "tags": {"man_made": "offshore_platform", "name": "Ormen Lange A", "seamark:platform:category": "production", "seamark:type": "platform", "wikidata": "Q1968052"}}, {"type": "node", "id": 9054610727, "lat": 60.497835, "lon": 2.073599, "tags": {"man_made": "offshore_platform", "name": "Martin Linge FSO", "seamark:light:character": "Mo", "seamark:light:colour": "red", "seamark:light:group": "U", "seamark:light:period": "8", "seamark:name": "Martin Linge FSO", "seamark:platform:category": "fpso", "seamark:type": "platform"}}, {"type": "node", "id": 9054610728, "lat": 60.505656, "lon": 2.013101, "tags": {"man_made": "offshore_platform", "name": "Martin Linge A", "seamark:light:character": "Mo", "seamark:light:colour": "red", "seamark:light:group": "U", "seamark:light:period": "15", "seamark:name": "Martin Linge A", "seamark:platform:category": "production", "seamark:type": "platform"}}, {"type": "node", "id": 10066693835, "lat": 61.0401734, "lon": 2.3370201, "tags": {"man_made": "offshore_platform", "name": "Valemon", "seamark:light:character": "Mo", "seamark:light:colour": "red", "seamark:light:group": "U", "seamark:light:period": "15", "seamark:name": "Valemon", "seamark:platform:category": "production", "seamark:type": "platform"}}, {"type": "node", "id": 10066693837, "lat": 61.3568667, "lon": 1.1597667, "tags": {"name": "Kestrel 211/16A Platform", "seamark:light:character": "Mo", "seamark:light:colour": "white", "seamark:light:group": "U", "seamark:light:period": "15", "seamark:light:range": "15", "seamark:name": "Kestrel 211/16A Platform", "seamark:platform:category": "production", "seamark:type": "platform"}}, {"type": "node", "id": 10066693843, "lat": 61.2401, "lon": 1.1454333, "tags": {"name": "Cormorant North 211/21-A Platform", "seamark:light:character": "Mo", "seamark:light:colour": "white", "seamark:light:group": "U", "seamark:light:period": "15", "seamark:light:range": "15", "seamark:name": "Cormorant North 211/21-A", "seamark:platform:category": "production", "seamark:type": "platform"}}, {"type": "node", "id": 10066693844, "lat": 61.2144833, "lon": 0.7536667, "tags": {"name": "Western Isles Platform", "seamark:light:character": "Mo", "seamark:light:colour": "white", "seamark:light:group": "U", "seamark:light:period": "15", "seamark:light:range": "15", "seamark:name": "Western Isles", "seamark:platform:category": "production", "seamark:type": "platform"}}, {"type": "node", "id": 10066693859, "lat": 61.36265, "lon": 1.57795, "tags": {"seamark:light:character": "Mo", "seamark:light:colour": "white", "seamark:light:group": "U", "seamark:light:period": "15", "seamark:light:range": "15", "seamark:name": "211/18-A", "seamark:platform:category": "production", "seamark:type": "platform"}}, {"type": "node", "id": 10231682086, "lat": 60.5479351, "lon": 2.7317655, "tags": {"man_made": "offshore_platform", "name": "Oseberg H", "seamark:light:character": "Mo", "seamark:light:colour": "red", "seamark:light:group": "U", "seamark:light:period": "15", "seamark:name": "Oseberg H", "seamark:platform:category": "production", "seamark:type": "platform"}}, {"type": "way", "id": 621321001, "center": {"lat": 60.8096493, "lon": 1.7329646}, "nodes": [5869459265, 5869459270, 5869459268, 5869459267, 5869459265], "tags": {"description": "production platform", "man_made": "offshore_platform", "name": "North Alwyn B", "operator": "TOTAL E&P UK", "ref": "NAB", "seamark:platform:category": "production", "seamark:type": "platform", "short_name": "Alwyn", "start_date": "1987"}}, {"type": "way", "id": 621321005, "center": {"lat": 60.808784, "lon": 1.7348025}, "nodes": [5869459274, 5869459273, 5869459272, 5869459271, 5869459274], "tags": {"seamark:platform:category": "accommodation", "seamark:type": "platform"}}]}