{"version": 0.6, "generator": "Overpass API 0.7.61.5 4133829e", "osm3s": {"timestamp_osm_base": "2023-10-31T20:31:06Z", "copyright": "The data included in this document is from www.openstreetmap.org. The data is made available under ODbL."}, "elements": [{"type": "node", "id": 1042139989, "lat": -3.116111, "lon": -45.0127792, "tags": {"aeroway": "helipad", "name": "Fazenda Santo Ant\u00f4nio", "source": "ourairports.com"}}, {"type": "node", "id": 1042141030, "lat": -1.5630386, "lon": -48.7375012, "tags": {"aeroway": "helipad", "ele": "17", "icao": "SNNA", "length": "28", "name": "Albr\u00e1s", "owner": "Albr\u00e1s - Alum\u00ednio Brasileiro S/A", "surface": "concrete", "width": "28"}}, {"type": "node", "id": 1042152185, "lat": -1.4608575, "lon": -48.4483188, "tags": {"aeroway": "helipad", "ele": "6", "icao": "SIMS", "length": "24", "name": "Heliponto Eletrobras Eletronorte", "name:en": "Eletronorte Bel\u00e9m", "owner": "Centrais El\u00e9tricas do Norte do Brasil S/A - ELETRONORTE", "surface": "concrete", "width": "24"}}, {"type": "node", "id": 2424338176, "lat": -1.3868489, "lon": -48.4752079, "tags": {"aeroway": "helipad"}}, {"type": "node", "id": 2424338177, "lat": -1.3868596, "lon": -48.4750416, "tags": {"aeroway": "helipad"}}, {"type": "node", "id": 2684821020, "lat": -3.6933118, "lon": -40.2985224, "tags": {"aeroway": "helipad", "source": "Bing"}}, {"type": "way", "id": 219828038, "center": {"lat": -9.4625202, "lon": -40.8248929}, "nodes": [2289569822, 2289569723, 2289569588, 2289569533, 2289569516, 2289569822], "tags": {"aeroway": "helipad"}}, {"type": "way", "id": 278121400, "center": {"lat": -2.3154412, "lon": -44.3709243}, "nodes": [2825511916, 2825511917, 2825511918, 2825511919, 2825511916], "tags": {"aeroway": "helipad"}}, {"type": "way", "id": 294227097, "center": {"lat": -3.8246853, "lon": -49.6761559}, "nodes": [2977943627, 2977943630, 2977943626, 2977943618, 2977943627], "tags": {"aeroway": "helipad", "name": "Mirante Barragem de Tucuru\u00ed"}}, {"type": "way", "id": 370932563, "center": {"lat": -2.3356303, "lon": -44.4177712}, "nodes": [3745953877, 3745953878, 3745953879, 3745953880, 3745953877], "tags": {"aeroway": "helipad"}}, {"type": "way", "id": 466520097, "center": {"lat": -2.4434356, "lon": -44.1302712}, "nodes": [4613013876, 4613013856, 4613013850, 2922880982, 4613013876], "tags": {"aeroway": "helipad"}}, {"type": "way", "id": 539028969, "center": {"lat": -3.6786413, "lon": -40.3319278}, "nodes": [5216501553, 5216501554, 5216501555, 5216501556, 5216501553], "tags": {"aeroway": "helipad"}}, {"type": "way", "id": 539300753, "center": {"lat": -2.4965296, "lon": -44.2794824}, "nodes": [5218729859, 5218729860, 5218729861, 5218729858, 5218729859], "tags": {"aeroway": "helipad", "ele": "27", "icao": "SWLW", "maxweight": "6.0", "name": "Grupo T\u00e1tico A\u00e9reo", "surface": "concrete"}}, {"type": "way", "id": 539300754, "center": {"lat": -2.4998304, "lon": -44.3078291}, "nodes": [5218729863, 5218729864, 5218729865, 5218729862, 5218729863], "tags": {"aeroway": "helipad", "ele": "59", "icao": "SDFL", "maxweight": "3.0", "name": "Lagoa Corporate", "surface": "concrete"}}, {"type": "way", "id": 539300755, "center": {"lat": -2.4931563, "lon": -44.2746817}, "nodes": [5218729867, 5218729868, 5218729869, 5218729866, 5218729867], "tags": {"aeroway": "helipad", "ele": "102", "icao": "SJEM", "maxweight": "3", "name": "Marcus Barbosa Empresarial Calhau", "surface": "concrete"}}, {"type": "way", "id": 563179978, "center": {"lat": -5.9709958, "lon": -40.2983563}, "nodes": [5428015435, 10108521501, 5428015434, 5428015433, 5428015432, 5428015435], "tags": {"aeroway": "helipad", "ele": "423", "icao": "SWVG", "maxweight": "3", "name": "Riacho Verde", "surface": "concrete"}}, {"type": "way", "id": 563180007, "center": {"lat": -2.5351882, "lon": -44.2998302}, "nodes": [5428015502, 5428015501, 5428015500, 5428015499, 5428015502], "tags": {"aeroway": "helipad", "ele": "19", "icao": "SICE", "maxweight": "3", "name": "Central Engenharia", "surface": "concrete"}}, {"type": "way", "id": 563180032, "center": {"lat": -5.0578273, "lon": -42.8158363}, "nodes": [5428015769, 5428015768, 5560430128, 5560430127, 5428015769], "tags": {"aeroway": "helipad", "ele": "76", "icao": "SJXL", "maxweight": "3.0", "name": "Hospital Unimed Primavera", "surface": "concrete"}}, {"type": "way", "id": 563180106, "center": {"lat": -2.5014669, "lon": -44.2913985}, "nodes": [5428016019, 5428016018, 5428016017, 5428016016, 5428016019], "tags": {"aeroway": "helipad", "ele": "70", "icao": "SWFT", "maxweight": "3.0", "name": "Office Tower", "surface": "concrete"}}, {"type": "way", "id": 563180154, "center": {"lat": -1.3385263, "lon": -48.3187278}, "nodes": [5428016187, 5428016186, 4244871504, 5428016185, 5428016187], "tags": {"aeroway": "helipad", "anac": "2008/2012", "anac:link": "http://pergamum.anac.gov.br/arquivos/PA2012-2008.pdf", "ele": "14", "icao": "SIWI", "length": "18", "maxweight": "2.0", "name": "Miriti Internacional Golfe Marina", "surface": "concrete", "width": "18"}}, {"type": "way", "id": 563180166, "center": {"lat": -2.5245234, "lon": -44.2905967}, "nodes": [5428016204, 5428016203, 5428016202, 5428016201, 5428016204], "tags": {"aeroway": "helipad", "ele": "15", "icao": "SDDF", "maxweight": "3", "name": "Difusora", "surface": "concrete"}}, {"type": "way", "id": 563180183, "center": {"lat": -2.4700379, "lon": -44.1738048}, "nodes": [5428016327, 5428016326, 5428016325, 5428016324, 5428016327], "tags": {"aeroway": "helipad", "ele": "38", "icao": "SJAY", "maxweight": "3", "name": "Alphaville Ara\u00e7agy", "surface": "concrete"}}, {"type": "way", "id": 563180204, "center": {"lat": -3.5885337, "lon": -45.0954774}, "nodes": [5428016378, 5428016377, 5428016376, 5428016375, 5428016378], "tags": {"aeroway": "helipad", "ele": "21", "icao": "SWSB", "maxweight": "3.0", "name": "Fazenda Santa B\u00e1rbara", "surface": "grass"}}, {"type": "way", "id": 563180216, "center": {"lat": -2.2330555, "lon": -48.860278}, "nodes": [5428016422, 4244871505, 5428016421, 5428016420, 5428016422], "tags": {"FIXME": "Verificar qual o local correto deste heliponto", "aeroway": "helipad", "anac": "1762/2014", "anac:link": "http://pergamum.anac.gov.br/arquivos/PA2014-1762.pdf", "ele": "15", "icao": "SSUX", "length": "19.5", "maxweight": "4.0", "name": "Usina Biopalma Moju", "owner": "Biopalma da Amaz\u00f4nia S/A Reflorestamento, Ind\u00fastria e Com\u00e9rcio", "surface": "grass", "width": "19.5"}}, {"type": "way", "id": 563180217, "center": {"lat": -1.4377024, "lon": -48.4686933}, "nodes": [5428016425, 5428016424, 5428016423, 4244871503, 5428016425], "tags": {"aeroway": "helipad", "anac": "2511/2012", "anac:link": "http://pergamum.anac.gov.br/arquivos/PA2012-2511.pdf", "ele": "53", "icao": "SSSJ", "length": "18.6", "maxweight": "4", "name": "HSM", "owner": "Diagnosis Centro de Diagn\u00f3sticos Ltda", "surface": "concrete", "width": "18.6"}}, {"type": "way", "id": 563180359, "center": {"lat": -5.362778, "lon": -49.068889}, "nodes": [5428016584, 5428016583, 5428016582, 5428016581, 5428016584], "tags": {"FIXME": "Verificar qual o local correto deste heliponto", "aeroway": "helipad", "ele": "112", "icao": "SJHL", "maxweight": "5", "name": "Helinorte", "surface": "concrete"}}, {"type": "way", "id": 563180372, "center": {"lat": -2.4777231, "lon": -44.1837268}, "nodes": [5428016616, 5428016615, 5428016614, 5428016613, 5428016616], "tags": {"aeroway": "helipad", "ele": "43", "icao": "SSIV", "maxweight": "3", "name": "Delta", "surface": "grass"}}, {"type": "way", "id": 563180404, "center": {"lat": -3.7314867, "lon": -45.2733778}, "nodes": [1042140203, 5428016711, 5428016710, 5428016709, 1042140203], "tags": {"aeroway": "helipad", "ele": "55", "icao": "SJTX", "maxweight": "3.0", "name": "Fazenda Nelore", "surface": "grass"}}, {"type": "way", "id": 563180431, "center": {"lat": -2.4908893, "lon": -44.3030588}, "nodes": [5428016914, 5428016913, 5428016912, 5428016911, 5428016914], "tags": {"aeroway": "helipad", "ele": "76", "icao": "SJIO", "maxweight": "3.0", "name": "Tech Office", "surface": "concrete"}}, {"type": "way", "id": 563180452, "center": {"lat": -2.4985949, "lon": -44.2847331}, "nodes": [5428017086, 5428017085, 5428017084, 5428017083, 5428017086], "tags": {"aeroway": "helipad", "ele": "70", "icao": "SDYY", "maxweight": "3.0", "name": "Business Center Renascen\u00e7a", "surface": "concrete"}}, {"type": "way", "id": 563180473, "center": {"lat": -2.4849853, "lon": -44.2511687}, "nodes": [5428016767, 5428016766, 5428016765, 5428016764, 5428016767], "tags": {"aeroway": "helipad", "ele": "38", "icao": "SNHA", "maxweight": "3.0", "name": "Comandante Endeel Gabriel", "surface": "concrete"}}, {"type": "way", "id": 563180488, "center": {"lat": -6.1037418, "lon": -40.2844834}, "nodes": [5428016798, 5428016797, 5428016796, 5428016795, 5428016798], "tags": {"aeroway": "helipad", "ele": "380", "icao": "SSMM", "maxweight": "3", "name": "Maca\u00e9", "surface": "concrete"}}, {"type": "way", "id": 563180507, "center": {"lat": -1.4399236, "lon": -48.4815029}, "nodes": [5428017369, 3666092113, 5428017368, 5428017367, 6485791157, 5428017369], "tags": {"aeroway": "helipad", "anac": "2066/2013", "anac:link": "http://pergamum.anac.gov.br/arquivos/PA2013-2066.pdf", "ele": "53", "icao": "SITD", "length": "19.65", "maxweight": "4.0", "name": "Funda\u00e7\u00e3o Santa Casa de Miseric\u00f3rdia do Par\u00e1", "owner": "Funda\u00e7\u00e3o Santa Casa de Miseric\u00f3rdia do Par\u00e1", "surface": "concrete", "width": "19.65"}}, {"type": "way", "id": 563180701, "center": {"lat": -1.4376088, "lon": -48.458529}, "nodes": [1042138306, 5428018098, 5428018097, 5428018096, 1042138306], "tags": {"aeroway": "helipad", "anac": "1326/2013", "anac:link": "http://pergamum.anac.gov.br/arquivos/PA2013-1326.pdf", "ele": "51", "icao": "SIBL", "length": "19.5", "maxweight": "2.0", "name": "Cl\u00ednica Porto Dias", "owner": "Hospital Porto Dias", "surface": "metal", "width": "19.5"}}, {"type": "way", "id": 563180704, "center": {"lat": -2.5203731, "lon": -44.137336}, "nodes": [5428018108, 5428018107, 5428018106, 5428018105, 5428018108], "tags": {"aeroway": "helipad", "ele": "38", "icao": "SJHR", "maxweight": "3.0", "name": "Flamboyant", "surface": "concrete"}}, {"type": "way", "id": 563180711, "center": {"lat": -7.0420128, "lon": -47.4424842}, "nodes": [5428018134, 5428018133, 5428018132, 5428018131, 5428018134], "tags": {"aeroway": "helipad", "ele": "250", "icao": "SIQP", "maxweight": "4", "name": "Pedra Ca\u00edda", "surface": "concrete"}}, {"type": "way", "id": 563180731, "center": {"lat": -3.2116532, "lon": -45.0334004}, "nodes": [5428018206, 5428018205, 5428018204, 5428018203, 5428018206], "tags": {"aeroway": "helipad", "ele": "6", "icao": "SNTH", "maxweight": "3.0", "name": "Fazenda S\u00e3o Francisco", "surface": "concrete"}}, {"type": "way", "id": 563180762, "center": {"lat": -2.6586399, "lon": -44.3012144}, "nodes": [5428018315, 5428018314, 5428018313, 5428018312, 5428018315], "tags": {"aeroway": "helipad", "ele": "28", "icao": "SJWU", "maxweight": "3", "name": "Dimens\u00e3o Ind\u00fastria", "surface": "concrete"}}, {"type": "way", "id": 563180828, "center": {"lat": -2.4893824, "lon": -44.2955501}, "nodes": [5428018597, 5428018596, 5428018595, 5428018594, 5428018597], "tags": {"aeroway": "helipad", "ele": "88", "icao": "SSWY", "maxweight": "3", "name": "Two Towers", "surface": "concrete"}}, {"type": "way", "id": 563180837, "center": {"lat": -3.6509421, "lon": -45.2028744}, "nodes": [5428018829, 5428018828, 1042140017, 5428018827, 5428018829], "tags": {"aeroway": "helipad", "ele": "35", "icao": "SJQM", "maxweight": "3.0", "name": "Fazenda Lago Azul", "surface": "grass"}}, {"type": "way", "id": 563180845, "center": {"lat": -3.2656108, "lon": -45.1818869}, "nodes": [5428018857, 5428018856, 5428018855, 5428018854, 5428018857], "tags": {"aeroway": "helipad", "ele": "15", "icao": "SSSX", "maxweight": "2", "name": "Sierra Wriskey Victor Romeu", "surface": "concrete"}}, {"type": "way", "id": 563180890, "center": {"lat": -3.101389, "lon": -45.012778}, "nodes": [5428019002, 5428019001, 5428019000, 5428018999, 5428019002], "tags": {"FIXME": "Verificar qual o local correto deste heliponto", "aeroway": "helipad", "ele": "18", "icao": "SJPZ", "maxweight": "3.0", "name": "Fazenda Santo Ant\u00f4nio", "surface": "grass"}}, {"type": "way", "id": 563180913, "center": {"lat": -2.5255136, "lon": -44.125449}, "nodes": [5428019078, 5428019077, 5428019076, 5428019075, 5428019078], "tags": {"aeroway": "helipad", "ele": "42", "icao": "SSYG", "maxweight": "4", "name": "Veja", "surface": "concrete"}}, {"type": "way", "id": 615906932, "center": {"lat": -5.0898671, "lon": -42.7920107}, "nodes": [5823732283, 5823732284, 5823732285, 5823732286, 5823732283], "tags": {"aeroway": "helipad"}}, {"type": "way", "id": 718619507, "center": {"lat": -5.3389724, "lon": -49.1071323}, "nodes": [6747885503, 6747885504, 6747885505, 6747885506, 6747885507, 6747885489, 6747885490, 6747885491, 6747885492, 6747885497, 6747885498, 6747885499, 6747885500, 6747885501, 6747885502, 6747885493, 6747885494, 6747885495, 6747885496, 6747885503], "tags": {"aeroway": "helipad"}}, {"type": "way", "id": 758713215, "center": {"lat": -3.6767484, "lon": -40.3693485}, "nodes": [7086254785, 7086254786, 7086254787, 7086254788, 7086254785], "tags": {"aeroway": "helipad"}}, {"type": "way", "id": 763356740, "center": {"lat": -6.4575131, "lon": -47.4097174}, "nodes": [7133046377, 7133046376, 7133046375, 7133046374, 7133046377], "tags": {"aeroway": "helipad"}}, {"type": "way", "id": 763356741, "center": {"lat": -6.4569867, "lon": -47.4102089}, "nodes": [7133046381, 7133046380, 7133046379, 7133046378, 7133046381], "tags": {"aeroway": "helipad"}}, {"type": "way", "id": 763356742, "center": {"lat": -6.445233, "lon": -47.4044663}, "nodes": [7133052693, 7133052692, 7133052691, 7133052690, 7133052693], "tags": {"aeroway": "helipad"}}, {"type": "way", "id": 763356743, "center": {"lat": -6.4459926, "lon": -47.404597}, "nodes": [7133052697, 7133052696, 7133052695, 7133052694, 7133052697], "tags": {"aeroway": "helipad"}}, {"type": "way", "id": 763356744, "center": {"lat": -6.4467668, "lon": -47.4047928}, "nodes": [7133052701, 7133052700, 7133052699, 7133052698, 7133052701], "tags": {"aeroway": "helipad"}}, {"type": "way", "id": 1011936183, "center": {"lat": -5.0095696, "lon": -42.7675756}, "nodes": [9336090856, 9336090857, 9336090858, 9336090859, 9336090856], "tags": {"aeroway": "helipad"}}, {"type": "way", "id": 1097295029, "center": {"lat": -1.3935613, "lon": -48.4915724}, "nodes": [10047465803, 10047465804, 10047465805, 10047465806, 10047465803], "tags": {"aeroway": "helipad"}}]}