{"version": 0.6, "generator": "Overpass API 0.7.61.5 4133829e", "osm3s": {"timestamp_osm_base": "2023-10-31T20:29:00Z", "copyright": "The data included in this document is from www.openstreetmap.org. The data is made available under ODbL."}, "elements": [{"type": "node", "id": 448817577, "lat": -22.9186104, "lon": -43.1772708, "tags": {"access": "private", "aeroway": "helipad"}}, {"type": "node", "id": 582628377, "lat": -22.7281704, "lon": -42.638898, "tags": {"aeroway": "helipad"}}, {"type": "node", "id": 614515587, "lat": -23.5673408, "lon": -46.6561191, "tags": {"aeroway": "helipad", "source": "Yahoo"}}, {"type": "node", "id": 1031945409, "lat": -25.5553084, "lon": -49.3552793, "tags": {"aeroway": "helipad", "source": "Bing;Tracksource"}}, {"type": "node", "id": 1042060069, "lat": -22.6782933, "lon": -40.6042474, "tags": {"aeroway": "helipad", "man_made": "offshore_platform", "operator": "Petrobras", "ref": "P-15", "seamark:light:character": "F", "seamark:light:colour": "red", "seamark:name": "Petrobras XV", "seamark:platform:category": "production", "seamark:type": "platform", "source": "ourairports.com"}}, {"type": "node", "id": 1042060424, "lat": -22.3572006, "lon": -40.0905991, "tags": {"aeroway": "helipad", "man_made": "offshore_platform", "operator": "Petrobras", "ref": "P-20", "seamark:light:character": "F", "seamark:light:colour": "red", "seamark:name": "Petrobras XX", "seamark:platform:category": "production", "seamark:type": "platform", "source": "ourairports.com"}}, {"type": "node", "id": 1042064679, "lat": -25.2668991, "lon": -45.2528, "tags": {"aeroway": "helipad", "man_made": "offshore_platform", "operator": "Petrobras", "ref": "PMLZ-1", "seamark:name": "Merluza", "seamark:platform:category": "production", "seamark:type": "platform", "source": "ourairports.com"}}, {"type": "node", "id": 1042136422, "lat": -22.7486234, "lon": -46.6859056, "tags": {"aeroway": "helipad", "name": "Hotel Canto da Floresta", "source": "ourairports.com"}}, {"type": "node", "id": 1042136436, "lat": -23.6319447, "lon": -46.7136116, "tags": {"aeroway": "helipad", "name": "Auxiliar I", "source": "ourairports.com"}}, {"type": "node", "id": 1042136482, "lat": -23.584708, "lon": -46.6712274, "tags": {"aeroway": "helipad", "name": "CBS", "source": "ourairports.com"}}, {"type": "node", "id": 1042136547, "lat": -23.642824, "lon": -46.5333974, "tags": {"aeroway": "helipad", "name": "Deputado Adib Chammas", "source": "ourairports.com"}}, {"type": "node", "id": 1042136560, "lat": -23.6052824, "lon": -46.7001736, "tags": {"aeroway": "helipad", "name": "Sul Am\u00e9rica Seguros", "source": "ourairports.com"}}, {"type": "node", "id": 1042136576, "lat": -23.5874996, "lon": -46.6808319, "tags": {"aeroway": "helipad", "name": "Birmann 29", "source": "ourairports.com"}}, {"type": "node", "id": 1042136594, "lat": -23.9211102, "lon": -46.2158318, "tags": {"aeroway": "helipad", "name": "Delmar", "source": "ourairports.com"}}, {"type": "node", "id": 1042136700, "lat": -23.4996631, "lon": -46.6229185, "tags": {"aeroway": "helipad", "name": "Centro Empresarial Vari", "source": "ourairports.com"}}, {"type": "node", "id": 1042136723, "lat": -23.5091765, "lon": -46.6811077, "tags": {"access": "private", "aeroway": "helipad", "lit": "yes", "name": "Heliponto VSP", "operator": "Santander Brasil S.A.", "source": "ourairports.com", "surface": "concrete"}}, {"type": "node", "id": 1042136866, "lat": -23.6269436, "lon": -46.7077789, "tags": {"aeroway": "helipad", "name": "Shering Plough", "source": "ourairports.com"}}, {"type": "node", "id": 1042136924, "lat": -22.7574997, "lon": -47.1580544, "tags": {"aeroway": "helipad", "name": "Comercial Campineira de Combust\u00edveis", "source": "http://www.ourairports.com/search?mode=geo&q=Paul%C3%ADnia#lat=-22.695120184965695,lon=-47.07984924316406,zoom=11,type=Map"}}, {"type": "node", "id": 1042137169, "lat": -21.205492, "lon": -47.8102078, "tags": {"aeroway": "helipad", "name": "Edif\u00edcio New Century", "source": "ourairports.com"}}, {"type": "node", "id": 1042137173, "lat": -23.5680561, "lon": -46.6838875, "tags": {"aeroway": "helipad", "building": "yes", "name": "Edif\u00edcio PBK"}}, {"type": "node", "id": 1042137255, "lat": -23.451559, "lon": -45.9825907, "tags": {"aeroway": "helipad", "name": "Terminal Petrobr\u00e1s - Guararema", "source": "ourairports.com"}}, {"type": "node", "id": 1042137256, "lat": -23.9166679, "lon": -48.4261093, "tags": {"aeroway": "helipad", "name": "Meira Fernandes", "source": "ourairports.com"}}, {"type": "node", "id": 1042137282, "lat": -24.0026608, "lon": -46.2993043, "tags": {"aeroway": "helipad", "name": "Nobara - Guaruj\u00e1", "source": "ourairports.com"}}, {"type": "node", "id": 1042137312, "lat": -22.4624996, "lon": -43.1305542, "tags": {"aeroway": "helipad", "name": "Samambaia", "source": "ourairports.com"}}, {"type": "node", "id": 1042137337, "lat": -22.2658329, "lon": -45.9413872, "tags": {"aeroway": "helipad", "name": "Cimed", "source": "ourairports.com"}}, {"type": "node", "id": 1042137364, "lat": -23.2071991, "lon": -46.0082161, "tags": {"aeroway": "helipad", "name": "Ambev", "source": "ourairports.com"}}, {"type": "node", "id": 1042137373, "lat": -23.4127789, "lon": -47.4255562, "tags": {"aeroway": "helipad", "name": "Pirelli Eden", "source": "ourairports.com"}}, {"type": "node", "id": 1042137378, "lat": -23.5386105, "lon": -46.6527786, "tags": {"aeroway": "helipad", "name": "Porto do Sol Hotel", "source": "ourairports.com"}}, {"type": "node", "id": 1042137394, "lat": -22.9847221, "lon": -43.2361107, "tags": {"aeroway": "helipad", "name": "Disco", "source": "ourairports.com"}}, {"type": "node", "id": 1042137467, "lat": -22.7533798, "lon": -48.519923, "tags": {"aeroway": "helipad", "name": "Fazenda Nossa Senhora da Concei\u00e7\u00e3o", "source": "ourairports.com"}}, {"type": "node", "id": 1042137487, "lat": -23.3319435, "lon": -47.8800011, "tags": {"aeroway": "helipad", "name": "Tatu\u00ed", "source": "ourairports.com"}}, {"type": "node", "id": 1042137533, "lat": -23.5848006, "lon": -46.6827362, "tags": {"aeroway": "helipad", "name": "Milennium", "source": "ourairports.com"}}, {"type": "node", "id": 1042137541, "lat": -23.5069434, "lon": -46.5973099, "tags": {"aeroway": "helipad", "source": "ourairports.com"}}, {"type": "node", "id": 1042137542, "lat": -23.54789, "lon": -46.6359832, "tags": {"aeroway": "helipad", "icao": "SDUP", "name": "Unibanco Patriarca", "source": "ourairports.com;ROTAER"}}, {"type": "node", "id": 1042137579, "lat": -23.5442079, "lon": -46.5165337, "tags": {"aeroway": "helipad", "name": "Bradesco", "source": "ourairports.com"}}, {"type": "node", "id": 1042137611, "lat": -22.386375, "lon": -42.8578437, "tags": {"aeroway": "helipad", "name": "Heliporto Le Canton", "source": "Survey"}}, {"type": "node", "id": 1042137631, "lat": -22.8611107, "lon": -43.3422203, "tags": {"aeroway": "helipad", "name": "Panco 9", "source": "ourairports.com"}}, {"type": "node", "id": 1042137649, "lat": -22.2877789, "lon": -49.0988884, "tags": {"aeroway": "helipad", "name": "Cesp", "source": "ourairports.com"}}, {"type": "node", "id": 1042137701, "lat": -22.5094433, "lon": -44.7508316, "tags": {"aeroway": "helipad", "name": "Fazenda Santa Vit\u00f3ria", "source": "ourairports.com"}}, {"type": "node", "id": 1042137721, "lat": -24.1613884, "lon": -48.3502769, "tags": {"aeroway": "helipad", "name": "Companhia de Cimento Ribeir\u00e3o Grande", "source": "ourairports.com"}}, {"type": "node", "id": 1042138325, "lat": -23.3186111, "lon": -46.3699989, "tags": {"aeroway": "helipad", "name": "Ambev - Filial Guarulhos", "source": "ourairports.com"}}, {"type": "node", "id": 1042138337, "lat": -23.495411, "lon": -46.8138214, "tags": {"aeroway": "helipad", "name": "WT Technology Park", "source": "ourairports.com"}}, {"type": "node", "id": 1042138339, "lat": -20.9819431, "lon": -47.669445, "tags": {"aeroway": "helipad", "name": "Chacar\u00e1 Recanto Tranquilo", "source": "ourairports.com"}}, {"type": "node", "id": 1042138387, "lat": -23.6227032, "lon": -46.7342512, "tags": {"aeroway": "helipad", "name": "Condom\u00ednio Edif\u00edcio Vol D'Oiseau", "source": "ourairports.com"}}, {"type": "node", "id": 1042138390, "lat": -23.5102643, "lon": -47.4585026, "tags": {"aeroway": "helipad", "name": "Conjunto Hospitalar de Sorocaba", "source": "ourairports.com"}}, {"type": "node", "id": 1042138441, "lat": -23.5730848, "lon": -46.4941365, "tags": {"aeroway": "helipad", "name": "Edif\u00edcio Comercial Lorena", "source": "ourairports.com"}}, {"type": "node", "id": 1042138452, "lat": -22.4435344, "lon": -41.8720812, "tags": {"aeroway": "helipad", "name": "P\u00e1tio de Treinamento da HSE - TRAINING", "source": "ourairports.com"}}, {"type": "node", "id": 1042138454, "lat": -22.6958366, "lon": -47.3559744, "tags": {"aeroway": "helipad", "name": "Umicore", "source": "ourairports.com"}}, {"type": "node", "id": 1042138456, "lat": -25.4351991, "lon": -49.2765574, "tags": {"aeroway": "helipad", "name": "Centro S\u00e9culo XXI", "source": "ourairports.com"}}, {"type": "node", "id": 1042138493, "lat": -22.2966671, "lon": -43.1519432, "tags": {"aeroway": "helipad", "name": "Biju", "source": "ourairports.com"}}, {"type": "node", "id": 1042138500, "lat": -20.2533321, "lon": -44.7675018, "tags": {"aeroway": "helipad", "name": "Zizinho", "source": "ourairports.com"}}, {"type": "node", "id": 1042138518, "lat": -23.6315904, "lon": -46.7113561, "tags": {"aeroway": "helipad", "name": "Meli\u00e1 Confort S\u00e3o Paulo", "source": "ourairports.com"}}, {"type": "node", "id": 1042138540, "lat": -20.8225225, "lon": -49.3898715, "tags": {"aeroway": "helipad", "icao": "SIEK", "name": "Eur\u00edpedes Mineiro de Mello", "source": "ourairports.com;ROTAER"}}, {"type": "node", "id": 1042138639, "lat": -23.6483976, "lon": -46.628038, "tags": {"aeroway": "helipad", "source": "ourairports.com"}}, {"type": "node", "id": 1042138761, "lat": -22.9978962, "lon": -43.258856, "tags": {"aeroway": "helipad", "name": "Hotel Royal-Tulip", "source": "ourairports.com"}}, {"type": "node", "id": 1042138837, "lat": -23.3799992, "lon": -46.6063881, "tags": {"aeroway": "helipad", "name": "Sui\u00e7o", "source": "ourairports.com"}}, {"type": "node", "id": 1042138915, "lat": -22.7177773, "lon": -45.5313873, "tags": {"aeroway": "helipad", "name": "Hotel Campos do Jord\u00e3o", "source": "ourairports.com"}}, {"type": "node", "id": 1042138990, "lat": -22.442778, "lon": -43.106667, "tags": {"aeroway": "helipad", "name": "Fazenda Mata Porcos", "source": "ourairports.com"}}, {"type": "node", "id": 1042139005, "lat": -22.8063889, "lon": -47.042778, "tags": {"aeroway": "helipad", "name": "Northern Telecom do Brasil Ind\u00fastria e Com\u00e9rcio LTDA", "source": "ourairports.com"}}, {"type": "node", "id": 1042139033, "lat": -23.5769444, "lon": -46.7038879, "tags": {"aeroway": "helipad", "name": "G\u00e1lia", "source": "ourairports.com"}}, {"type": "node", "id": 1042139095, "lat": -22.7096731, "lon": -47.1390868, "tags": {"aeroway": "helipad", "name": "FIC", "source": "ourairports.com"}}, {"type": "node", "id": 1042139098, "lat": -23.584444, "lon": -46.7672234, "tags": {"aeroway": "helipad", "icao": "SIMD", "name": "Reseda Office", "source": "ourairports.com;ROTAER"}}, {"type": "node", "id": 1042139131, "lat": -23.9588879, "lon": -46.306531, "tags": {"aeroway": "helipad", "name": "Codesp", "source": "ourairports.com"}}, {"type": "node", "id": 1042139135, "lat": -23.2013893, "lon": -48.9877777, "tags": {"aeroway": "helipad", "name": "Baua`s", "source": "ourairports.com"}}, {"type": "node", "id": 1042139201, "lat": -22.7686119, "lon": -47.1375008, "tags": {"aeroway": "helipad", "name": "Petrobr\u00e1s Refinaria de Paul\u00ednea Replan", "source": "ourairports.com"}}, {"type": "node", "id": 1042139217, "lat": -27.3858337, "lon": -48.5302773, "tags": {"aeroway": "helipad", "name": "Recanto das Mar\u00e9s"}}, {"type": "node", "id": 1042139224, "lat": -23.5279081, "lon": -46.7345048, "tags": {"aeroway": "helipad", "name": "Universidade Mogi das Cruzes", "source": "ourairports.com"}}, {"type": "node", "id": 1042139235, "lat": -23.5827789, "lon": -46.1688881, "tags": {"aeroway": "helipad", "name": "Chimical", "source": "ourairports.com"}}, {"type": "node", "id": 1042139294, "lat": -23.5840063, "lon": -46.6692057, "tags": {"aeroway": "helipad", "name": "Brigadeiro", "source": "ourairports.com"}}, {"type": "node", "id": 1042139363, "lat": -20.2840061, "lon": -44.1106669, "tags": {"aeroway": "helipad", "name": "Fazenda Boa Vit\u00f3ria", "source": "ourairports.com"}}, {"type": "node", "id": 1042139375, "lat": -23.5942914, "lon": -46.6918895, "tags": {"aeroway": "helipad", "name": "Funchal", "source": "ourairports.com"}}, {"type": "node", "id": 1042139425, "lat": -22.8703878, "lon": -47.1873392, "tags": {"aeroway": "helipad", "name": "BSH Continental Eletrodom\u00e9sticos Ltda.", "source": "ourairports.com"}}, {"type": "node", "id": 1042139435, "lat": -23.3333321, "lon": -46.6788902, "tags": {"aeroway": "helipad", "name": "Weril", "source": "ourairports.com"}}, {"type": "node", "id": 1042139455, "lat": -22.9211825, "lon": -43.2512268, "tags": {"aeroway": "helipad", "name": "Banco do Brasil Andara\u00ed", "source": "ourairports.com"}}, {"type": "node", "id": 1042139483, "lat": -23.3872223, "lon": -47.3302765, "tags": {"aeroway": "helipad", "name": "Sabre", "source": "ourairports.com"}}, {"type": "node", "id": 1042139497, "lat": -22.6975002, "lon": -47.5594444, "tags": {"aeroway": "helipad", "name": "Coopersucar CTC", "source": "ourairports.com"}}, {"type": "node", "id": 1042139525, "lat": -22.7486115, "lon": -47.3011093, "tags": {"aeroway": "helipad", "name": "Nauto Najar", "source": "ourairports.com"}}, {"type": "node", "id": 1042139596, "lat": -22.8683338, "lon": -42.0469437, "tags": {"aeroway": "helipad", "name": "\u00c1lvaro Gama", "source": "ourairports.com"}}, {"type": "node", "id": 1042139617, "lat": -23.5226893, "lon": -46.661666, "tags": {"aeroway": "helipad", "name": "Forum Trabalhista de 1\u00aa Inst\u00e2ncia de S\u00e3o Paulo I", "source": "ourairports.com"}}, {"type": "node", "id": 1042139631, "lat": -23.5226131, "lon": -46.6621434, "tags": {"aeroway": "helipad", "name": "Forum Trabalhista de 1\u00aa Inst\u00e2ncia de S\u00e3o Paulo II", "source": "ourairports.com"}}, {"type": "node", "id": 1042139641, "lat": -20.4741669, "lon": -44.7827797, "tags": {"aeroway": "helipad", "name": "Fazenda da Mata", "source": "ourairports.com"}}, {"type": "node", "id": 1042139644, "lat": -20.0017161, "lon": -47.8971893, "tags": {"aeroway": "helipad", "name": "CDA - Uberaba", "source": "ourairports.com"}}, {"type": "node", "id": 1042139665, "lat": -23.9183331, "lon": -46.2127762, "tags": {"aeroway": "helipad", "name": "Diplomata Empresarial S/C Ltda", "source": "ourairports.com"}}, {"type": "node", "id": 1042139707, "lat": -23.2080555, "lon": -47.480278, "tags": {"aeroway": "helipad", "name": "S\u00e3o Jo\u00e3o e S\u00e3o Marcos", "source": "ourairports.com"}}, {"type": "node", "id": 1042139723, "lat": -22.251667, "lon": -46.8002777, "tags": {"aeroway": "helipad", "name": "Fazenda MC", "source": "ourairports.com"}}, {"type": "node", "id": 1042139734, "lat": -22.2822227, "lon": -42.4952774, "tags": {"aeroway": "helipad", "name": "S\u00e3o Jos\u00e9 de Dentro", "source": "ourairports.com"}}, {"type": "node", "id": 1042139735, "lat": -25.6613884, "lon": -49.1391678, "tags": {"aeroway": "helipad", "name": "Bons Ventos", "source": "ourairports.com"}}, {"type": "node", "id": 1042139781, "lat": -22.7472229, "lon": -42.8325005, "tags": {"aeroway": "helipad", "name": "Sellix", "source": "ourairports.com"}}, {"type": "node", "id": 1042139857, "lat": -22.9705563, "lon": -47.2988892, "tags": {"aeroway": "helipad", "name": "Al\u00f4 Brasil", "source": "ourairports.com"}}, {"type": "node", "id": 1042139870, "lat": -23.0736103, "lon": -47.7275009, "tags": {"aeroway": "helipad", "name": "Frango Norte", "source": "ourairports.com"}}, {"type": "node", "id": 1042139934, "lat": -23.4530563, "lon": -47.4211121, "tags": {"aeroway": "helipad", "name": "Giannone Flavor", "source": "ourairports.com"}}, {"type": "node", "id": 1042139946, "lat": -23.7349467, "lon": -45.3428495, "tags": {"aeroway": "helipad", "name": "Praia da Arma\u00e7\u00e3o", "source": "ourairports.com"}}, {"type": "node", "id": 1042140012, "lat": -23.9897837, "lon": -46.2423452, "tags": {"aeroway": "helipad", "name": "Jomarca II", "source": "ourairports.com"}}, {"type": "node", "id": 1042140023, "lat": -25.5141678, "lon": -48.4991684, "tags": {"aeroway": "helipad", "name": "Unidade Administrativa Conjunta do IAP/BPAMB", "source": "ourairports.com"}}, {"type": "node", "id": 1042140032, "lat": -22.3342853, "lon": -44.9044759, "tags": {"aeroway": "helipad", "name": "Mantiqueira", "source": "ourairports.com"}}, {"type": "node", "id": 1042140131, "lat": -23.0071654, "lon": -44.032051, "tags": {"aeroway": "helipad", "name": "Ilha Gua\u00edba", "source": "ourairports.com"}}, {"type": "node", "id": 1042140187, "lat": -23.5538883, "lon": -46.6627769, "tags": {"aeroway": "helipad", "name": "Ang\u00e9lica IV", "source": "ourairports.com"}}, {"type": "node", "id": 1042140305, "lat": -23.5177247, "lon": -46.627559, "tags": {"aeroway": "helipad", "name": "A Universal", "source": "ourairports.com + fixed with bing"}}, {"type": "node", "id": 1042140354, "lat": -23.1255569, "lon": -47.708889, "tags": {"aeroway": "helipad", "name": "Ch\u00e1cara da Capela", "source": "ourairports.com"}}, {"type": "node", "id": 1042140355, "lat": -21.9183331, "lon": -42.2597237, "tags": {"aeroway": "helipad", "name": "Cimento Rio Negro-Cantagalo", "source": "ourairports.com"}}, {"type": "node", "id": 1042140418, "lat": -22.6836109, "lon": -42.3697205, "tags": {"aeroway": "helipad", "name": "Sinal Construtora", "source": "ourairports.com"}}, {"type": "node", "id": 1042140521, "lat": -22.9208336, "lon": -42.4775009, "tags": {"aeroway": "helipad", "name": "Caraguat\u00e1", "source": "ourairports.com"}}, {"type": "node", "id": 1042140847, "lat": -23.181944, "lon": -47.559444, "tags": {"aeroway": "helipad", "name": "Boa Vista", "source": "ourairports.com"}}, {"type": "node", "id": 1042141021, "lat": -22.9944439, "lon": -46.3908348, "tags": {"aeroway": "helipad", "name": "Santa F\u00e9", "source": "ourairports.com"}}, {"type": "node", "id": 1042141053, "lat": -22.597003, "lon": -46.8538445, "tags": {"aeroway": "helipad", "name": "Fazenda Sesmaria", "source": "ourairports.com"}}, {"type": "node", "id": 1042141086, "lat": -22.3133335, "lon": -48.0188904, "tags": {"aeroway": "helipad", "name": "Fazenda Salto de Bota", "source": "ourairports.com"}}, {"type": "node", "id": 1042141135, "lat": -23.5891666, "lon": -46.7041664, "tags": {"aeroway": "helipad", "name": "Resid\u00eancia Papaiz", "source": "ourairports.com"}}, {"type": "node", "id": 1042141150, "lat": -22.8125, "lon": -47.2075005, "tags": {"aeroway": "helipad", "name": "Copra", "source": "ourairports.com"}}, {"type": "node", "id": 1042141189, "lat": -27.0069873, "lon": -48.6070903, "tags": {"aeroway": "helipad", "name": "Esplanada das Marinas"}}, {"type": "node", "id": 1042141204, "lat": -21.2189142, "lon": -47.8049585, "tags": {"aeroway": "helipad", "icao": "SSGD", "name": "Pereira Alvim", "source": "ourairports.com;ROTAER"}}, {"type": "node", "id": 1042141220, "lat": -22.8252987, "lon": -43.3474174, "tags": {"access": "private", "aeroway": "helipad", "height": "31", "icao": "SSHP", "name": "Hospital Municipal Ronaldo Gazolla", "note": "VFR Diurna/Noturna", "source": "http://www.anac.gov.br/"}}, {"type": "node", "id": 1042141273, "lat": -25.3744431, "lon": -49.2283325, "tags": {"aeroway": "helipad", "name": "Pol\u00edcia Federal Curitiba", "source": "ourairports.com"}}, {"type": "node", "id": 1042141337, "lat": -23.5456149, "lon": -46.63383, "tags": {"aeroway": "helipad", "icao": "SSQG", "source": "ourairports.com;ROTAER"}}, {"type": "node", "id": 1042141353, "lat": -23.5727344, "lon": -46.703353, "tags": {"aeroway": "helipad", "source": "ourairports.com"}}, {"type": "node", "id": 1042141359, "lat": -23.5058917, "lon": -46.854227, "tags": {"aeroway": "helipad", "name": "Viaoeste - Castelo III", "source": "ourairports.com"}}, {"type": "node", "id": 1042141363, "lat": -20.900699, "lon": -43.8216855, "tags": {"aeroway": "helipad", "name": "Pedra do Sino", "source": "ourairports.com"}}, {"type": "node", "id": 1042141381, "lat": -23.6488895, "lon": -46.7294426, "tags": {"aeroway": "helipad", "name": "Centro Empresarial de S\u00e3o Paulo", "source": "ourairports.com"}}, {"type": "node", "id": 1042141402, "lat": -21.5973721, "lon": -45.4381175, "tags": {"aeroway": "helipad", "name": "Bom dia Caf\u00e9", "source": "ourairports.com"}}, {"type": "node", "id": 1042141406, "lat": -21.9511108, "lon": -42.8988876, "tags": {"aeroway": "helipad", "name": "Fazenda Cachoeir\u00e3o", "source": "ourairports.com"}}, {"type": "node", "id": 1042141412, "lat": -21.460556, "lon": -42.6980553, "tags": {"aeroway": "helipad", "name": "Da Aurora", "source": "ourairports.com"}}, {"type": "node", "id": 1042141448, "lat": -21.7812109, "lon": -46.5565083, "tags": {"aeroway": "helipad", "name": "Laguna", "source": "ourairports.com"}}, {"type": "node", "id": 1042141457, "lat": -23.157222, "lon": -46.320833, "tags": {"FIXME": "Seems wrong. It's in the middle of rural nothingness", "aeroway": "helipad", "name": "Escas-Ip\u00ea", "source": "ourairports.com"}}, {"type": "node", "id": 1042141498, "lat": -23.6013641, "lon": -46.6613282, "tags": {"aeroway": "helipad", "name": "Hospital Alvorada", "source": "ourairports.com"}}, {"type": "node", "id": 1042141574, "lat": -22.6728131, "lon": -43.2841795, "tags": {"aeroway": "helipad", "operator": "Hospital Estadual Ad\u00e3o Pereira Nunes", "source": "ourairports.com"}}, {"type": "node", "id": 1042141610, "lat": -23.6320808, "lon": -46.6952234, "tags": {"aeroway": "helipad", "source": "ourairports.com"}}, {"type": "node", "id": 1042141639, "lat": -23.2753287, "lon": -46.2519104, "tags": {"aeroway": "helipad", "name": "Ch\u00e1cara Messias", "source": "ourairports.com"}}, {"type": "node", "id": 1042151513, "lat": -23.709444, "lon": -47.4255562, "tags": {"aeroway": "helipad", "name": "Jimenez", "source": "ourairports.com"}}, {"type": "node", "id": 1042151526, "lat": -23.5961113, "lon": -46.6852798, "tags": {"aeroway": "helipad", "name": "Business Center", "source": "ourairports.com"}}, {"type": "node", "id": 1042151535, "lat": -23.5448041, "lon": -46.6354688, "tags": {"aeroway": "helipad", "name": "Banco de Boston", "source": "ourairports.com"}}, {"type": "node", "id": 1042151538, "lat": -23.8877773, "lon": -46.4277763, "tags": {"aeroway": "helipad", "name": "Refinaria Presidente Bernardes", "source": "ourairports.com"}}, {"type": "node", "id": 1042151570, "lat": -22.6588898, "lon": -44.4655571, "tags": {"aeroway": "helipad", "name": "Fazenda Guanabara", "source": "ourairports.com"}}, {"type": "node", "id": 1042151624, "lat": -23.5938651, "lon": -46.68844, "tags": {"aeroway": "helipad", "name": "Edif\u00edcio S\u00e3o Paulo Trade Building", "source": "ourairports.com"}}, {"type": "node", "id": 1042151700, "lat": -23.3563881, "lon": -46.2799988, "tags": {"aeroway": "helipad", "name": "Pedreira Sargon", "source": "ourairports.com"}}, {"type": "node", "id": 1042151746, "lat": -23.1474991, "lon": -48.4952774, "tags": {"aeroway": "helipad", "name": "Dimep", "source": "ourairports.com"}}, {"type": "node", "id": 1042152087, "lat": -21.7414292, "lon": -41.3121099, "tags": {"aeroway": "helipad", "lit": "yes", "name": "Heliponto HGG - Hospital Geral de Guarus", "operator": "Prefeitura Municipal de Campos dos Goytacazes", "source": "ourairports.com"}}, {"type": "node", "id": 1042152101, "lat": -23.3775005, "lon": -46.6252785, "tags": {"aeroway": "helipad", "name": "Cantareira", "source": "ourairports.com"}}, {"type": "node", "id": 1042152130, "lat": -21.0080566, "lon": -47.6586113, "tags": {"aeroway": "helipad", "name": "Gota Dourada", "source": "ourairports.com"}}, {"type": "node", "id": 1042152140, "lat": -23.2838898, "lon": -47.2661095, "tags": {"aeroway": "helipad", "name": "Kia", "source": "ourairports.com"}}, {"type": "node", "id": 1042152142, "lat": -22.521383, "lon": -44.1300235, "tags": {"aeroway": "helipad", "source": "ourairports.com"}}, {"type": "node", "id": 1042152180, "lat": -22.2186489, "lon": -45.9168981, "tags": {"aeroway": "helipad", "name": "Marques Plaza Hotel", "source": "ourairports.com"}}, {"type": "node", "id": 1042152229, "lat": -23.4877777, "lon": -46.4383316, "tags": {"aeroway": "helipad", "name": "Jomarca", "source": "ourairports.com"}}, {"type": "node", "id": 1042152248, "lat": -23.0559512, "lon": -47.0791781, "tags": {"aeroway": "helipad", "name": "Fazenda Sant`Anna da Grama", "source": "ourairports.com"}}, {"type": "node", "id": 1042152467, "lat": -21.9447202, "lon": -45.6189127, "tags": {"aeroway": "helipad", "name": "Moinho II", "source": "ourairports.com"}}, {"type": "node", "id": 1052987058, "lat": -23.5868611, "lon": -46.5685901, "tags": {"aeroway": "helipad", "name": "Crematorio Vila Alpina"}}, {"type": "node", "id": 1063090981, "lat": -22.8938184, "lon": -43.2449682, "tags": {"aeroway": "helipad", "source": "Bing"}}, {"type": "node", "id": 1064099594, "lat": -22.9003746, "lon": -47.0778965, "tags": {"aeroway": "helipad"}}, {"type": "node", "id": 1102522264, "lat": -22.8098016, "lon": -43.2098181, "tags": {"access": "private", "aeroway": "helipad", "name": "Auto Via\u00e7\u00e3o Regina's Owner"}}, {"type": "node", "id": 1105716367, "lat": -22.8985578, "lon": -43.1755776, "tags": {"aeroway": "helipad", "source": "Bing"}}, {"type": "node", "id": 1376846331, "lat": -23.3176667, "lon": -41.2595, "tags": {"aeroway": "helipad", "man_made": "floating_storage", "operator": "Statoil", "production": "yes", "seamark:name": "FPSO Maersk Peregrino", "seamark:platform:category": "fpso", "seamark:type": "platform", "storage": "yes"}}, {"type": "node", "id": 1376846333, "lat": -23.3338333, "lon": -41.298, "tags": {"aeroway": "helipad", "man_made": "offshore_platform", "operator": "Statoil", "seamark:name": "Peregrino A", "seamark:platform:category": "production", "seamark:type": "platform", "type": "oil"}}, {"type": "node", "id": 1376846334, "lat": -23.2935, "lon": -41.2075, "tags": {"aeroway": "helipad", "man_made": "offshore_platform", "operator": "Statoil", "seamark:name": "Peregrino B", "seamark:platform:category": "production", "seamark:type": "platform", "type": "oil"}}, {"type": "node", "id": 1383421898, "lat": -23.649118, "lon": -46.6280281, "tags": {"aeroway": "helipad", "source": "ourairports.com"}}, {"type": "node", "id": 1393378089, "lat": -23.5746045, "lon": -46.6558103, "tags": {"aeroway": "helipad"}}, {"type": "node", "id": 1397985670, "lat": -23.6198421, "lon": -46.6470198, "tags": {"aeroway": "helipad"}}, {"type": "node", "id": 1405865396, "lat": -22.7182441, "lon": -47.0151549, "tags": {"aeroway": "helipad"}}, {"type": "node", "id": 1420569988, "lat": -25.543, "lon": -42.8411667, "tags": {"aeroway": "helipad", "man_made": "floating_storage", "production": "yes", "seamark:name": "FPSO Cidade de Angra dos Reis", "seamark:platform:category": "fpso", "seamark:type": "platform", "storage": "yes"}}, {"type": "node", "id": 1420569989, "lat": -24.3018333, "lon": -42.713, "tags": {"aeroway": "helipad", "man_made": "floating_storage", "production": "yes", "seamark:name": "FPSO Cidade de Santos", "seamark:platform:category": "fpso", "seamark:type": "platform", "storage": "yes"}}, {"type": "node", "id": 1420569993, "lat": -25.4125, "lon": -42.7445, "tags": {"aeroway": "helipad", "man_made": "floating_storage", "production": "yes", "seamark:name": "FPSO Cidade de S\u00e3o Vicente", "seamark:platform:category": "fpso", "seamark:type": "platform", "storage": "yes"}}, {"type": "node", "id": 1420570000, "lat": -22.650287, "lon": -40.426403, "tags": {"aeroway": "helipad", "man_made": "floating_storage", "operator": "Petrobras/Shell", "production": "yes", "seamark:light:character": "F", "seamark:light:colour": "red", "seamark:name": "FPSO Fluminense", "seamark:platform:category": "fpso", "seamark:type": "platform", "storage": "yes"}}, {"type": "node", "id": 1420570003, "lat": -22.540742, "lon": -40.020221, "tags": {"aeroway": "helipad", "man_made": "floating_storage", "operator": "Petrobras", "production": "yes", "seamark:light:character": "F", "seamark:light:colour": "red", "seamark:name": "FPSO Marlim Sul", "seamark:platform:category": "fpso", "seamark:type": "platform", "storage": "yes"}}, {"type": "node", "id": 1420570005, "lat": -22.6988297, "lon": -40.8466759, "tags": {"aeroway": "helipad", "man_made": "floating_storage", "operator": "Petrobras", "production": "yes", "seamark:name": "FPSO Petrojarl Cidade de Rio das Ostras", "seamark:platform:category": "fpso", "seamark:type": "platform", "storage": "yes"}}, {"type": "node", "id": 1420570007, "lat": -23.0831667, "lon": -40.995, "tags": {"aeroway": "helipad", "man_made": "floating_storage", "production": "yes", "seamark:name": "FPSO Polvo A", "seamark:platform:category": "fpso", "seamark:type": "platform", "storage": "yes"}}, {"type": "node", "id": 1420570008, "lat": -22.859325, "lon": -40.357602, "tags": {"aeroway": "helipad", "man_made": "floating_storage", "operator": "Petrobras", "production": "yes", "seamark:light:character": "F", "seamark:light:colour": "red", "seamark:name": "FPSO Rio de Janeiro", "seamark:platform:category": "fpso", "seamark:type": "platform", "storage": "yes"}}, {"type": "node", "id": 1420570012, "lat": -26.4375, "lon": -46.5411667, "tags": {"aeroway": "helipad", "man_made": "floating_storage", "seamark:name": "FSO Avar\u00e9", "seamark:platform:category": "fpso", "seamark:type": "platform", "storage": "yes"}}, {"type": "node", "id": 1420570014, "lat": -22.1561667, "lon": -40.1466667, "tags": {"aeroway": "helipad", "man_made": "floating_storage", "operator": "Petrobras", "seamark:light:character": "F", "seamark:light:colour": "red", "seamark:name": "FSO Cidade de Maca\u00e9", "seamark:platform:category": "fpso", "seamark:type": "platform", "storage": "yes"}}, {"type": "node", "id": 1420570016, "lat": -22.438101, "lon": -40.423939, "tags": {"aeroway": "helipad", "man_made": "offshore_platform", "operator": "Petrobras", "ref": "PNA-1", "seamark:light:character": "F", "seamark:light:colour": "red", "seamark:name": "Namorado 1", "seamark:platform:category": "production", "seamark:type": "platform"}}, {"type": "node", "id": 1420570017, "lat": -22.449952, "lon": -40.411312, "tags": {"aeroway": "helipad", "man_made": "offshore_platform", "operator": "Petrobras", "ref": "PNA-2", "seamark:light:character": "F", "seamark:light:colour": "red", "seamark:name": "Namorado 2", "seamark:platform:category": "production", "seamark:type": "platform"}}, {"type": "node", "id": 1420570018, "lat": -22.798061, "lon": -40.761381, "tags": {"aeroway": "helipad", "man_made": "offshore_platform", "operator": "Petrobras", "ref": "PPM-1", "seamark:light:character": "F", "seamark:light:colour": "red", "seamark:name": "Pampo", "seamark:platform:category": "production", "seamark:type": "platform"}}, {"type": "node", "id": 1420570028, "lat": -22.760533, "lon": -40.682923, "tags": {"aeroway": "helipad", "man_made": "offshore_platform", "operator": "Petrobras", "ref": "P-07", "seamark:light:character": "F", "seamark:light:colour": "red", "seamark:name": "Petrobras VII", "seamark:platform:category": "production", "seamark:type": "platform"}}, {"type": "node", "id": 1420570030, "lat": -22.672393, "lon": -40.545661, "tags": {"aeroway": "helipad", "man_made": "offshore_platform", "operator": "Petrobras", "ref": "P-08", "seamark:light:character": "F", "seamark:light:colour": "red", "seamark:name": "Petrobras VIII", "seamark:platform:category": "production", "seamark:type": "platform"}}, {"type": "node", "id": 1420570031, "lat": -22.759609, "lon": -40.815575, "tags": {"aeroway": "helipad", "man_made": "offshore_platform", "operator": "Petrobras", "ref": "P-12", "seamark:light:character": "F", "seamark:light:colour": "red", "seamark:name": "Petrobras XII", "seamark:platform:category": "production", "seamark:type": "platform"}}, {"type": "node", "id": 1420570033, "lat": -22.347889, "lon": -40.239924, "tags": {"aeroway": "helipad", "man_made": "offshore_platform", "operator": "Petrobras", "ref": "P-32", "seamark:light:character": "F", "seamark:light:colour": "red", "seamark:name": "Petrobras XXXII", "seamark:platform:category": "production", "seamark:type": "platform"}}, {"type": "node", "id": 1420570038, "lat": -22.159856, "lon": -40.278006, "tags": {"aeroway": "helipad", "man_made": "offshore_platform", "operator": "Petrobras", "ref": "PVM-1", "seamark:light:character": "F", "seamark:light:colour": "red", "seamark:name": "Vernelho 3", "seamark:platform:category": "production", "seamark:type": "platform"}}, {"type": "node", "id": 1420570039, "lat": -22.171499, "lon": -40.12204, "tags": {"aeroway": "helipad", "man_made": "offshore_platform", "operator": "Petrobras", "ref": "PRA-1", "seamark:light:character": "F", "seamark:light:colour": "red", "seamark:name": "Plataforma de Rebombeamento Antonimo", "seamark:platform:category": "production", "seamark:type": "platform"}}, {"type": "node", "id": 1420570041, "lat": -22.175287, "lon": -40.29071, "tags": {"aeroway": "helipad", "man_made": "offshore_platform", "operator": "Petrobras", "ref": "PVM-2", "seamark:light:character": "F", "seamark:light:colour": "red", "seamark:name": "Vernelho 2", "seamark:platform:category": "production", "seamark:type": "platform"}}, {"type": "node", "id": 1420570043, "lat": -22.189894, "lon": -40.302309, "tags": {"aeroway": "helipad", "man_made": "offshore_platform", "operator": "Petrobras", "ref": "PVM-3", "seamark:light:character": "F", "seamark:light:colour": "red", "seamark:name": "Vermelho 3", "seamark:platform:category": "production", "seamark:type": "platform"}}, {"type": "node", "id": 1420570044, "lat": -22.25515, "lon": -40.328668, "tags": {"aeroway": "helipad", "man_made": "offshore_platform", "operator": "Petrobras", "ref": "PPG-1A", "seamark:light:character": "F", "seamark:light:colour": "red", "seamark:name": "Pargo 1A", "seamark:platform:category": "production", "seamark:type": "platform"}}, {"type": "node", "id": 1420570048, "lat": -22.373627, "lon": -40.417044, "tags": {"aeroway": "helipad", "man_made": "offshore_platform", "operator": "Petrobras", "ref": "PGP-1", "seamark:light:character": "F", "seamark:light:colour": "red", "seamark:name": "Garoupa 1", "seamark:platform:category": "production", "seamark:type": "platform"}}, {"type": "node", "id": 1420570049, "lat": -22.432623, "lon": -40.480272, "tags": {"aeroway": "helipad", "man_made": "offshore_platform", "operator": "Petrobras", "ref": "PCH-1", "seamark:light:character": "F", "seamark:light:colour": "red", "seamark:name": "Cherne 1", "seamark:platform:category": "production", "seamark:type": "platform"}}, {"type": "node", "id": 1420570050, "lat": -22.465574, "lon": -40.468527, "tags": {"aeroway": "helipad", "man_made": "offshore_platform", "operator": "Petrobras", "ref": "PCH-2", "seamark:light:character": "F", "seamark:light:colour": "red", "seamark:name": "Cherne 2", "seamark:platform:category": "production", "seamark:type": "platform"}}, {"type": "node", "id": 1420570058, "lat": -22.70923, "lon": -40.693259, "tags": {"aeroway": "helipad", "man_made": "offshore_platform", "operator": "Petrobras", "ref": "PCE-1", "seamark:light:character": "F", "seamark:light:colour": "red", "seamark:name": "Enchova 1", "seamark:platform:category": "production", "seamark:type": "platform"}}, {"type": "node", "id": 1570460233, "lat": -27.6627407, "lon": -48.5496001, "tags": {"aeroway": "helipad"}}, {"type": "node", "id": 1570460234, "lat": -27.6628695, "lon": -48.5497144, "tags": {"aeroway": "helipad"}}, {"type": "node", "id": 1570460235, "lat": -27.6629892, "lon": -48.5498132, "tags": {"aeroway": "helipad"}}, {"type": "node", "id": 1570460236, "lat": -27.6631089, "lon": -48.5499015, "tags": {"aeroway": "helipad"}}, {"type": "node", "id": 1648160258, "lat": -20.6399059, "lon": -40.5319947, "tags": {"aeroway": "helipad"}}, {"type": "node", "id": 1650284059, "lat": -23.1586829, "lon": -45.7920216, "tags": {"aeroway": "helipad"}}, {"type": "node", "id": 1663796143, "lat": -21.2602636, "lon": -40.0172468, "tags": {"aeroway": "helipad", "man_made": "floating_storage", "operator": "Petrobras", "production": "yes", "seamark:name": "Petrobras 34", "seamark:platform:category": "fpso", "seamark:type": "platform", "storage": "yes"}}, {"type": "node", "id": 1663796287, "lat": -21.2400095, "lon": -40.0480789, "tags": {"aeroway": "helipad", "man_made": "floating_storage", "operator": "Petrobras", "production": "yes", "seamark:name": "Petrobras 57", "seamark:platform:category": "fpso", "seamark:type": "platform", "storage": "yes"}}, {"type": "node", "id": 1726255394, "lat": -23.53685, "lon": -41.4366833, "tags": {"aeroway": "helipad", "man_made": "floating_storage", "offloading": "yes", "operator": "OGX", "production": "yes", "seamark:name": "OSX 1", "seamark:platform:category": "fpso", "seamark:type": "platform", "storage": "yes"}}, {"type": "node", "id": 1726997033, "lat": -22.2450864, "lon": -40.4430322, "tags": {"aeroway": "helipad", "man_made": "offshore_platform", "operator": "Petrobras", "ref": "PCP-1", "seamark:light:character": "F", "seamark:light:colour": "red", "seamark:name": "Carapeba 1", "seamark:platform:category": "production", "seamark:type": "platform"}}, {"type": "node", "id": 1726997358, "lat": -22.2335794, "lon": -40.415245, "tags": {"aeroway": "helipad", "man_made": "offshore_platform", "operator": "Petrobras", "ref": "PCP-2", "seamark:light:character": "F", "seamark:light:colour": "red", "seamark:name": "Carapeba 2", "seamark:platform:category": "production", "seamark:type": "platform"}}, {"type": "node", "id": 1726997575, "lat": -22.2449661, "lon": -40.4423422, "tags": {"aeroway": "helipad", "man_made": "offshore_platform", "operator": "Petrobras", "ref": "PCP-3", "seamark:light:character": "F", "seamark:light:colour": "red", "seamark:name": "Carapeba 3", "seamark:platform:category": "production", "seamark:type": "platform"}}, {"type": "node", "id": 1726998113, "lat": -24.3531581, "lon": -44.3828136, "tags": {"aeroway": "helipad", "man_made": "offshore_platform", "operator": "Petrobras", "ref": "PMXL-1", "seamark:name": "Mexilh\u00e3o", "seamark:platform:category": "production", "seamark:type": "platform"}}, {"type": "node", "id": 1726998240, "lat": -22.2559197, "lon": -40.3293025, "tags": {"aeroway": "helipad", "man_made": "offshore_platform", "operator": "Petrobras", "ref": "PPG-1B", "seamark:light:character": "F", "seamark:light:colour": "red", "seamark:name": "Pargo 1B", "seamark:platform:category": "production", "seamark:type": "platform"}}, {"type": "node", "id": 1726998418, "lat": -22.4283958, "lon": -40.028365, "tags": {"aeroway": "helipad", "man_made": "offshore_platform", "operator": "Petrobras", "ref": "P-18", "seamark:light:character": "F", "seamark:light:colour": "red", "seamark:name": "Petrobras 18", "seamark:platform:category": "production", "seamark:type": "platform"}}, {"type": "node", "id": 1726998561, "lat": -22.3926989, "lon": -40.0547472, "tags": {"aeroway": "helipad", "man_made": "offshore_platform", "operator": "Petrobras", "ref": "P-19", "seamark:light:character": "F", "seamark:light:colour": "red", "seamark:name": "Petrobras 19", "seamark:platform:category": "production", "seamark:type": "platform"}}, {"type": "node", "id": 1726998682, "lat": -22.4686894, "lon": -40.0287789, "tags": {"aeroway": "helipad", "man_made": "offshore_platform", "operator": "Petrobras", "ref": "P-26", "seamark:light:character": "F", "seamark:light:colour": "red", "seamark:name": "Petrobras 26", "seamark:platform:category": "production", "seamark:type": "platform"}}, {"type": "node", "id": 1726998837, "lat": -22.3807508, "lon": -40.1459772, "tags": {"aeroway": "helipad", "man_made": "offshore_platform", "operator": "Petrobras", "ref": "P-27", "seamark:light:character": "F", "seamark:light:colour": "red", "seamark:name": "Petrobras 27", "seamark:platform:category": "production", "seamark:type": "platform"}}, {"type": "node", "id": 1726998987, "lat": -22.3722561, "lon": -40.0253783, "tags": {"aeroway": "helipad", "man_made": "floating_storage", "operator": "Petrobras", "production": "yes", "ref": "P-33", "seamark:light:character": "F", "seamark:light:colour": "red", "seamark:name": "Petrobras 33", "seamark:platform:category": "fpso", "seamark:type": "platform", "storage": "yes"}}, {"type": "node", "id": 1726999073, "lat": -22.437035, "lon": -40.0681611, "tags": {"aeroway": "helipad", "man_made": "floating_storage", "operator": "Petrobras", "production": "yes", "ref": "P-35", "seamark:light:character": "F", "seamark:light:colour": "red", "seamark:name": "Petrobras 35", "seamark:platform:category": "fpso", "seamark:type": "platform", "storage": "yes"}}, {"type": "node", "id": 1726999146, "lat": -22.4852294, "lon": -40.0958831, "tags": {"aeroway": "helipad", "man_made": "floating_storage", "operator": "Petrobras", "production": "yes", "ref": "P-37", "seamark:light:character": "F", "seamark:light:colour": "red", "seamark:name": "Petrobras 37", "seamark:platform:category": "fpso", "seamark:type": "platform", "storage": "yes"}}, {"type": "node", "id": 1726999270, "lat": -22.5593956, "lon": -40.1210828, "tags": {"aeroway": "helipad", "man_made": "floating_storage", "operator": "Petrobras", "ref": "P-38", "seamark:light:character": "F", "seamark:light:colour": "red", "seamark:name": "Petrobras 38", "seamark:platform:category": "fpso", "seamark:type": "platform", "storage": "yes"}}, {"type": "node", "id": 1726999429, "lat": -22.5474219, "lon": -40.0674431, "tags": {"aeroway": "helipad", "man_made": "offshore_platform", "operator": "Petrobras", "ref": "P-40", "seamark:light:character": "F", "seamark:light:colour": "red", "seamark:name": "Petrobras 40", "seamark:platform:category": "production", "seamark:type": "platform"}}, {"type": "node", "id": 1726999548, "lat": -22.5509503, "lon": -40.2601331, "tags": {"aeroway": "helipad", "man_made": "floating_storage", "operator": "Petrobras", "production": "yes", "ref": "P-43", "seamark:light:character": "F", "seamark:light:colour": "red", "seamark:name": "Petrobras 43", "seamark:platform:category": "fpso", "seamark:type": "platform", "storage": "yes"}}, {"type": "node", "id": 1726999789, "lat": -22.3431836, "lon": -40.1934725, "tags": {"aeroway": "helipad", "man_made": "floating_storage", "operator": "Petrobras", "production": "yes", "ref": "P-47", "seamark:light:character": "F", "seamark:light:colour": "red", "seamark:name": "Petrobras 47", "seamark:platform:category": "fpso", "seamark:type": "platform", "storage": "yes"}}, {"type": "node", "id": 1726999903, "lat": -22.6638839, "lon": -40.2401889, "tags": {"aeroway": "helipad", "man_made": "floating_storage", "operator": "Petrobras", "production": "yes", "ref": "P-48", "seamark:light:character": "F", "seamark:light:colour": "red", "seamark:name": "Petrobras 48", "seamark:platform:category": "fpso", "seamark:type": "platform", "storage": "yes"}}, {"type": "node", "id": 1727000047, "lat": -22.6344294, "lon": -40.0936958, "tags": {"aeroway": "helipad", "man_made": "offshore_platform", "ref": "P-51", "seamark:light:character": "F", "seamark:light:colour": "red", "seamark:name": "Petrobras 51", "seamark:platform:category": "production", "seamark:type": "platform"}}, {"type": "node", "id": 1727000195, "lat": -22.7018367, "lon": -40.6771064, "tags": {"aeroway": "helipad", "man_made": "offshore_platform", "operator": "Petrobras", "ref": "SS-06 (P-65)", "seamark:light:character": "F", "seamark:light:colour": "red", "seamark:name": "Petrobras 65", "seamark:platform:category": "production", "seamark:type": "platform"}}, {"type": "node", "id": 1727000202, "lat": -22.5738033, "lon": -40.5276178, "tags": {"aeroway": "helipad", "man_made": "offshore_platform", "operator": "Petrobras", "ref": "P-09", "seamark:light:character": "F", "seamark:light:colour": "red", "seamark:name": "Petrobras IX", "seamark:platform:category": "production", "seamark:type": "platform"}}, {"type": "node", "id": 1814069396, "lat": -23.7731572, "lon": -45.9554056, "tags": {"aeroway": "helipad"}}, {"type": "node", "id": 1825688237, "lat": -22.9333972, "lon": -43.2229825, "tags": {"aeroway": "helipad"}}, {"type": "node", "id": 1888174643, "lat": -21.3383333, "lon": -40.0716667, "tags": {"aeroway": "helipad", "man_made": "floating_storage", "operator": "Petrobras", "production": "yes", "seamark:light:character": "Mo", "seamark:light:colour": "white", "seamark:light:group": "U", "seamark:light:period": "15", "seamark:name": "FPSO Cidade de Anchieta", "seamark:platform:category": "fpso", "seamark:type": "platform", "storage": "yes"}}, {"type": "node", "id": 1982182920, "lat": -23.5192839, "lon": -46.6814159, "tags": {"FIXME": "Confirmar se existe um heliporto aqui.", "aeroway": "helipad"}}, {"type": "node", "id": 2058923258, "lat": -23.5268788, "lon": -46.4896499, "tags": {"aeroway": "helipad", "name": "Panco"}}, {"type": "node", "id": 2126677497, "lat": -20.1713703, "lon": -40.3511604, "tags": {"aeroway": "helipad"}}, {"type": "node", "id": 2136340369, "lat": -25.7993342, "lon": -43.2628392, "tags": {"aeroway": "helipad", "man_made": "floating_storage", "offloading": "yes", "production": "yes", "seamark:name": "FPSO Cidade de S\u00e3o Paulo", "seamark:platform:category": "fpso", "seamark:type": "platform", "storage": "yes"}}, {"type": "node", "id": 2136340370, "lat": -26.4666389, "lon": -46.5286878, "tags": {"aeroway": "helipad", "man_made": "floating_storage", "offloading": "yes", "production": "yes", "seamark:name": "FPSO Cidade de Itaja\u00ed", "seamark:platform:category": "fpso", "seamark:type": "platform", "storage": "yes"}}, {"type": "node", "id": 2136790793, "lat": -23.4144796, "lon": -45.5961836, "tags": {"aeroway": "helipad"}}, {"type": "node", "id": 2156333561, "lat": -22.6744861, "lon": -43.2856933, "tags": {"aeroway": "helipad", "source": "Bing"}}, {"type": "node", "id": 2262978473, "lat": -22.9806484, "lon": -43.231958, "tags": {"aeroway": "helipad"}}, {"type": "node", "id": 2289703957, "lat": -23.094953, "lon": -46.5841321, "tags": {"aeroway": "helipad", "name": "Village Eldorado"}}, {"type": "node", "id": 2299625627, "lat": -22.5025234, "lon": -44.6485437, "tags": {"aeroway": "helipad"}}, {"type": "node", "id": 2429406631, "lat": -23.9245464, "lon": -46.2993083, "tags": {"aeroway": "helipad", "name": "5"}}, {"type": "node", "id": 2429406632, "lat": -23.9254976, "lon": -46.3008263, "tags": {"aeroway": "helipad", "name": "1"}}, {"type": "node", "id": 2429406646, "lat": -23.9252897, "lon": -46.3004824, "tags": {"aeroway": "helipad", "name": "2"}}, {"type": "node", "id": 2429406652, "lat": -23.9242988, "lon": -46.2989193, "tags": {"aeroway": "helipad", "name": "6"}}, {"type": "node", "id": 2429406657, "lat": -23.9250564, "lon": -46.3036052, "tags": {"aeroway": "helipad"}}, {"type": "node", "id": 2429406658, "lat": -23.9247916, "lon": -46.2996999, "tags": {"aeroway": "helipad", "name": "4"}}, {"type": "node", "id": 2429406662, "lat": -23.9250221, "lon": -46.3000807, "tags": {"aeroway": "helipad", "name": "3"}}, {"type": "node", "id": 2431282815, "lat": -23.8858516, "lon": -46.3238594, "tags": {"aeroway": "helipad"}}, {"type": "node", "id": 2478284068, "lat": -22.539315, "lon": -47.4198878, "tags": {"aeroway": "helipad"}}, {"type": "node", "id": 2481685858, "lat": -22.7538221, "lon": -48.5199689, "tags": {"aeroway": "helipad", "name": "Fazenda Nossa Senhora da Concei\u00e7\u00e3o", "source": "ourairports.com"}}, {"type": "node", "id": 2564867875, "lat": -23.6989452, "lon": -46.7520349, "tags": {"aeroway": "helipad"}}, {"type": "node", "id": 2608169839, "lat": -22.8732755, "lon": -46.3600285, "tags": {"aeroway": "helipad"}}, {"type": "node", "id": 2675833210, "lat": -27.591583, "lon": -48.5491026, "tags": {"aeroway": "helipad"}}, {"type": "node", "id": 2762555344, "lat": -22.8734565, "lon": -43.2159268, "tags": {"aeroway": "helipad", "name": "Parque de Material de Eletr\u00f4nica da Aeron\u00e1utica"}}, {"type": "node", "id": 2836593815, "lat": -22.9952126, "lon": -43.4122581, "tags": {"aeroway": "helipad", "name": "Heliponto do Hospital Rio Mar"}}, {"type": "node", "id": 2903643858, "lat": -28.4849844, "lon": -48.7830349, "tags": {"aeroway": "helipad", "ele": "5", "operator": "Marinha do Brasil"}}, {"type": "node", "id": 2942674002, "lat": -22.5172248, "lon": -48.5397257, "tags": {"aeroway": "helipad"}}, {"type": "node", "id": 3049958920, "lat": -22.3750978, "lon": -44.7642401, "tags": {"aeroway": "helipad"}}, {"type": "node", "id": 3089226702, "lat": -21.3921488, "lon": -48.4995587, "tags": {"aeroway": "helipad", "name": "Funda\u00e7\u00e3o Edmilson"}}, {"type": "node", "id": 3102337096, "lat": -25.352329, "lon": -49.0815254, "tags": {"aeroway": "helipad", "name": "Hospital Angelina Caron"}}, {"type": "node", "id": 3499394699, "lat": -20.7201202, "lon": -42.4812605, "tags": {"aeroway": "helipad", "ref": "IEF MG 1340Mts"}}, {"type": "node", "id": 3501216937, "lat": -22.9256253, "lon": -43.7132949, "tags": {"aeroway": "helipad"}}, {"type": "node", "id": 3501216938, "lat": -22.9257189, "lon": -43.7130428, "tags": {"aeroway": "helipad"}}, {"type": "node", "id": 3501216939, "lat": -22.9257975, "lon": -43.7128152, "tags": {"aeroway": "helipad"}}, {"type": "node", "id": 3501216940, "lat": -22.9258986, "lon": -43.7125631, "tags": {"aeroway": "helipad"}}, {"type": "node", "id": 3605036996, "lat": -25.432946, "lon": -49.2802646, "tags": {"aeroway": "helipad"}}, {"type": "node", "id": 3752195922, "lat": -23.0616081, "lon": -43.1475667, "tags": {"aeroway": "helipad"}}, {"type": "node", "id": 3755321496, "lat": -22.7839351, "lon": -43.1564398, "tags": {"aeroway": "helipad"}}, {"type": "node", "id": 3821167885, "lat": -20.2060353, "lon": -43.4498604, "tags": {"aeroway": "helipad"}}, {"type": "node", "id": 3821167886, "lat": -20.2058968, "lon": -43.4496109, "tags": {"aeroway": "helipad"}}, {"type": "node", "id": 3821167887, "lat": -20.2061007, "lon": -43.4494607, "tags": {"aeroway": "helipad"}}, {"type": "node", "id": 3859622585, "lat": -20.3446248, "lon": -42.562853, "tags": {"aeroway": "helipad"}}, {"type": "node", "id": 3879131180, "lat": -20.2687129, "lon": -43.5124321, "tags": {"aeroway": "helipad"}}, {"type": "node", "id": 3882446659, "lat": -22.9101973, "lon": -43.1843408, "tags": {"aeroway": "helipad", "name": "Sede da Pol\u00edcia Civil"}}, {"type": "node", "id": 3939974000, "lat": -22.4181956, "lon": -45.4570609, "tags": {"aeroway": "helipad"}}, {"type": "node", "id": 3998267998, "lat": -23.5704006, "lon": -46.6142348, "tags": {"aeroway": "helipad"}}, {"type": "node", "id": 4085823389, "lat": -22.7186936, "lon": -46.7871075, "tags": {"aeroway": "helipad"}}, {"type": "node", "id": 4227991719, "lat": -22.8167786, "lon": -47.2423928, "tags": {"aeroway": "helipad"}}, {"type": "node", "id": 4242210197, "lat": -22.9842369, "lon": -44.3542935, "tags": {"aeroway": "helipad", "ele": "16", "icao": "SSSL", "name": "Ilha dos Coqueiros"}}, {"type": "node", "id": 4353241579, "lat": -23.0429728, "lon": -44.2104494, "tags": {"aeroway": "helipad"}}, {"type": "node", "id": 4473459816, "lat": -22.4271324, "lon": -45.4768514, "tags": {"aeroway": "helipad", "source": "Bing"}}, {"type": "node", "id": 4754481569, "lat": -23.6988768, "lon": -46.5532445, "tags": {"aeroway": "helipad", "disused:aeroway": "helipad", "note": "Desativado"}}, {"type": "node", "id": 4784593884, "lat": -27.6039999, "lon": -48.545132, "tags": {"aeroway": "helipad"}}, {"type": "node", "id": 4863024136, "lat": -27.5738277, "lon": -48.5287569, "tags": {"aeroway": "helipad"}}, {"type": "node", "id": 4882440743, "lat": -22.0090754, "lon": -47.4528115, "tags": {"aeroway": "helipad"}}, {"type": "node", "id": 4906827013, "lat": -26.9146105, "lon": -49.0880084, "tags": {"aeroway": "helipad"}}, {"type": "node", "id": 4949973932, "lat": -22.8569261, "lon": -47.1119962, "tags": {"aeroway": "helipad"}}, {"type": "node", "id": 4949973933, "lat": -22.8549777, "lon": -47.113769, "tags": {"aeroway": "helipad"}}, {"type": "node", "id": 5053546481, "lat": -27.6013883, "lon": -48.5807481, "tags": {"aeroway": "helipad"}}, {"type": "node", "id": 5053560566, "lat": -27.5991792, "lon": -48.5404741, "tags": {"aeroway": "helipad"}}, {"type": "node", "id": 5159833423, "lat": -23.4822424, "lon": -46.5540224, "tags": {"aeroway": "helipad"}}, {"type": "node", "id": 5162607159, "lat": -22.3700998, "lon": -43.2276535, "tags": {"aeroway": "helipad", "ele": "975", "sport": "free_flying"}}, {"type": "node", "id": 5258603830, "lat": -21.3161136, "lon": -42.8655234, "tags": {"aeroway": "helipad", "ref": "Ribeiro"}}, {"type": "node", "id": 5428016150, "lat": -23.701389, "lon": -46.817778, "tags": {"FIXME": "Verificar qual o local correto deste heliponto", "aeroway": "helipad", "ele": "804", "icao": "SDZE", "maxweight": "4.0", "name": "Ita", "surface": "concrete"}}, {"type": "node", "id": 5428018840, "lat": -23.601802, "lon": -46.6991207, "tags": {"aeroway": "helipad"}}, {"type": "node", "id": 5428018946, "lat": -22.901667, "lon": -42.948611, "tags": {"FIXME": "Verificar qual o local correto deste heliponto", "aeroway": "helipad", "ele": "7", "icao": "SWCN", "maxweight": "3", "name": "Instituto de Ci\u00eancias N\u00e1uticas", "surface": "concrete"}}, {"type": "node", "id": 5863443255, "lat": -23.1157972, "lon": -48.4928128, "tags": {"aeroway": "helipad", "source": "DigitalGlobe"}}, {"type": "node", "id": 6094241969, "lat": -22.4092741, "lon": -43.6535298, "tags": {"aeroway": "helipad"}}, {"type": "node", "id": 7022346450, "lat": -22.7800755, "lon": -45.9448417, "tags": {"aeroway": "helipad", "name": "Fazenda Klabin"}}, {"type": "node", "id": 7141782486, "lat": -26.8865849, "lon": -49.0680286, "tags": {"aeroway": "helipad"}}, {"type": "node", "id": 7494360670, "lat": -23.5833308, "lon": -46.6709813, "tags": {"aeroway": "helipad"}}, {"type": "node", "id": 7515633922, "lat": -23.1125533, "lon": -49.722589, "tags": {"aeroway": "helipad"}}, {"type": "node", "id": 7985200060, "lat": -23.0310976, "lon": -44.5433154, "tags": {"aeroway": "helipad", "lit": "yes", "name": "Heliponto de Mambucaba", "surface": "grass"}}, {"type": "node", "id": 8007671695, "lat": -21.7563696, "lon": -41.3284807, "tags": {"aeroway": "helipad", "lit": "yes", "name": "Heliponto Hospital Benefic\u00eancia Portuguesa de Campos", "operator": "SPBC - Sociedade Portuguesa de Benefic\u00eancia de Campos/Minist\u00e9rio da Sa\u00fade/SUS"}}, {"type": "node", "id": 8435397142, "lat": -27.004442, "lon": -48.6188337, "tags": {"aeroway": "helipad"}}, {"type": "node", "id": 8435684352, "lat": -26.9746113, "lon": -48.6354607, "tags": {"aeroway": "helipad"}}, {"type": "node", "id": 8435684353, "lat": -26.975001, "lon": -48.6356753, "tags": {"aeroway": "helipad"}}, {"type": "node", "id": 8435684354, "lat": -26.9764256, "lon": -48.6357692, "tags": {"aeroway": "helipad"}}, {"type": "node", "id": 8435684355, "lat": -26.9772025, "lon": -48.6355922, "tags": {"aeroway": "helipad"}}, {"type": "node", "id": 8435684356, "lat": -26.9777021, "lon": -48.6355734, "tags": {"aeroway": "helipad"}}, {"type": "node", "id": 8435684357, "lat": -26.978357, "lon": -48.6365551, "tags": {"aeroway": "helipad"}}, {"type": "node", "id": 8435685248, "lat": -26.9795546, "lon": -48.6352435, "tags": {"aeroway": "helipad"}}, {"type": "node", "id": 8435685249, "lat": -26.9807617, "lon": -48.6349565, "tags": {"aeroway": "helipad"}}, {"type": "node", "id": 8435685250, "lat": -26.9818158, "lon": -48.6347902, "tags": {"aeroway": "helipad"}}, {"type": "node", "id": 8435685251, "lat": -26.9822078, "lon": -48.6346614, "tags": {"aeroway": "helipad"}}, {"type": "node", "id": 8435685252, "lat": -26.9824683, "lon": -48.6346883, "tags": {"aeroway": "helipad"}}, {"type": "node", "id": 8435685253, "lat": -26.9927913, "lon": -48.6290422, "tags": {"aeroway": "helipad"}}, {"type": "node", "id": 8435685254, "lat": -26.9919882, "lon": -48.6296055, "tags": {"aeroway": "helipad"}}, {"type": "node", "id": 8435685255, "lat": -26.9920432, "lon": -48.6296672, "tags": {"aeroway": "helipad"}}, {"type": "node", "id": 8435685256, "lat": -26.989352, "lon": -48.6322153, "tags": {"aeroway": "helipad"}}, {"type": "node", "id": 8435685257, "lat": -26.9862376, "lon": -48.634184, "tags": {"aeroway": "helipad"}}, {"type": "node", "id": 8435685258, "lat": -26.9865675, "lon": -48.6339828, "tags": {"aeroway": "helipad"}}, {"type": "node", "id": 8435685259, "lat": -26.9855851, "lon": -48.634479, "tags": {"aeroway": "helipad"}}, {"type": "node", "id": 8435685260, "lat": -26.9840817, "lon": -48.6342591, "tags": {"aeroway": "helipad"}}, {"type": "node", "id": 8435685261, "lat": -26.983998, "lon": -48.6349806, "tags": {"aeroway": "helipad"}}, {"type": "node", "id": 8677642200, "lat": -22.8801096, "lon": -43.2405607, "tags": {"aeroway": "helipad"}}, {"type": "node", "id": 8872888156, "lat": -24.7878293, "lon": -49.9945941, "tags": {"aeroway": "helipad"}}, {"type": "node", "id": 9015242687, "lat": -28.6716945, "lon": -49.4168231, "tags": {"aeroway": "helipad"}}, {"type": "node", "id": 9015242688, "lat": -28.6716074, "lon": -49.4171476, "tags": {"aeroway": "helipad"}}, {"type": "node", "id": 9464118252, "lat": -20.0319517, "lon": -44.0113107, "tags": {"aeroway": "helipad", "ref": "7.0"}}, {"type": "node", "id": 9719484073, "lat": -25.4527539, "lon": -49.2445178, "tags": {"aeroway": "helipad", "name": "Prf Curitiba"}}, {"type": "node", "id": 9925153122, "lat": -23.6091641, "lon": -46.8423872, "tags": {"aeroway": "helipad", "name": "Heliponto Cemucam"}}, {"type": "node", "id": 10032628062, "lat": -23.5921119, "lon": -46.6799598, "tags": {"aeroway": "helipad"}}, {"type": "node", "id": 10043274105, "lat": -27.6798085, "lon": -48.7574959, "tags": {"aeroway": "helipad"}}, {"type": "node", "id": 10242106010, "lat": -22.9095697, "lon": -43.1781734, "tags": {"aeroway": "helipad"}}, {"type": "node", "id": 10280716530, "lat": -27.0019494, "lon": -48.6270641, "tags": {"aeroway": "helipad"}}, {"type": "node", "id": 10601201545, "lat": -21.2429133, "lon": -44.9660015, "tags": {"aeroway": "helipad"}}, {"type": "node", "id": 10801822653, "lat": -25.5679985, "lon": -48.7006211, "tags": {"aeroway": "helipad"}}, {"type": "node", "id": 10896036767, "lat": -23.5038456, "lon": -46.8452099, "tags": {"aeroway": "helipad"}}, {"type": "node", "id": 11303017196, "lat": -20.8185697, "lon": -49.412525, "tags": {"aeroway": "helipad", "name": "Pol\u00edcia Militar"}}, {"type": "way", "id": 51537256, "center": {"lat": -20.3179212, "lon": -40.2985643}, "nodes": [658949831, 658949828, 658949825, 658949829, 658949832, 658949834, 658949830, 658949826, 658949835, 658949837, 658949833, 658949836, 658949831], "tags": {"aeroway": "helipad"}}, {"type": "way", "id": 51537257, "center": {"lat": -20.3144477, "lon": -40.3100101}, "nodes": [662449859, 658949804, 658949807, 658949803, 658949802, 658949812, 658949811, 658949809, 658949813, 658949810, 658949814, 658949816, 658949817, 658949815, 658949818, 658949821, 658949819, 658949820, 658949823, 658949822, 658949824, 658949805, 658949806, 658949808, 658949801, 662449859], "tags": {"aeroway": "helipad"}}, {"type": "way", "id": 51537258, "center": {"lat": -20.2935336, "lon": -40.312493}, "nodes": [658949845, 658949858, 658949855, 658949860, 658949845], "tags": {"aeroway": "helipad", "ele": "19", "icao": "SIHC", "maxweight": "5.0", "name": "Coronel PM C\u00edcero Dantas dos Santos", "surface": "concrete"}}, {"type": "way", "id": 51556846, "center": {"lat": -20.2556296, "lon": -40.2872783}, "nodes": [659282672, 659283062, 659282698, 659282700, 659282704, 659282702, 659282706, 659282707, 659283061, 659283064, 659283066, 659283019, 659282921, 659283010, 659283011, 659282919, 659282923, 659283020, 659283018, 659283068, 659282672], "tags": {"aeroway": "helipad"}}, {"type": "way", "id": 51556848, "center": {"lat": -20.2557479, "lon": -40.2870865}, "nodes": [659282856, 659282851, 659282845, 659282853, 659282843, 659282857, 659282858, 659282847, 659282849, 659282708, 659282709, 659282710, 659282711, 659282712, 659282713, 659282715, 659282674, 659282676, 659282723, 659282722, 659282856], "tags": {"aeroway": "helipad"}}, {"type": "way", "id": 51556853, "center": {"lat": -20.2552447, "lon": -40.2870262}, "nodes": [659283088, 659283090, 7120311319, 7120311318, 7120311317, 7120311316, 7120311315, 7120311314, 7120311313, 659283395, 659283645, 659283647, 659283649, 659283380, 659283383, 659283384, 659283386, 659283388, 659283083, 7120311163, 659283086, 659283088], "tags": {"aeroway": "helipad"}}, {"type": "way", "id": 51556856, "center": {"lat": -20.2555088, "lon": -40.2874774}, "nodes": [659283046, 659282888, 659282886, 659283017, 659282915, 659282916, 659282918, 659283016, 659283015, 659283014, 659282889, 659283048, 659282893, 659282897, 659282901, 659282899, 659282895, 659282894, 659282892, 659282891, 659283046], "tags": {"aeroway": "helipad"}}, {"type": "way", "id": 51556862, "center": {"lat": -20.2551288, "lon": -40.2872313}, "nodes": [659283370, 659283372, 659283374, 659283376, 659283378, 7120311169, 659283389, 659283390, 659283392, 659283394, 659283661, 659283663, 659283664, 659283667, 659283347, 659283366, 659283368, 659283325, 659283327, 659283329, 659283331, 659283370], "tags": {"aeroway": "helipad"}}, {"type": "way", "id": 87988914, "center": {"lat": -20.3277926, "lon": -40.3537961}, "nodes": [1022731929, 1022745909, 1022706369, 1022713186, 1022731929], "tags": {"aeroway": "helipad", "name": "Policia Federal do Esp\u00edrito Santo", "source": "IJSN", "surface": "concrete"}}, {"type": "way", "id": 88221771, "center": {"lat": -20.3271747, "lon": -40.2691691}, "nodes": [1025001838, 1024967379, 1024942459, 1024939627, 1025001838], "tags": {"aeroway": "helipad", "ele": "16", "icao": "SJIE", "maxweight": "9", "name": "Resid\u00eancia Oficial do Governador", "surface": "asphalt"}}, {"type": "way", "id": 89418911, "center": {"lat": -22.3889201, "lon": -41.7706594}, "nodes": [1037116983, 1037108045, 1037101499, 1037105887, 1037116983], "tags": {"aeroway": "helipad", "ele": "5", "icao": "SDDT", "maxweight": "9", "name": "Imbetiba", "surface": "concrete"}}, {"type": "way", "id": 89426077, "center": {"lat": -22.4109342, "lon": -43.1486197}, "nodes": [1037195416, 1037197759, 1037194419, 1037197717, 1037195416], "tags": {"aeroway": "helipad", "ele": "687", "icao": "SDVD", "maxweight": "3.0", "name": "Vila Real", "surface": "grass"}}, {"type": "way", "id": 108284719, "center": {"lat": -26.2888866, "lon": -48.8455611}, "nodes": [1242682228, 1242682310, 1242682335, 1242682355, 1242682228], "tags": {"aeroway": "helipad", "ele": "5", "icao": "SIXH", "length": "18", "maxweight": "2", "name": "Hospital Unimed", "surface": "concrete", "width": "18"}}, {"type": "way", "id": 115800656, "center": {"lat": -23.560255, "lon": -46.6592826}, "nodes": [1307291472, 1307291442, 1307291511, 1307291512, 1307291472], "tags": {"aeroway": "helipad", "ele": "884", "icao": "SDPT", "maxweight": "4.0", "name": "Parque Paulista", "surface": "concrete"}}, {"type": "way", "id": 118261280, "center": {"lat": -23.6340185, "lon": -46.6551822}, "nodes": [1330373359, 1330373360, 5427994336, 5427994337, 1330373359], "tags": {"aeroway": "helipad", "name": "Lider Avia\u00e7\u00e3o"}}, {"type": "way", "id": 118261972, "center": {"lat": -23.587429, "lon": -46.6721698}, "nodes": [1330378709, 1330378711, 1330378714, 1330378713, 1330378709], "tags": {"aeroway": "helipad", "ele": "806", "icao": "SIMM", "maxweight": "5.0", "name": "Edif\u00edcio Corporate Park", "surface": "concrete"}}, {"type": "way", "id": 118261973, "center": {"lat": -23.5907683, "lon": -46.6730802}, "nodes": [1330378710, 1330378707, 1330378712, 1330378708, 1330378710], "tags": {"aeroway": "helipad", "ele": "773", "icao": "SDJU", "maxweight": "4", "name": "Hospital S\u00e3o Luiz", "surface": "metal"}}, {"type": "way", "id": 118305667, "center": {"lat": -23.5873621, "lon": -46.6751115}, "nodes": [1330745290, 1330745292, 1330745291, 1330745293, 1330745290], "tags": {"aeroway": "helipad", "ele": "807", "icao": "SDGW", "maxweight": "5", "name": "JKFC", "surface": "concrete"}}, {"type": "way", "id": 118311447, "center": {"lat": -23.6025936, "lon": -46.6605694}, "nodes": [1330775988, 1330775984, 1330775946, 1330775980, 1330775988], "tags": {"aeroway": "helipad", "ele": "831", "icao": "SDTC", "maxweight": "3", "name": "Edif\u00edcio Edel Trade Center", "surface": "metal"}}, {"type": "way", "id": 119868820, "center": {"lat": -22.8922776, "lon": -43.118207}, "nodes": [1345335417, 1345335415, 1345335419, 1345335421, 1345335417], "tags": {"aeroway": "helipad", "ele": "57", "icao": "SDYK", "maxweight": "2", "name": "Tower 2000", "surface": "concrete"}}, {"type": "way", "id": 125451273, "center": {"lat": -23.5793526, "lon": -46.6571841}, "nodes": [1393378333, 1393378353, 1393378360, 1393378345, 1393378333], "tags": {"aeroway": "helipad"}}, {"type": "way", "id": 125451378, "center": {"lat": -23.5952202, "lon": -46.6524843}, "nodes": [1393379722, 1393379723, 1393379710, 1393379709, 1393379722], "tags": {"aeroway": "helipad", "ele": "782", "icao": "SDHI", "maxweight": "4.5", "name": "Hospital Gastrocl\u00ednica", "surface": "metal"}}, {"type": "way", "id": 126464789, "center": {"lat": -23.7111695, "lon": -46.5798774}, "nodes": [1401867252, 1401867285, 1401867286, 1401867253, 1401867252], "tags": {"aeroway": "helipad"}}, {"type": "way", "id": 126902695, "center": {"lat": -22.7106797, "lon": -47.0033119}, "nodes": [1405864280, 1405864295, 1405864292, 1405864263, 1405864280], "tags": {"aeroway": "helipad", "name": "Ambev Jaguar\u00eduna", "source": "ourairports.com"}}, {"type": "way", "id": 126903369, "center": {"lat": -22.7073953, "lon": -47.0114957}, "nodes": [1405863767, 1405863796, 1405863808, 1405863781, 1405863767], "tags": {"aeroway": "helipad"}}, {"type": "way", "id": 132984973, "center": {"lat": -22.3565689, "lon": -41.8060428}, "nodes": [1463270672, 1463270727, 1463271303, 1463271280, 1463270672], "tags": {"FIXME": "Verificar qual o local correto deste heliponto", "aeroway": "helipad", "name": "Hospital Municipal Dr. Fernando Pereira Da Silva"}}, {"type": "way", "id": 143448412, "center": {"lat": -22.284465, "lon": -41.7174687}, "nodes": [1569647159, 1569647048, 1569647016, 1042136496, 1569647159], "tags": {"FIXME": "Verificar qual o local correto deste heliponto", "aeroway": "helipad", "name": "Cabi\u00fanas"}}, {"type": "way", "id": 157753395, "center": {"lat": -22.7981608, "lon": -42.4566861}, "nodes": [1700041935, 1700041941, 1700041939, 1700041931, 1700041935], "tags": {"aeroway": "helipad", "name": "Oasis Graal", "source": "ourairports.com"}}, {"type": "way", "id": 167261021, "center": {"lat": -22.911454, "lon": -43.2032544}, "nodes": [1786667761, 1786667765, 1786667758, 1786667755, 1786667761], "tags": {"aeroway": "helipad", "ele": "39", "icao": "SWZK", "maxweight": "5.0", "name": "CON - CN - Cidade Nova", "surface": "concrete"}}, {"type": "way", "id": 167282556, "center": {"lat": -26.2632465, "lon": -48.8586282}, "nodes": [1042141657, 1786899654, 1786899664, 1786899708, 1042141657], "tags": {"aeroway": "helipad", "ele": "12", "icao": "SWZZ", "maxweight": "3.0", "name": "GRAER", "surface": "concrete"}}, {"type": "way", "id": 170290373, "center": {"lat": -25.4079038, "lon": -49.2178317}, "nodes": [1814441034, 1814441021, 1814441057, 1814441138, 1814441077, 1814441147, 1814440966, 1814441076, 1814441171, 1814441018, 1814441045, 1814441161, 1814440977, 1814441121, 1814440998, 1814440951, 1814441065, 1814441034], "tags": {"aeroway": "helipad"}}, {"type": "way", "id": 184239375, "center": {"lat": -22.8707888, "lon": -43.1355389}, "nodes": [1946909690, 1946909607, 1946909622, 1946909705, 1946909690], "tags": {"aeroway": "helipad", "ele": "4", "icao": "SJPM", "maxweight": "4.5", "name": "Capit\u00e3o PM Cidimar Antunes de Almeida", "surface": "concrete"}}, {"type": "way", "id": 189787135, "center": {"lat": -21.866835, "lon": -47.6286758}, "nodes": [2003925104, 2003925106, 2003925107, 2003925105, 2003925104], "tags": {"aeroway": "helipad", "name": "Est\u00e2ncia Flamboyants"}}, {"type": "way", "id": 203181665, "center": {"lat": -22.8276625, "lon": -43.052324}, "nodes": [2131596262, 2131596253, 2131596265, 2131596273, 2131596262], "tags": {"aeroway": "helipad"}}, {"type": "way", "id": 203622008, "center": {"lat": -23.5115779, "lon": -46.6393316}, "nodes": [2136294563, 2136294565, 2136294564, 2136294562, 2136294563], "tags": {"aeroway": "helipad"}}, {"type": "way", "id": 203777631, "center": {"lat": -27.5741539, "lon": -48.5147451}, "nodes": [2137725371, 2137725367, 2137725375, 2137725376, 2137725371], "tags": {"aeroway": "helipad", "operator": "S.O.S. Cardio"}}, {"type": "way", "id": 203777688, "center": {"lat": -27.5826576, "lon": -48.5454116}, "nodes": [2137725694, 2137725696, 2137725692, 2137725693, 2137725694], "tags": {"aeroway": "helipad"}}, {"type": "way", "id": 204862928, "center": {"lat": -22.6783497, "lon": -49.4154424}, "nodes": [2148365129, 2148365127, 2148365123, 2148365125, 2148365129], "tags": {"access": "private", "aeroway": "helipad"}}, {"type": "way", "id": 208484837, "center": {"lat": -22.0922374, "lon": -48.3475576}, "nodes": [2187721565, 2187721563, 2187721560, 2187721561, 2187721565], "tags": {"aeroway": "helipad", "ele": "634", "icao": "SDFS", "maxweight": "6.0", "name": "Fazenda Santa Gertrudes", "surface": "concrete"}}, {"type": "way", "id": 209417139, "center": {"lat": -21.5725805, "lon": -47.9138058}, "nodes": [2196378580, 2196378582, 2196378579, 2196378577, 2196378580], "tags": {"aeroway": "helipad", "ele": "517", "icao": "SINW", "maxweight": "6.0", "name": "International Paper Lu\u00eds Ant\u00f4nio", "surface": "concrete"}}, {"type": "way", "id": 219451680, "center": {"lat": -22.1886048, "lon": -47.8893315}, "nodes": [2286084449, 2286084458, 2286084460, 2286084452, 2286084449], "tags": {"access": "private", "aeroway": "helipad"}}, {"type": "way", "id": 219839796, "center": {"lat": -23.0050853, "lon": -46.5677627}, "nodes": [2289702838, 2289702843, 2289702844, 2289702840, 2289702838], "tags": {"aeroway": "helipad"}}, {"type": "way", "id": 219912959, "center": {"lat": -27.5741099, "lon": -48.5325244}, "nodes": [2290411288, 2290411289, 2290411287, 2290411290, 2290411288], "tags": {"access": "private", "aeroway": "helipad", "maxweight": "3"}}, {"type": "way", "id": 220409093, "center": {"lat": -27.5407767, "lon": -48.5050183}, "nodes": [2295341196, 2295341194, 2295341197, 2295341195, 2295341196], "tags": {"aeroway": "helipad"}}, {"type": "way", "id": 226298335, "center": {"lat": -22.2127279, "lon": -47.7375107}, "nodes": [2351521623, 2351521620, 2351521616, 2351521619, 2351521623], "tags": {"aeroway": "helipad", "ele": "784", "icao": "SSNX", "maxweight": "4.5", "name": "Paic Participa\u00e7\u00f5es Ltda", "surface": "concrete"}}, {"type": "way", "id": 230272585, "center": {"lat": -21.1636085, "lon": -47.7550292}, "nodes": [2387952690, 2387952689, 2387952692, 2387952685, 2387952690], "tags": {"aeroway": "helipad", "ele": "550", "icao": "SSVZ", "maxweight": "4.5", "name": "Autovias", "surface": "concrete"}}, {"type": "way", "id": 230272592, "center": {"lat": -21.2102889, "lon": -47.7701808}, "nodes": [2387952965, 2387952962, 2387952963, 2387952959, 2387952965], "tags": {"aeroway": "helipad", "ele": "560", "icao": "SSUE", "maxweight": "5.0", "name": "Helicentro Ribeir\u00e3o Preto", "surface": "asphalt"}}, {"type": "way", "id": 230995685, "center": {"lat": -22.5988452, "lon": -47.8810815}, "nodes": [2394175624, 2394175625, 2394175623, 2394175622, 2394175624], "tags": {"aeroway": "helipad", "ele": "491", "icao": "SJIH", "maxweight": "5.0", "name": "Grande Hotel S\u00e3o Pedro", "source": "ourairports.com", "surface": "concrete"}}, {"type": "way", "id": 230995686, "center": {"lat": -23.8219184, "lon": -45.37128}, "nodes": [2394176031, 2394176030, 2394176028, 2394176029, 2394176031], "tags": {"aeroway": "helipad", "ele": "3", "icao": "SJDO", "maxweight": "8", "name": "Maroum", "surface": "concrete"}}, {"type": "way", "id": 231241523, "center": {"lat": -23.1090702, "lon": -46.5753393}, "nodes": [2396496684, 2396496598, 2396496650, 2396496691, 2396496684], "tags": {"aeroway": "helipad", "name": "Heliporto Bourbon"}}, {"type": "way", "id": 235819500, "center": {"lat": -27.4381496, "lon": -48.4948487}, "nodes": [2438940859, 2438940861, 2438940858, 2438940860, 2438940859], "tags": {"aeroway": "helipad"}}, {"type": "way", "id": 237862564, "center": {"lat": -22.001244, "lon": -47.9169451}, "nodes": [2457263207, 2457263210, 2457263204, 2457263198, 2457263207], "tags": {"aeroway": "helipad", "name": "Opto", "source": "ourairports.com"}}, {"type": "way", "id": 237862565, "center": {"lat": -22.003154, "lon": -47.8690349}, "nodes": [2457263257, 2457263263, 2457263267, 2457263260, 2457263257], "tags": {"aeroway": "helipad", "name": "Transpel", "source": "ourairports.com"}}, {"type": "way", "id": 242072777, "center": {"lat": -21.9969773, "lon": -46.8062749}, "nodes": [2496246256, 2496246259, 2496246260, 2496246258, 2496246256], "tags": {"aeroway": "helipad", "area": "yes"}}, {"type": "way", "id": 245697803, "center": {"lat": -23.565608, "lon": -46.7192725}, "nodes": [2528452737, 2528452647, 2528452775, 2528452788, 2528452737], "tags": {"aeroway": "helipad", "operator": "Instituto Butantan"}}, {"type": "way", "id": 252517207, "center": {"lat": -22.8833018, "lon": -43.1196393}, "nodes": [2585483183, 2585483167, 2585483164, 2585483179, 2585483183], "tags": {"aeroway": "helipad"}}, {"type": "way", "id": 255324804, "center": {"lat": -20.6120958, "lon": -49.6990499}, "nodes": [2610181771, 2610181783, 2610181785, 2610181773, 2610181771], "tags": {"aeroway": "helipad"}}, {"type": "way", "id": 255486137, "center": {"lat": -26.7257037, "lon": -49.0659674}, "nodes": [2611719802, 2611719801, 2611719800, 2611719803, 2611719802], "tags": {"aeroway": "helipad", "icao": "SDWW", "name": "Air Haco"}}, {"type": "way", "id": 255890687, "center": {"lat": -22.8148366, "lon": -43.215526}, "nodes": [2616040411, 2616040407, 2616040406, 2616040402, 2616040409, 2616040411], "tags": {"aeroway": "helipad", "ref": "Hospital de For\u00e7a A\u00e9ra do Gale\u00e3o"}}, {"type": "way", "id": 256946576, "center": {"lat": -23.5057843, "lon": -46.8370093}, "nodes": [2625664542, 2625664550, 2625664518, 2625664556, 2625664542], "tags": {"aeroway": "helipad", "ele": "825", "icao": "SWKM", "maxweight": "4.5", "name": "Castelo Branco Office Park - Torre II", "surface": "concrete"}}, {"type": "way", "id": 258715199, "center": {"lat": -22.8540627, "lon": -45.2373815}, "nodes": [2640398420, 2640398425, 2640398422, 2640398418, 2640398420], "tags": {"aeroway": "helipad", "surface": "asphalt"}}, {"type": "way", "id": 258715764, "center": {"lat": -22.8530307, "lon": -45.2377446}, "nodes": [2640398344, 2640398323, 2640398322, 2640398321, 2640398344], "tags": {"aeroway": "helipad", "ele": "565", "icao": "SIYL", "maxweight": "9.0", "name": "Santu\u00e1rio Nacional de Nossa Senhora da Concei\u00e7\u00e3o Aparecida", "surface": "asphalt"}}, {"type": "way", "id": 261115406, "center": {"lat": -25.5768525, "lon": -49.3943204}, "nodes": [2667363343, 2667363344, 2667363345, 2667363342, 2667363343], "tags": {"aeroway": "helipad", "ele": "906", "icao": "SSSE", "maxweight": "2.0", "name": "Jihad Dehaini", "surface": "concrete"}}, {"type": "way", "id": 262311552, "center": {"lat": -21.691542, "lon": -49.7581476}, "nodes": [2679764386, 2679764391, 2679764390, 2679764385, 2679764386], "tags": {"aeroway": "helipad"}}, {"type": "way", "id": 270594946, "center": {"lat": -23.5261925, "lon": -46.6787078}, "nodes": [2756155335, 2756155337, 2756155340, 2756155341, 2756155335], "tags": {"aeroway": "helipad", "name": "Heliponto Palmeiras"}}, {"type": "way", "id": 272586351, "center": {"lat": -22.063597, "lon": -47.8741433}, "nodes": [2775292072, 2775292073, 2775292071, 2775292070, 2775292072], "tags": {"aeroway": "helipad"}}, {"type": "way", "id": 273632793, "center": {"lat": -22.9512599, "lon": -43.1655038}, "nodes": [2784691216, 2784691215, 9826740613, 2784691213, 2784691214, 2784691216], "tags": {"access": "private", "aeroway": "helipad", "ele": "211", "icao": "SDHU", "maxweight": "2", "name": "Morro da Urca", "surface": "concrete"}}, {"type": "way", "id": 277483435, "center": {"lat": -23.7151419, "lon": -46.5671148}, "nodes": [2819736059, 2819736058, 2819736057, 2819736056, 2819736059], "tags": {"aeroway": "helipad", "ele": "794", "icao": "SNQH", "maxweight": "6.0", "name": "Wheaton"}}, {"type": "way", "id": 278717176, "center": {"lat": -22.9404463, "lon": -43.1878945}, "nodes": [2830340240, 2830340241, 2830340242, 2830340243, 2830340240], "tags": {"aeroway": "helipad", "ele": "104", "icao": "SDPG", "maxweight": "5", "surface": "concrete"}}, {"type": "way", "id": 282940662, "center": {"lat": -23.0021247, "lon": -44.3531663}, "nodes": [2868730503, 2868730507, 2868730394, 2868730501, 2868730503], "tags": {"aeroway": "helipad", "ele": "68", "icao": "SIHT", "maxweight": "5.0", "name": "Tangu\u00e1", "surface": "concrete"}}, {"type": "way", "id": 282992453, "center": {"lat": -23.0039409, "lon": -44.301852}, "nodes": [2869161212, 2869161209, 2869161204, 2869161208, 2869161212], "tags": {"aeroway": "helipad", "ele": "2", "icao": "SJXY", "maxweight": "3", "name": "Pirata's Mall", "surface": "concrete"}}, {"type": "way", "id": 283098421, "center": {"lat": -23.0296743, "lon": -44.3492576}, "nodes": [2870067653, 2870067652, 2870067654, 2870067655, 2870067653], "tags": {"aeroway": "helipad"}}, {"type": "way", "id": 283856171, "center": {"lat": -23.0386888, "lon": -45.5160958}, "nodes": [2876729816, 2876729819, 2876729829, 2876729823, 2876729807, 2876729814, 2876729816], "tags": {"aeroway": "helipad"}}, {"type": "way", "id": 284319155, "center": {"lat": -23.0164688, "lon": -44.2911083}, "nodes": [2880584897, 2880584899, 2880584891, 2880584890, 2880584897], "tags": {"aeroway": "helipad", "ele": "66", "icao": "SIDQ", "maxweight": "5.0", "name": "Das Quaresmas", "surface": "concrete"}}, {"type": "way", "id": 284982382, "center": {"lat": -23.1213286, "lon": -44.1928933}, "nodes": [2886837808, 2886837796, 2886837832, 2886837784, 2886837808], "tags": {"aeroway": "helipad", "ele": "5", "icao": "SJXT", "maxweight": "5.0", "name": "Iguass\u00fa", "surface": "grass"}}, {"type": "way", "id": 286623772, "center": {"lat": -23.0613671, "lon": -43.9898131}, "nodes": [2903058070, 2903058065, 2903058073, 2903058080, 2903058070], "tags": {"aeroway": "helipad"}}, {"type": "way", "id": 287393619, "center": {"lat": -23.0051348, "lon": -44.4657485}, "nodes": [2910013197, 4806341977, 2910013184, 2910013187, 2910013197], "tags": {"aeroway": "helipad", "ele": "48", "icao": "SIIO", "maxweight": "12", "name": "Itaorna", "surface": "concrete"}}, {"type": "way", "id": 287896974, "center": {"lat": -22.9269959, "lon": -44.3490901}, "nodes": [2914613785, 2914613780, 2914613789, 2914613794, 2914613785], "tags": {"aeroway": "helipad"}}, {"type": "way", "id": 288178503, "center": {"lat": -22.7847035, "lon": -43.2236068}, "nodes": [2917263156, 2917263154, 2917263159, 2917263160, 2917263156], "tags": {"aeroway": "helipad"}}, {"type": "way", "id": 288199228, "center": {"lat": -22.911509, "lon": -43.2083933}, "nodes": [2917467313, 2917467308, 2917467286, 2917467296, 2917467313], "tags": {"aeroway": "helipad", "ele": "40", "icao": "SWIR", "maxweight": "4.5", "name": "CCN - Torre Norte", "surface": "concrete"}}, {"type": "way", "id": 289283908, "center": {"lat": -22.895612, "lon": -43.8724695}, "nodes": [2928258297, 2928258299, 2928258301, 2928258304, 2928258306, 2928258307, 2928258305, 2928258302, 2928258300, 2928258298, 2928258297], "tags": {"aeroway": "helipad"}}, {"type": "way", "id": 290508958, "center": {"lat": -22.7971272, "lon": -45.2032157}, "nodes": [2940341160, 2940341161, 2940341162, 2940341165, 2940341163, 2940464161, 2940341160], "tags": {"aeroway": "helipad"}}, {"type": "way", "id": 291326765, "center": {"lat": -22.9346697, "lon": -42.9487924}, "nodes": [2947814751, 2947814754, 2947814757, 2947814761, 2947814763, 2947814768, 2947814770, 2947814771, 2947814769, 2947814767, 2947814762, 2947814760, 2947814756, 2947814753, 2947814750, 2947814751], "tags": {"aeroway": "helipad"}}, {"type": "way", "id": 291394643, "center": {"lat": -22.9361471, "lon": -43.0619027}, "nodes": [2948580910, 2948580913, 2948580919, 2948580912, 2948580910], "tags": {"abandoned": "yes", "aeroway": "helipad", "operator": "Amil"}}, {"type": "way", "id": 291546958, "center": {"lat": -23.567091, "lon": -46.7139687}, "nodes": [2950142215, 2950142216, 2950142217, 2950142218, 2950142215], "tags": {"aeroway": "helipad"}}, {"type": "way", "id": 291547183, "center": {"lat": -23.5679712, "lon": -46.7082463}, "nodes": [2950146815, 2950146817, 2950146816, 2950146818, 2950146815], "tags": {"aeroway": "helipad", "ele": "733", "icao": "SSQE", "maxweight": "3", "name": "TV Mundial I", "surface": "concrete"}}, {"type": "way", "id": 291927755, "center": {"lat": -22.8505367, "lon": -47.0240665}, "nodes": [2954331323, 2954331312, 2954331307, 2954331308, 2954331315, 2954331323], "tags": {"aeroway": "helipad"}}, {"type": "way", "id": 292648093, "center": {"lat": -22.2998299, "lon": -42.5318591}, "nodes": [2961819166, 2961819170, 2961819181, 2961819171, 2961819166], "tags": {"aeroway": "helipad"}}, {"type": "way", "id": 294458091, "center": {"lat": -23.6892606, "lon": -46.6057461}, "nodes": [2980571924, 2980571923, 2980571922, 2980571921, 2980571924], "tags": {"aeroway": "helipad", "ele": "779", "icao": "SDEY", "maxweight": "6", "name": "Imigrantes", "surface": "concrete"}}, {"type": "way", "id": 297570028, "center": {"lat": -24.6218649, "lon": -47.8942331}, "nodes": [3014584736, 3014584734, 3014584733, 3014584735, 3014584736], "tags": {"aeroway": "helipad", "name": "Heliponto Graal Petropen"}}, {"type": "way", "id": 298841639, "center": {"lat": -26.9061398, "lon": -48.6537498}, "nodes": [3028016501, 3028016496, 3028016509, 3028016516, 3028016501], "tags": {"aeroway": "helipad"}}, {"type": "way", "id": 298848538, "center": {"lat": -20.4709764, "lon": -40.4680405}, "nodes": [3028098198, 3028098194, 3028098200, 3028098204, 3028098198], "tags": {"aeroway": "helipad"}}, {"type": "way", "id": 301722455, "center": {"lat": -20.5087798, "lon": -48.5998759}, "nodes": [3058146043, 3058146044, 3058146035, 3058143632, 3058146043], "tags": {"aeroway": "helipad", "ele": "560", "icao": "SJEP", "maxweight": "4.0", "name": "Parque do Pe\u00e3o", "surface": "asphalt"}}, {"type": "way", "id": 301724325, "center": {"lat": -20.5110072, "lon": -48.5926721}, "nodes": [3058162198, 3059996180, 3058162200, 3058162199, 3058162197, 3058162198], "tags": {"aeroway": "helipad", "ele": "551", "icao": "SDGH", "maxweight": "4.0", "name": "Parque do Pe\u00e3o Mussa Calil Neto", "surface": "asphalt"}}, {"type": "way", "id": 302987501, "center": {"lat": -20.2372278, "lon": -40.2796637}, "nodes": [3072795273, 3072795274, 3072795275, 3072795276, 3072795273], "tags": {"aeroway": "helipad", "name": "Heliporto Vit\u00f3ria Apart Hospital", "source": "ourairports.com"}}, {"type": "way", "id": 303810725, "center": {"lat": -23.0118611, "lon": -43.5597817}, "nodes": [3082554839, 3082554847, 3082554865, 3082554852, 3082554839], "tags": {"aeroway": "helipad", "building": "yes"}}, {"type": "way", "id": 304219315, "center": {"lat": -23.7295343, "lon": -46.5498493}, "nodes": [3087458167, 3087458166, 3087458165, 3087458164, 3087458167], "tags": {"aeroway": "helipad", "ele": "772", "icao": "SWQV", "maxweight": "3", "name": "Volkswagen", "surface": "grass"}}, {"type": "way", "id": 305648147, "center": {"lat": -22.8649548, "lon": -46.0367285}, "nodes": [3103121481, 3103121482, 3103121480, 3103121479, 3103121481], "tags": {"aeroway": "helipad", "ele": "1530", "icao": "SJCV", "maxweight": "3.0", "name": "Trend Bank", "surface": "concrete"}}, {"type": "way", "id": 307365196, "center": {"lat": -23.6917444, "lon": -46.5790535}, "nodes": [3124744636, 3124744635, 3124744637, 3124744638, 3124744636], "tags": {"aeroway": "helipad", "area": "yes", "name": "Arteb"}}, {"type": "way", "id": 307671388, "center": {"lat": -22.8261192, "lon": -47.0632008}, "nodes": [3128761053, 3128761054, 3128761055, 3128761056, 3128761053], "tags": {"aeroway": "helipad", "name": "Heliponto HC Unicamp"}}, {"type": "way", "id": 308959189, "center": {"lat": -22.4514478, "lon": -46.8187512}, "nodes": [3142566543, 3142566544, 3142566545, 3142566546, 3142566547, 3142566529, 3142566530, 3142566531, 3142566532, 3142566538, 3142566539, 3142566540, 3142566541, 3142566542, 3142566533, 3142566534, 3142566535, 3142566536, 3142566537, 3142566543], "tags": {"aeroway": "helipad"}}, {"type": "way", "id": 308994902, "center": {"lat": -23.0853679, "lon": -47.1829768}, "nodes": [3143064207, 3143064206, 3143064203, 3143064204, 3143064207], "tags": {"aeroway": "helipad", "ele": "601", "icao": "SIKH", "maxweight": "5.0", "name": "Hotel Vit\u00f3ria", "surface": "concrete"}}, {"type": "way", "id": 315706237, "center": {"lat": -22.9797655, "lon": -43.409424}, "nodes": [3218371308, 3218371309, 3218371310, 3218371311, 3218371308], "tags": {"aeroway": "helipad", "ele": "10", "icao": "SIHL", "maxweight": "9", "name": "Rio Centro", "surface": "concrete"}}, {"type": "way", "id": 316734931, "center": {"lat": -20.3325272, "lon": -40.3784154}, "nodes": [3228920378, 3228920377, 3228920371, 3228920376, 3228920378], "tags": {"aeroway": "helipad", "name": "Heliponto Hospital Meridional", "source": "IJSN", "surface": "concrete"}}, {"type": "way", "id": 317291500, "center": {"lat": -22.8660832, "lon": -43.2144261}, "nodes": [3235326907, 3235326911, 3235326908, 3235326909, 3235326910, 3235326907], "tags": {"aeroway": "helipad", "name": "Minerva", "source": "ourairports.com"}}, {"type": "way", "id": 318419145, "center": {"lat": -22.9295868, "lon": -47.0832705}, "nodes": [3248251217, 3248251218, 3248251219, 3248251216, 3248251217], "tags": {"aeroway": "helipad", "ele": "700", "icao": "SDYH", "maxweight": "6.0", "name": "Jos\u00e9 Roberto Magalh\u00e3es Teixeira", "surface": "concrete"}}, {"type": "way", "id": 318749352, "center": {"lat": -25.1954325, "lon": -49.319225}, "nodes": [3251214747, 3251214743, 3251214752, 3251214760, 3251214749, 3251214747], "tags": {"aeroway": "helipad", "ele": "934", "icao": "SJUT", "maxweight": "6.0", "name": "Cimento Rio Branco", "surface": "concrete"}}, {"type": "way", "id": 319045049, "center": {"lat": -22.9698441, "lon": -43.3773095}, "nodes": [3254611534, 3254611535, 3254611536, 3254611518, 3254611519, 3254611520, 3254611521, 3254611522, 3254611523, 3254611530, 3254611531, 3254611532, 3254611533, 3254611524, 3254611525, 3254611526, 3254611527, 3254611528, 3254611529, 3254611534], "tags": {"aeroway": "helipad"}}, {"type": "way", "id": 320110456, "center": {"lat": -22.9307261, "lon": -43.18526}, "nodes": [3266080935, 3266080938, 3266080937, 3266080936, 3266080935], "tags": {"aeroway": "helipad", "ele": "61", "icao": "SWLG", "maxweight": "4.5", "name": "Pal\u00e1cio Laranjeiras", "surface": "concrete"}}, {"type": "way", "id": 320313366, "center": {"lat": -25.5554799, "lon": -49.0300436}, "nodes": [3268167445, 3268167446, 3268167447, 3268167444, 3268167445], "tags": {"aeroway": "helipad", "name": "PRF"}}, {"type": "way", "id": 320729070, "center": {"lat": -23.5275666, "lon": -46.6654717}, "nodes": [3273657553, 3273657554, 3273657555, 3273657556, 3273657538, 3273657539, 3273657540, 3273657541, 3273657542, 3273657543, 3273657550, 3273657551, 3273657552, 3273657544, 3273657545, 3273657546, 3273657547, 3273657548, 3273657549, 3273657553], "tags": {"aeroway": "helipad"}}, {"type": "way", "id": 328839712, "center": {"lat": -23.1894743, "lon": -46.9310454}, "nodes": [3356641770, 3356641771, 3356641772, 3356641773, 3356641770], "tags": {"aeroway": "helipad"}}, {"type": "way", "id": 330594170, "center": {"lat": -23.5733053, "lon": -46.6554053}, "nodes": [5080378940, 3375721687, 3375721681, 3375721683, 5080378940], "tags": {"aeroway": "helipad", "ele": "806", "icao": "SICZ", "maxweight": "4.25", "name": "Edif\u00edcio Comercial Lorena", "surface": "concrete"}}, {"type": "way", "id": 330981947, "center": {"lat": -23.5260369, "lon": -46.7439723}, "nodes": [3380261606, 3380261605, 3380261604, 3380261607, 3380261606], "tags": {"aeroway": "helipad", "ele": "745", "icao": "SDSX", "maxweight": "6.0", "name": "ITM Expo", "surface": "metal"}}, {"type": "way", "id": 330997083, "center": {"lat": -23.5113639, "lon": -46.7043541}, "nodes": [3380463673, 3380463674, 3380463675, 3380463676, 3380463673], "tags": {"aeroway": "helipad", "ele": "743", "icao": "SIDE", "maxweight": "6.0", "name": "Pol\u00edcia Federal", "surface": "concrete"}}, {"type": "way", "id": 333705361, "center": {"lat": -23.1282453, "lon": -47.0032857}, "nodes": [3408021110, 3408021109, 3408021108, 3408021111, 3408021110], "tags": {"aeroway": "helipad", "ele": "756", "icao": "SIZZ", "maxweight": "5", "name": "Zez\u00e9", "surface": "grass"}}, {"type": "way", "id": 334048770, "center": {"lat": -22.4129808, "lon": -45.4367002}, "nodes": [3411279525, 3411279526, 3411279527, 3411279528, 3411279525], "tags": {"access": "private", "aeroway": "helipad", "note": "confirmation is required that the helipad have proper official ICAO code", "ref": "SNER"}}, {"type": "way", "id": 334053869, "center": {"lat": -27.5423237, "lon": -48.6245977}, "nodes": [3411337002, 3411336998, 3411336994, 3411336997, 3411337002], "tags": {"aeroway": "helipad", "ele": "19", "icao": "SNVX", "maxweight": "3.0", "name": "Helisul Slin", "surface": "concrete"}}, {"type": "way", "id": 334242589, "center": {"lat": -22.9969798, "lon": -43.3465458}, "nodes": [3413461059, 3413461060, 3413461061, 3413677744, 3413461062, 3413677760, 3413461059], "tags": {"aeroway": "helipad", "ele": "6", "icao": "SIYV", "maxweight": "5.0", "name": "M\u00e1rio Henrique Simonsen", "surface": "grass"}}, {"type": "way", "id": 334619467, "center": {"lat": -23.1751291, "lon": -46.9089972}, "nodes": [3416822639, 3416822638, 3416822637, 3416822636, 3416822639], "tags": {"aeroway": "helipad", "ele": "697", "icao": "SDJT", "maxweight": "3", "name": "J. Toledo", "surface": "concrete"}}, {"type": "way", "id": 334625987, "center": {"lat": -23.5723084, "lon": -46.6986127}, "nodes": [3416874069, 3416874068, 3416874067, 3416874066, 3416874069], "tags": {"aeroway": "helipad", "ele": "817", "icao": "SDEZ", "maxweight": "6.0", "name": "Unibanco Eus\u00e9bio Matoso", "surface": "concrete"}}, {"type": "way", "id": 334626234, "center": {"lat": -23.5655501, "lon": -46.7023165}, "nodes": [3416875711, 3416875710, 3416875709, 3416875708, 3416875711], "tags": {"aeroway": "helipad", "ele": "768", "icao": "SDNN", "maxweight": "3.0", "name": "Birmann 21", "surface": "concrete"}}, {"type": "way", "id": 334964680, "center": {"lat": -21.9512066, "lon": -47.8981171}, "nodes": [3420870827, 3420870826, 3420870823, 3420870824, 3420870827], "tags": {"access": "private", "aeroway": "helipad", "ele": "791", "icao": "SWDH", "maxweight": "15", "name": "Damha Golfe", "surface": "concrete"}}, {"type": "way", "id": 337206544, "center": {"lat": -22.9601071, "lon": -43.4059843}, "nodes": [3443042099, 3443042098, 3443042097, 8934524878, 3443042096, 3443042099], "tags": {"aeroway": "helipad", "ele": "27", "icao": "SJZK", "maxweight": "10.0", "name": "Heliponto Projac", "operator": "Estudios Globo", "surface": "concrete"}}, {"type": "way", "id": 337287428, "center": {"lat": -23.1713213, "lon": -46.9004249}, "nodes": [3443983935, 3443983936, 3443983937, 3443983938, 3443983935], "tags": {"aeroway": "helipad", "ele": "748", "icao": "SJPJ", "maxweight": "6.0", "name": "Prefeitura do Munic\u00edpio de Jundia\u00ed", "surface": "concrete"}}, {"type": "way", "id": 341942931, "center": {"lat": -26.2550141, "lon": -49.5114846}, "nodes": [3490007790, 3490007791, 3490007795, 3490007794, 3490007790], "tags": {"aeroway": "helipad"}}, {"type": "way", "id": 344137155, "center": {"lat": -23.654235, "lon": -46.7258279}, "nodes": [3508963667, 3508963668, 3508963669, 3508963670, 3508963667], "tags": {"aeroway": "helipad", "ele": "740", "icao": "SJAN", "maxweight": "6.0", "name": "Grupo Santander Banespa-Panam\u00e9rica Park", "surface": "grass"}}, {"type": "way", "id": 345807792, "center": {"lat": -21.2191482, "lon": -48.4411079}, "nodes": [3524638958, 3524638960, 3524638959, 3524638956, 3524638958], "tags": {"access": "private", "aeroway": "helipad"}}, {"type": "way", "id": 347355393, "center": {"lat": -28.1266033, "lon": -49.4789302}, "nodes": [3536918220, 3536918221, 3536918222, 3536918223, 3536918220], "tags": {"aeroway": "helipad"}}, {"type": "way", "id": 347397625, "center": {"lat": -24.029435, "lon": -46.4958741}, "nodes": [3537243957, 3537243946, 3537243932, 3537243938, 3537243957], "tags": {"aeroway": "helipad", "ele": "2", "icao": "SJRX", "maxweight": "10.0", "name": "Praia Grande", "surface": "concrete"}}, {"type": "way", "id": 347397684, "center": {"lat": -24.0343387, "lon": -46.4936684}, "nodes": [1042140109, 3537244271, 3537244276, 3537244282, 1042140109], "tags": {"aeroway": "helipad", "name": "Grupamento A\u00e9reo da Pol\u00edcia Militar", "source": "ourairports.com"}}, {"type": "way", "id": 349913009, "center": {"lat": -23.9633352, "lon": -46.4118774}, "nodes": [3556979014, 3556979017, 3556979012, 3556979009, 3556979014], "tags": {"access": "private", "aeroway": "helipad"}}, {"type": "way", "id": 353070461, "center": {"lat": -20.9639756, "lon": -40.8119043}, "nodes": [3588514536, 3588514537, 3588514538, 3588514539, 3588514536], "tags": {"aeroway": "helipad"}}, {"type": "way", "id": 353135440, "center": {"lat": -22.8449153, "lon": -47.0660467}, "nodes": [3589035511, 3589035510, 3589035508, 3589035509, 3589035511], "tags": {"aeroway": "helipad", "ele": "639", "icao": "SWDE", "maxweight": "6.0", "name": "Parque Dom Pedro", "surface": "asphalt"}}, {"type": "way", "id": 354859543, "center": {"lat": -25.4126471, "lon": -49.2683831}, "nodes": [3605117875, 3605117876, 3605117877, 3605117878, 3605117875], "tags": {"aeroway": "helipad"}}, {"type": "way", "id": 356303253, "center": {"lat": -23.4036599, "lon": -46.8311207}, "nodes": [3617566026, 3617566025, 3617566024, 3617566023, 3617566026], "tags": {"aeroway": "helipad", "ele": "736", "icao": "SJAO", "maxweight": "6.0", "name": "Natura", "surface": "concrete"}}, {"type": "way", "id": 356318891, "center": {"lat": -23.3848063, "lon": -46.8321163}, "nodes": [3617750687, 3617750686, 3617750684, 3617750685, 3617750687], "tags": {"aeroway": "helipad", "ele": "810", "icao": "SDEU", "maxweight": "4.0", "name": "Empresarial Anhanguera", "surface": "concrete"}}, {"type": "way", "id": 356369311, "center": {"lat": -23.5580515, "lon": -46.6520913}, "nodes": [3618300744, 3618300745, 3618300742, 3618300743, 3618300744], "tags": {"access": "private", "aeroway": "helipad", "ele": "862", "icao": "SJFC", "maxweight": "6.0", "name": "Federa\u00e7\u00e3o do Com\u00e9rcio do Estado de S\u00e3o Paulo", "surface": "concrete"}}, {"type": "way", "id": 356385647, "center": {"lat": -25.4492489, "lon": -49.2888568}, "nodes": [3618530932, 3618530931, 3618530930, 3618530929, 3618530932], "tags": {"aeroway": "helipad", "ele": "1010", "icao": "SWCT", "maxweight": "4", "name": "Laguna Igua\u00e7u", "surface": "metal"}}, {"type": "way", "id": 356877816, "center": {"lat": -23.9857037, "lon": -46.2844458}, "nodes": [1042137795, 3622807077, 3622807073, 3622807069, 1042137795], "tags": {"aeroway": "helipad", "ele": "2", "icao": "SDZB", "maxweight": "5.0", "name": "ICS - Guaruj\u00e1", "surface": "concrete"}}, {"type": "way", "id": 357555739, "center": {"lat": -23.1326493, "lon": -46.9280532}, "nodes": [3627814805, 3627814806, 3627814807, 3627814808, 3627814805], "tags": {"aeroway": "helipad", "ele": "768", "icao": "SDJM", "maxweight": "4.5", "name": "S\u00edtio Santo Ant\u00f4nio", "surface": "concrete"}}, {"type": "way", "id": 357571819, "center": {"lat": -23.5984182, "lon": -46.6223736}, "nodes": [3628026419, 3628026418, 3628026417, 3628026416, 3628026419], "tags": {"aeroway": "helipad", "ele": "757", "icao": "SIHD", "maxweight": "4.0", "name": "Divena", "surface": "concrete"}}, {"type": "way", "id": 358367047, "center": {"lat": -23.5697746, "lon": -46.6470391}, "nodes": [3632973164, 3632973165, 3632973166, 3632973167, 3632973164], "tags": {"aeroway": "helipad"}}, {"type": "way", "id": 359695681, "center": {"lat": -23.9721043, "lon": -46.3504016}, "nodes": [3643658435, 2614134960, 3643658432, 3643658434, 3643658435], "tags": {"aeroway": "helipad"}}, {"type": "way", "id": 360771752, "center": {"lat": -20.2569453, "lon": -40.2615579}, "nodes": [3653214160, 3653214164, 3653214162, 3653214158, 3653214160], "tags": {"aeroway": "helipad"}}, {"type": "way", "id": 360771753, "center": {"lat": -20.2569741, "lon": -40.261854}, "nodes": [3653214161, 3653214165, 3653214163, 3653214157, 3653214161], "tags": {"aeroway": "helipad"}}, {"type": "way", "id": 360771757, "center": {"lat": -20.2567681, "lon": -40.261701}, "nodes": [3653214154, 3653214156, 3653214159, 3653214155, 3653214154], "tags": {"aeroway": "helipad"}}, {"type": "way", "id": 361469920, "center": {"lat": -23.6554502, "lon": -46.5287059}, "nodes": [3659394381, 10928742283, 3659394380, 10928742282, 10928742279, 3659394379, 10928742278, 3659394382, 3659394381], "tags": {"aeroway": "helipad", "ele": "769", "icao": "SDHO", "level": "4", "maxweight": "4.2", "name": "Bradesco - Santo Andr\u00e9", "surface": "concrete"}}, {"type": "way", "id": 364305617, "center": {"lat": -20.2011553, "lon": -40.228178}, "nodes": [3683498630, 3683498636, 3683498631, 3683498628, 3683498523, 3683498630], "tags": {"aeroway": "helipad", "ele": "27", "icao": "SJAE", "maxweight": "5", "name": "Hospital Estadual Dr. Jayme Santos Neves", "surface": "concrete"}}, {"type": "way", "id": 365358076, "center": {"lat": -20.2075929, "lon": -40.2349297}, "nodes": [3693711054, 3693711055, 3693711057, 3693711056, 3693711054], "tags": {"aeroway": "helipad", "name": "Heliponto Eletrocity", "source": "ourairports.com"}}, {"type": "way", "id": 366608380, "center": {"lat": -22.7589979, "lon": -47.3246191}, "nodes": [3706003545, 3706003547, 3706003546, 3706003544, 3706003545], "tags": {"aeroway": "helipad"}}, {"type": "way", "id": 369084717, "center": {"lat": -26.5360686, "lon": -49.126384}, "nodes": [3729070179, 3729070178, 3729070181, 3729070180, 3729070179], "tags": {"aeroway": "helipad", "ele": "46", "icao": "SSFT", "maxweight": "3.0", "name": "Nanete T\u00eaxtil", "surface": "concrete"}}, {"type": "way", "id": 369084752, "center": {"lat": -26.5179756, "lon": -49.127254}, "nodes": [3729080816, 3729080815, 3729080814, 3729080817, 3729080816], "tags": {"aeroway": "helipad", "ele": "43", "icao": "SNYM", "maxweight": "10", "name": "Malwee", "surface": "concrete"}}, {"type": "way", "id": 369084812, "center": {"lat": -26.4867492, "lon": -49.0647654}, "nodes": [3729081391, 3729081392, 1042139228, 3729081394, 3729081391], "tags": {"aeroway": "helipad", "ele": "24", "icao": "SJDR", "maxweight": "6", "name": "Duas Rodas", "surface": "concrete"}}, {"type": "way", "id": 369084857, "center": {"lat": -26.4823118, "lon": -49.0640044}, "nodes": [3729081468, 3729081469, 3729081470, 3729081467, 3729081468], "tags": {"aeroway": "helipad", "ele": "50", "icao": "SIIM", "maxweight": "3.0", "name": "Marisol", "surface": "concrete"}}, {"type": "way", "id": 369084882, "center": {"lat": -26.4887956, "lon": -49.084642}, "nodes": [3729083222, 3729083221, 3729083220, 3729083223, 3729083222], "tags": {"aeroway": "helipad", "ele": "60", "icao": "SWLO", "maxweight": "6.0", "name": "Hospital S\u00e3o Jos\u00e9", "surface": "concrete"}}, {"type": "way", "id": 370811323, "center": {"lat": -23.1949726, "lon": -45.8745478},