{"version": 0.6, "generator": "Overpass API 0.7.61.5 4133829e", "osm3s": {"timestamp_osm_base": "2023-10-31T20:35:15Z", "copyright": "The data included in this document is from www.openstreetmap.org. The data is made available under ODbL."}, "elements": [{"type": "node", "id": 320025660, "lat": 35.0370409, "lon": -106.6059049, "tags": {"aeroway": "helipad", "source": "Yahoo"}}, {"type": "node", "id": 320033480, "lat": 35.1559907, "lon": -106.7930002, "tags": {"aeroway": "helipad", "layer": "1"}}, {"type": "node", "id": 320033559, "lat": 35.1583564, "lon": -106.793609, "tags": {"aeroway": "helipad", "created_by": "Potlatch 0.10f", "layer": "1"}}, {"type": "node", "id": 320033610, "lat": 35.1546021, "lon": -106.7951539, "tags": {"aeroway": "helipad", "created_by": "Potlatch 0.10f"}}, {"type": "node", "id": 368981849, "lat": 37.583893, "lon": -109.4818857, "tags": {"addr:state": "UT", "aeroway": "helipad", "ele": "1775", "gnis:county_name": "San Juan", "gnis:created": "02/25/1989", "gnis:feature_id": "1435160", "gnis:feature_type": "Airport", "name": "Blanding Heliport", "source_ref": "geonames.usgs.gov"}}, {"type": "node", "id": 369094843, "lat": 33.4914444, "lon": -109.3384127, "tags": {"addr:state": "AZ", "aeroway": "helipad", "ele": "2183", "gnis:county_name": "Greenlee", "gnis:created": "02/28/2000", "gnis:feature_id": "1853703", "gnis:feature_type": "Airport", "name": "P D Helisport", "source_ref": "geonames.usgs.gov", "wikidata": "Q49749104"}}, {"type": "node", "id": 369120332, "lat": 31.9969256, "lon": -102.0809337, "tags": {"addr:state": "TX", "aeroway": "helipad", "ele": "849", "gnis:county_name": "Midland", "gnis:created": "08/01/1994", "gnis:feature_id": "1384820", "gnis:feature_type": "Airport", "name": "BTA Heliport", "source_ref": "geonames.usgs.gov"}}, {"type": "node", "id": 369120999, "lat": 31.9334742, "lon": -105.20021, "tags": {"addr:state": "TX", "aeroway": "helipad", "ele": "1127", "gnis:county_name": "Hudspeth", "gnis:created": "08/01/1994", "gnis:feature_id": "1386530", "gnis:feature_type": "Airport", "name": "Dell City Heliport", "source_ref": "geonames.usgs.gov", "wikidata": "Q61720137"}}, {"type": "node", "id": 369121087, "lat": 31.7862193, "lon": -106.4369305, "tags": {"addr:state": "TX", "aeroway": "helipad", "ele": "1160", "gnis:county_name": "El Paso", "gnis:created": "08/01/1994", "gnis:feature_id": "1386607", "gnis:feature_type": "Airport", "name": "Reddington Building Heliport", "source_ref": "geonames.usgs.gov"}}, {"type": "node", "id": 369121088, "lat": 31.7337213, "lon": -106.3452611, "tags": {"addr:state": "TX", "aeroway": "helipad", "ele": "1122", "gnis:county_name": "El Paso", "gnis:created": "08/01/1994", "gnis:feature_id": "1386610", "gnis:feature_type": "Airport", "name": "Donald Wilcut Heliport", "source_ref": "geonames.usgs.gov"}}, {"type": "node", "id": 369121144, "lat": 31.2917921, "lon": -105.8508008, "tags": {"addr:state": "TX", "aeroway": "helipad", "ele": "1081", "gnis:county_name": "Hudspeth", "gnis:created": "08/01/1994", "gnis:feature_id": "1386648", "gnis:feature_type": "Airport", "name": "Fort Hancock Heliport", "source_ref": "geonames.usgs.gov"}}, {"type": "node", "id": 369122729, "lat": 31.1667957, "lon": -105.3591208, "tags": {"addr:state": "TX", "aeroway": "helipad", "ele": "1403", "gnis:county_name": "Hudspeth", "gnis:created": "08/01/1994", "gnis:feature_id": "1387546", "gnis:feature_type": "Airport", "name": "Sierra Blanca Heliport", "source_ref": "geonames.usgs.gov", "wikidata": "Q61721281"}}, {"type": "node", "id": 369158864, "lat": 35.7035762, "lon": -105.930583, "tags": {"addr:state": "NM", "aeroway": "helipad", "ele": "2198", "faa": "NM57", "gnis:county_name": "Santa Fe", "gnis:created": "09/01/1991", "gnis:feature_id": "937019", "gnis:feature_type": "Airport", "lit": "yes", "name": "Governors Residence Heliport", "source_ref": "geonames.usgs.gov", "surface": "concrete", "wikidata": "Q61675997"}}, {"type": "node", "id": 369158872, "lat": 33.3514713, "lon": -105.66304, "tags": {"addr:state": "NM", "aeroway": "helipad", "ele": "2078", "faa": "NM19", "fixme": "incorrect location", "gnis:county_name": "Lincoln", "gnis:created": "09/01/1991", "gnis:feature_id": "937015", "gnis:feature_type": "Airport", "name": "Ruidoso Heliport", "source_ref": "geonames.usgs.gov", "wikidata": "Q61675996"}}, {"type": "node", "id": 369158955, "lat": 35.0886487, "lon": -108.084507, "tags": {"addr:state": "NM", "aeroway": "helipad", "ele": "2447", "gnis:county_name": "Bernalillo", "gnis:created": "09/01/1991", "gnis:feature_id": "936895", "gnis:feature_type": "Airport", "name": "University of New Mexico Hospital Heliport", "source_ref": "geonames.usgs.gov"}}, {"type": "node", "id": 369158962, "lat": 32.8397107, "lon": -104.4014871, "tags": {"addr:state": "NM", "aeroway": "helipad", "ele": "1031", "faa": "NM45", "gnis:county_name": "Eddy", "gnis:created": "09/01/1991", "gnis:feature_id": "936905", "gnis:feature_type": "Airport", "name": "Pay Jay Number 1 Heliport", "source_ref": "geonames.usgs.gov", "wikidata": "Q61675884"}}, {"type": "node", "id": 369158967, "lat": 32.8403902, "lon": -104.400518, "tags": {"addr:state": "NM", "aeroway": "helipad", "ele": "1031", "faa": "NM46", "gnis:county_name": "Eddy", "gnis:created": "09/01/1991", "gnis:feature_id": "936906", "gnis:feature_type": "Airport", "lit": "no", "name": "Pay Jay Number 2 Heliport", "source_ref": "geonames.usgs.gov", "surface": "grass", "wikidata": "Q74844082"}}, {"type": "node", "id": 369159002, "lat": 31.7848237, "lon": -107.620855, "tags": {"addr:state": "NM", "aeroway": "helipad", "ele": "1221", "gnis:county_name": "Luna", "gnis:created": "09/01/1991", "gnis:feature_id": "936927", "gnis:feature_type": "Airport", "name": "Columbus Heliport (historical)", "source_ref": "geonames.usgs.gov"}}, {"type": "node", "id": 369159779, "lat": 33.4039931, "lon": -103.0879999, "tags": {"addr:state": "NM", "aeroway": "helipad", "ele": "1189", "gnis:county_name": "Curry", "gnis:created": "09/01/1991", "gnis:feature_id": "937032", "gnis:feature_type": "Airport", "name": "Hoffmann Helicopters Heliport", "source_ref": "geonames.usgs.gov"}}, {"type": "node", "id": 369165196, "lat": 39.8091235, "lon": -105.0484671, "tags": {"addr:state": "CO", "aeroway": "helipad", "ele": "1617", "gnis:county_name": "Jefferson", "gnis:created": "09/01/1994", "gnis:feature_id": "204246", "gnis:feature_type": "Airport", "name": "Public Service of Colorado Arvada Heliport", "source_ref": "geonames.usgs.gov"}}, {"type": "node", "id": 369165200, "lat": 37.45109, "lon": -104.5827737, "tags": {"addr:state": "CO", "aeroway": "helipad", "ele": "1937", "gnis:county_name": "Las Animas", "gnis:created": "09/01/1994", "gnis:feature_id": "204240", "gnis:feature_type": "Airport", "name": "Aguilar Heliport", "source_ref": "geonames.usgs.gov"}}, {"type": "node", "id": 369165417, "lat": 39.6710541, "lon": -104.9761948, "tags": {"aeroway": "helipad", "gnis:feature_id": "204341", "name": "Porter Adventist Hospital Heliport"}}, {"type": "node", "id": 369165430, "lat": 39.7213427, "lon": -104.9811726, "tags": {"addr:state": "CO", "aeroway": "helipad", "ele": "1607", "gnis:county_name": "Denver", "gnis:created": "09/01/1994", "gnis:feature_id": "204348", "gnis:feature_type": "Airport", "name": "KUSA Helistop", "source_ref": "geonames.usgs.gov"}}, {"type": "node", "id": 369165448, "lat": 37.2565103, "lon": -108.5022198, "tags": {"addr:state": "CO", "aeroway": "helipad", "ele": "2406", "gnis:county_name": "Montezuma", "gnis:created": "09/01/1994", "gnis:feature_id": "204323", "gnis:feature_type": "Airport", "name": "Mesa Verde Heliport", "source_ref": "geonames.usgs.gov", "wikidata": "Q74841180"}}, {"type": "node", "id": 369165460, "lat": 39.7270057, "lon": -104.985683, "tags": {"addr:city": "Denver", "addr:housenumber": "123", "addr:postcode": "80203", "addr:state": "CO", "addr:street": "East Speer Boulevard North", "aeroway": "helipad", "ele": "1601", "gnis:county_name": "Denver", "gnis:created": "09/01/1994", "gnis:feature_id": "204337", "gnis:feature_type": "Airport", "name": "Channel 7 Heliport", "source_ref": "geonames.usgs.gov"}}, {"type": "node", "id": 369165493, "lat": 38.7997059, "lon": -108.1678519, "tags": {"addr:state": "CO", "aeroway": "helipad", "ele": "1624", "gnis:county_name": "Delta", "gnis:created": "09/01/1994", "gnis:feature_id": "204334", "gnis:feature_type": "Airport", "name": "Point Creek Heliport", "source_ref": "geonames.usgs.gov", "wikidata": "Q74841205"}}, {"type": "node", "id": 369165531, "lat": 37.883046, "lon": -108.8345473, "tags": {"addr:state": "CO", "aeroway": "helipad", "ele": "2369", "gnis:county_name": "San Miguel", "gnis:created": "09/01/1994", "gnis:feature_id": "204375", "gnis:feature_type": "Airport", "name": "Egnar Heliport", "source_ref": "geonames.usgs.gov", "wikidata": "Q74841259"}}, {"type": "node", "id": 369165586, "lat": 39.7689568, "lon": -105.8470347, "tags": {"addr:state": "CO", "aeroway": "helipad", "ele": "3192", "gnis:county_name": "Clear Creek", "gnis:created": "09/01/1994", "gnis:feature_id": "204383", "gnis:feature_type": "Airport", "name": "Henderson Heliport", "source_ref": "geonames.usgs.gov", "wikidata": "Q74841286"}}, {"type": "node", "id": 369165588, "lat": 39.7935982, "lon": -105.764451, "tags": {"addr:state": "CO", "aeroway": "helipad", "ele": "3787", "gnis:county_name": "Clear Creek", "gnis:created": "09/01/1994", "gnis:feature_id": "204384", "gnis:feature_type": "Airport", "name": "Berthoud Pass Heliport", "source_ref": "geonames.usgs.gov", "wikidata": "Q74841283"}}, {"type": "node", "id": 369165604, "lat": 39.8320087, "lon": -106.0673439, "tags": {"addr:state": "CO", "aeroway": "helipad", "ele": "2819", "gnis:county_name": "Summit", "gnis:created": "09/01/1994", "gnis:feature_id": "204362", "gnis:feature_type": "Airport", "name": "Amax Mill Heliport", "source_ref": "geonames.usgs.gov", "wikidata": "Q74841243"}}, {"type": "node", "id": 369165607, "lat": 37.5997129, "lon": -108.6345407, "tags": {"addr:state": "CO", "aeroway": "helipad", "ele": "2323", "gnis:county_name": "Dolores", "gnis:created": "09/01/1994", "gnis:feature_id": "204364", "gnis:feature_type": "Airport", "name": "Pleasant View Heliport", "source_ref": "geonames.usgs.gov", "wikidata": "Q74841245"}}, {"type": "node", "id": 369165614, "lat": 39.7235793, "lon": -105.111264, "tags": {"addr:state": "CO", "aeroway": "helipad", "ele": "1694", "gnis:county_name": "Jefferson", "gnis:created": "09/01/1994", "gnis:feature_id": "204360", "gnis:feature_type": "Airport", "name": "Denver Federal Center Helistop", "source_ref": "geonames.usgs.gov", "wikidata": "Q49745907"}}, {"type": "node", "id": 369165626, "lat": 37.6269423, "lon": -107.8045099, "tags": {"addr:state": "CO", "aeroway": "helipad", "ele": "2667", "gnis:county_name": "La Plata", "gnis:created": "09/01/1994", "gnis:feature_id": "204367", "gnis:feature_type": "Airport", "name": "Purgatory Number One Heliport", "source_ref": "geonames.usgs.gov"}}, {"type": "node", "id": 369165627, "lat": 37.2030582, "lon": -107.8683993, "tags": {"addr:state": "CO", "aeroway": "helipad", "ele": "2025", "gnis:county_name": "La Plata", "gnis:created": "09/01/1994", "gnis:feature_id": "204366", "gnis:feature_type": "Airport", "name": "Animas Air Park Heliport", "source_ref": "geonames.usgs.gov"}}, {"type": "node", "id": 369165629, "lat": 37.241712, "lon": -107.8762247, "tags": {"addr:state": "CO", "aeroway": "helipad", "ele": "1999", "gnis:county_name": "La Plata", "gnis:created": "09/01/1994", "gnis:feature_id": "204368", "gnis:feature_type": "Airport", "name": "Mountain Bell-Durango Heliport", "source_ref": "geonames.usgs.gov", "wikidata": "Q74841253"}}, {"type": "node", "id": 369165630, "lat": 39.4727649, "lon": -106.0330738, "tags": {"addr:state": "CO", "aeroway": "helipad", "ele": "3069", "gnis:county_name": "Summit", "gnis:created": "09/01/1994", "gnis:feature_id": "204277", "gnis:feature_type": "Airport", "name": "Overlook Athletic Club Heliport", "source_ref": "geonames.usgs.gov", "wikidata": "Q74841115"}}, {"type": "node", "id": 369165636, "lat": 37.0183291, "lon": -103.882593, "tags": {"addr:city": "Branson", "addr:state": "CO", "aeroway": "helipad", "ele": "1911", "faa": "ZCA", "gnis:county_name": "Las Animas", "gnis:created": "09/01/1994", "gnis:feature_id": "204275", "gnis:feature_type": "Airport", "name": "Branson Heliport", "source_ref": "geonames.usgs.gov", "wikidata": "Q74841112"}}, {"type": "node", "id": 369165673, "lat": 39.8899858, "lon": -105.0880394, "tags": {"addr:state": "CO", "aeroway": "helipad", "ele": "1638", "gnis:county_name": "Jefferson", "gnis:created": "09/01/1994", "gnis:feature_id": "204284", "gnis:feature_type": "Airport", "name": "Prairie Dog Heliport", "source_ref": "geonames.usgs.gov"}}, {"type": "node", "id": 369165722, "lat": 39.7696611, "lon": -105.8500367, "tags": {"addr:state": "CO", "aeroway": "helipad", "ele": "3169", "gnis:county_name": "Larimer", "gnis:created": "09/01/1994", "gnis:feature_id": "204264", "gnis:feature_type": "Airport", "name": "Henderson Mine Heliport", "source_ref": "geonames.usgs.gov", "wikidata": "Q74841099"}}, {"type": "node", "id": 369165771, "lat": 38.9830655, "lon": -104.8025705, "tags": {"addr:state": "CO", "aeroway": "helipad", "ele": "2034", "gnis:county_name": "El Paso", "gnis:created": "09/01/1994", "gnis:feature_id": "204311", "gnis:feature_type": "Airport", "name": "Loral Aerospace Heliport", "source_ref": "geonames.usgs.gov"}}, {"type": "node", "id": 369165789, "lat": 39.7999865, "lon": -104.9010885, "tags": {"addr:state": "CO", "aeroway": "helipad", "ele": "1589", "gnis:county_name": "Adams", "gnis:created": "09/01/1994", "gnis:feature_id": "204320", "gnis:feature_type": "Airport", "name": "Bulk Mail Center Heliport", "source_ref": "geonames.usgs.gov"}}, {"type": "node", "id": 369165810, "lat": 39.042213, "lon": -104.3649653, "tags": {"addr:state": "CO", "aeroway": "helipad", "ele": "2080", "gnis:county_name": "El Paso", "gnis:created": "09/01/1994", "gnis:feature_id": "204296", "gnis:feature_type": "Airport", "name": "Peyton Heliport", "source_ref": "geonames.usgs.gov", "wikidata": "Q74841129"}}, {"type": "node", "id": 369165820, "lat": 38.4951621, "lon": -105.3115556, "tags": {"addr:state": "CO", "aeroway": "helipad", "ele": "1956", "gnis:county_name": "Fremont", "gnis:created": "09/01/1994", "gnis:feature_id": "204299", "gnis:feature_type": "Airport", "name": "Browns Fort Heliport", "source_ref": "geonames.usgs.gov", "wikidata": "Q74841130"}}, {"type": "node", "id": 369165868, "lat": 39.5567323, "lon": -105.077932, "tags": {"addr:state": "CO", "aeroway": "helipad", "ele": "1690", "gnis:county_name": "Arapahoe", "gnis:created": "09/01/1994", "gnis:feature_id": "204491", "gnis:feature_type": "Airport", "name": "Chatfield Dam Heliport", "source_ref": "geonames.usgs.gov"}}, {"type": "node", "id": 369165870, "lat": 39.5548952, "lon": -105.1617712, "tags": {"addr:state": "CO", "aeroway": "helipad", "ele": "1897", "gnis:county_name": "Jefferson", "gnis:created": "09/01/1994", "gnis:feature_id": "204492", "gnis:feature_type": "Airport", "name": "Lockheed Martin Deer Creek Heliport", "source_ref": "geonames.usgs.gov"}}, {"type": "node", "id": 369165877, "lat": 39.808029, "lon": -108.2311957, "tags": {"addr:state": "CO", "aeroway": "helipad", "ele": "2069", "gnis:county_name": "Rio Blanco", "gnis:created": "09/01/1994", "gnis:feature_id": "204511", "gnis:feature_type": "Airport", "name": "CB-1 Heliport", "source_ref": "geonames.usgs.gov"}}, {"type": "node", "id": 369165881, "lat": 39.5791535, "lon": -105.8700116, "tags": {"addr:state": "CO", "aeroway": "helipad", "ele": "3160", "gnis:county_name": "Summit", "gnis:created": "09/01/1994", "gnis:feature_id": "204517", "gnis:feature_type": "Airport", "name": "Inn Montezuma Heliport", "source_ref": "geonames.usgs.gov"}}, {"type": "node", "id": 369165891, "lat": 39.176793, "lon": -103.880336, "tags": {"addr:state": "CO", "aeroway": "helipad", "ele": "1821", "fixme": "location?", "gnis:county_name": "Elbert", "gnis:created": "09/01/1994", "gnis:feature_id": "204504", "gnis:feature_type": "Airport", "name": "Matheson Heliport", "source_ref": "geonames.usgs.gov", "wikidata": "Q74841512"}}, {"type": "node", "id": 369165919, "lat": 37.5205166, "lon": -103.329018, "tags": {"addr:state": "CO", "aeroway": "helipad", "ele": "1582", "gnis:county_name": "Las Animas", "gnis:created": "09/01/1994", "gnis:feature_id": "204469", "gnis:feature_type": "Airport", "name": "Platte Ranch Heliport", "source_ref": "geonames.usgs.gov"}}, {"type": "node", "id": 369165925, "lat": 39.6906893, "lon": -105.5045414, "tags": {"addr:state": "CO", "aeroway": "helipad", "ele": "3256", "gnis:county_name": "Clear Creek", "gnis:created": "09/01/1994", "gnis:feature_id": "204456", "gnis:feature_type": "Airport", "name": "Arapahoe Heliport", "source_ref": "geonames.usgs.gov", "wikidata": "Q74841424"}}, {"type": "node", "id": 369165929, "lat": 39.6366862, "lon": -105.2671837, "tags": {"addr:state": "CO", "aeroway": "helipad", "ele": "2226", "gnis:county_name": "Jefferson", "gnis:created": "09/01/1994", "gnis:feature_id": "204458", "gnis:feature_type": "Airport", "name": "Indian Hills Fire Department Heliport", "source_ref": "geonames.usgs.gov", "wikidata": "Q74841429"}}, {"type": "node", "id": 369165937, "lat": 37.8294557, "lon": -103.5154982, "tags": {"addr:state": "CO", "aeroway": "helipad", "ele": "1391", "gnis:county_name": "Otero", "gnis:created": "09/01/1994", "gnis:feature_id": "204480", "gnis:feature_type": "Airport", "name": "Carrica Ranch Heliport", "source_ref": "geonames.usgs.gov"}}, {"type": "node", "id": 369165952, "lat": 39.3410343, "lon": -104.4647076, "tags": {"addr:state": "CO", "aeroway": "helipad", "ele": "1939", "gnis:county_name": "Elbert", "gnis:created": "09/01/1994", "gnis:feature_id": "204471", "gnis:feature_type": "Airport", "name": "Elbert County Heliport", "source_ref": "geonames.usgs.gov", "wikidata": "Q74841450"}}, {"type": "node", "id": 369166025, "lat": 39.0858259, "lon": -106.2689112, "tags": {"addr:state": "CO", "aeroway": "helipad", "ele": "3058", "gnis:county_name": "Chaffee", "gnis:created": "09/01/1994", "gnis:feature_id": "204428", "gnis:feature_type": "Airport", "name": "Granite Heliport", "source_ref": "geonames.usgs.gov", "wikidata": "Q74841382"}}, {"type": "node", "id": 369166035, "lat": 39.1176138, "lon": -108.5321189, "tags": {"aeroway": "helipad", "faa": "28CO", "gnis:feature_id": "204425", "name": "BLM Fire Center Heliport", "source_ref": "geonames.usgs.gov", "wikidata": "Q74841372"}}, {"type": "node", "id": 369166075, "lat": 37.3497199, "lon": -108.151188, "tags": {"addr:state": "CO", "aeroway": "helipad", "ele": "2829", "gnis:county_name": "La Plata", "gnis:created": "09/01/1994", "gnis:feature_id": "204442", "gnis:feature_type": "Airport", "name": "Madden Peak Heliport", "source_ref": "geonames.usgs.gov", "wikidata": "Q74841403"}}, {"type": "node", "id": 369166155, "lat": 39.6872103, "lon": -105.3966608, "tags": {"addr:state": "CO", "aeroway": "helipad", "ele": "2489", "gnis:county_name": "Clear Creek", "gnis:created": "09/01/1994", "gnis:feature_id": "204392", "gnis:feature_type": "Airport", "name": "Ptarmigan Heliport", "source_ref": "geonames.usgs.gov"}}, {"type": "node", "id": 369166156, "lat": 39.6405438, "lon": -105.3963835, "tags": {"addr:state": "CO", "aeroway": "helipad", "ele": "2308", "gnis:county_name": "Jefferson", "gnis:created": "09/01/1994", "gnis:feature_id": "204393", "gnis:feature_type": "Airport", "name": "Greystone Heliport", "source_ref": "geonames.usgs.gov", "wikidata": "Q74841295"}}, {"type": "node", "id": 369166157, "lat": 39.8469313, "lon": -105.2822127, "tags": {"addr:state": "CO", "aeroway": "helipad", "ele": "2007", "gnis:county_name": "Jefferson", "gnis:created": "09/01/1994", "gnis:feature_id": "204419", "gnis:feature_type": "Airport", "name": "Schwartzwalder Heliport", "source_ref": "geonames.usgs.gov"}}, {"type": "node", "id": 369166158, "lat": 39.7099876, "lon": -105.2455452, "tags": {"addr:state": "CO", "aeroway": "helipad", "ele": "2244", "gnis:county_name": "Jefferson", "gnis:created": "09/01/1994", "gnis:feature_id": "204418", "gnis:feature_type": "Airport", "name": "Morton Heliport", "source_ref": "geonames.usgs.gov"}}, {"type": "node", "id": 369166159, "lat": 39.7346712, "lon": -105.205041, "tags": {"addr:state": "CO", "aeroway": "helipad", "ele": "1802", "gnis:county_name": "Jefferson", "gnis:created": "09/01/1994", "gnis:feature_id": "204421", "gnis:feature_type": "Airport", "name": "Lookout Center Parking Lot Heliport", "source_ref": "geonames.usgs.gov"}}, {"type": "node", "id": 369166163, "lat": 39.735021, "lon": -105.2067254, "tags": {"addr:state": "CO", "aeroway": "helipad", "ele": "1799", "gnis:county_name": "Jefferson", "gnis:created": "09/01/1994", "gnis:feature_id": "204420", "gnis:feature_type": "Airport", "name": "Lookout Center Rooftop Heliport", "source_ref": "geonames.usgs.gov"}}, {"type": "node", "id": 369166166, "lat": 39.4330374, "lon": -107.3844978, "tags": {"addr:state": "CO", "aeroway": "helipad", "ele": "3050", "gnis:county_name": "Garfield", "gnis:created": "09/01/1994", "gnis:feature_id": "204417", "gnis:feature_type": "Airport", "name": "Sunlite Heliport", "source_ref": "geonames.usgs.gov", "wikidata": "Q74841361"}}, {"type": "node", "id": 369166167, "lat": 39.5330379, "lon": -107.2844984, "tags": {"addr:state": "CO", "aeroway": "helipad", "ele": "2283", "gnis:county_name": "Garfield", "gnis:created": "09/01/1994", "gnis:feature_id": "204416", "gnis:feature_type": "Airport", "name": "Lookout Mountain Heliport", "source_ref": "geonames.usgs.gov", "wikidata": "Q74841359"}}, {"type": "node", "id": 369166177, "lat": 39.4291408, "lon": -104.6591092, "tags": {"addr:state": "CO", "aeroway": "helipad", "ele": "2043", "gnis:county_name": "Weld", "gnis:created": "09/01/1994", "gnis:feature_id": "204409", "gnis:feature_type": "Airport", "name": "Hilltop Heliport", "source_ref": "geonames.usgs.gov", "wikidata": "Q74841337"}}, {"type": "node", "id": 369166215, "lat": 39.8205419, "lon": -105.0541497, "tags": {"addr:state": "CO", "aeroway": "helipad", "ele": "1615", "gnis:county_name": "Jefferson", "gnis:created": "09/01/1994", "gnis:feature_id": "204624", "gnis:feature_type": "Airport", "name": "SF Heliport", "source_ref": "geonames.usgs.gov", "wikidata": "Q74841723"}}, {"type": "node", "id": 369166218, "lat": 38.1474998, "lon": -105.467224, "tags": {"addr:state": "CO", "aeroway": "helipad", "ele": "2405", "gnis:county_name": "Custer", "gnis:created": "09/01/1994", "gnis:feature_id": "204622", "gnis:feature_type": "Airport", "name": "Dan Riggs Memorial Heliport", "source_ref": "geonames.usgs.gov"}}, {"type": "node", "id": 369166225, "lat": 37.6830531, "lon": -107.7678418, "tags": {"addr:state": "CO", "aeroway": "helipad", "ele": "3368", "gnis:county_name": "Arapahoe", "gnis:created": "09/01/1994", "gnis:feature_id": "204631", "gnis:feature_type": "Airport", "name": "Coal Bank Pass Heliport", "source_ref": "geonames.usgs.gov", "wikidata": "Q74841735"}}, {"type": "node", "id": 369166226, "lat": 39.6997086, "lon": -106.7678149, "tags": {"addr:state": "CO", "aeroway": "helipad", "ele": "2566", "gnis:county_name": "Eagle", "gnis:created": "09/01/1994", "gnis:feature_id": "204630", "gnis:feature_type": "Airport", "name": "Castle Peak Heliport", "source_ref": "geonames.usgs.gov", "wikidata": "Q74841733"}}, {"type": "node", "id": 369166230, "lat": 38.9849922, "lon": -104.917481, "tags": {"addr:state": "CO", "aeroway": "helipad", "ele": "2809", "gnis:county_name": "Teller", "gnis:created": "09/01/1994", "gnis:feature_id": "204633", "gnis:feature_type": "Airport", "name": "Northfield Heliport", "source_ref": "geonames.usgs.gov", "wikidata": "Q74841737"}}, {"type": "node", "id": 369166261, "lat": 39.1122201, "lon": -102.5785317, "tags": {"addr:state": "CO", "aeroway": "helipad", "ele": "1389", "gnis:county_name": "Kit Carson", "gnis:created": "09/01/1994", "gnis:feature_id": "204593", "gnis:feature_type": "Airport", "name": "Sand Creek Heliport", "source_ref": "geonames.usgs.gov"}}, {"type": "node", "id": 369166269, "lat": 39.0494306, "lon": -105.5127988, "tags": {"addr:state": "CO", "aeroway": "helipad", "ele": "3413", "gnis:county_name": "Jefferson", "gnis:created": "09/01/1994", "gnis:feature_id": "204597", "gnis:feature_type": "Airport", "name": "Badger Mountain Heliport", "source_ref": "geonames.usgs.gov", "wikidata": "Q74841685"}}, {"type": "node", "id": 369166273, "lat": 37.9403835, "lon": -107.8502732, "tags": {"addr:state": "CO", "aeroway": "helipad", "ele": "2871", "fixme": "Confirm location", "gnis:county_name": "San Miguel", "gnis:created": "09/01/1994", "gnis:feature_id": "204599", "gnis:feature_type": "Airport", "name": "Doral-Telluride Heliport", "operator": "Telluride Helitrax", "source_ref": "geonames.usgs.gov"}}, {"type": "node", "id": 369166284, "lat": 37.3500021, "lon": -107.7678415, "tags": {"addr:state": "CO", "aeroway": "helipad", "ele": "2754", "gnis:county_name": "La Plata", "gnis:created": "09/01/1994", "gnis:feature_id": "204604", "gnis:feature_type": "Airport", "name": "Missionary Ridge Heliport", "source_ref": "geonames.usgs.gov", "wikidata": "Q74841705"}}, {"type": "node", "id": 369166287, "lat": 37.1875183, "lon": -104.4880401, "tags": {"addr:state": "CO", "aeroway": "helipad", "ele": "1806", "gnis:county_name": "Las Animas", "gnis:created": "09/01/1994", "gnis:feature_id": "204606", "gnis:feature_type": "Airport", "name": "Mount San Rafael Heliport", "source_ref": "geonames.usgs.gov"}}, {"type": "node", "id": 369166297, "lat": 38.7122117, "lon": -105.1424807, "tags": {"addr:state": "CO", "aeroway": "helipad", "ele": "2995", "gnis:county_name": "Teller", "gnis:created": "09/01/1994", "gnis:feature_id": "204611", "gnis:feature_type": "Airport", "name": "D B Smith Memorial Heliport", "source_ref": "geonames.usgs.gov", "wikidata": "Q74841712"}}, {"type": "node", "id": 369166306, "lat": 39.4997075, "lon": -105.1069813, "tags": {"addr:state": "CO", "aeroway": "helipad", "ele": "1743", "gnis:county_name": "Jefferson", "gnis:created": "09/01/1994", "gnis:feature_id": "204616", "gnis:feature_type": "Airport", "name": "Martin Heliport", "source_ref": "geonames.usgs.gov"}}, {"type": "node", "id": 369166313, "lat": 38.0163809, "lon": -108.0511808, "tags": {"addr:state": "CO", "aeroway": "helipad", "ele": "2243", "gnis:county_name": "San Miguel", "gnis:created": "09/01/1994", "gnis:feature_id": "204553", "gnis:feature_type": "Airport", "name": "Placerville Heliport", "source_ref": "geonames.usgs.gov", "wikidata": "Q74841597"}}, {"type": "node", "id": 369166325, "lat": 37.6830509, "lon": -108.0178498, "tags": {"addr:state": "CO", "aeroway": "helipad", "ele": "3165", "gnis:county_name": "Dolores", "gnis:created": "09/01/1994", "gnis:feature_id": "204566", "gnis:feature_type": "Airport", "name": "Rico Heliport", "source_ref": "geonames.usgs.gov", "wikidata": "Q74841639"}}, {"type": "node", "id": 369166349, "lat": 39.5830304, "lon": -108.951217, "tags": {"addr:state": "CO", "aeroway": "helipad", "ele": "2585", "gnis:county_name": "Rio Blanco", "gnis:created": "09/01/1994", "gnis:feature_id": "204563", "gnis:feature_type": "Airport", "name": "Baxter Pass Heliport", "source_ref": "geonames.usgs.gov", "wikidata": "Q74841626"}}, {"type": "node", "id": 369166369, "lat": 39.9141394, "lon": -108.5075953, "tags": {"addr:state": "CO", "aeroway": "helipad", "ele": "2110", "gnis:county_name": "Rio Blanco", "gnis:created": "09/01/1994", "gnis:feature_id": "204568", "gnis:feature_type": "Airport", "name": "Tract C-A Heliport", "source_ref": "geonames.usgs.gov"}}, {"type": "node", "id": 369166371, "lat": 39.699699, "lon": -107.9511841, "tags": {"addr:state": "CO", "aeroway": "helipad", "ele": "2547", "gnis:county_name": "Rio Blanco", "gnis:created": "09/01/1994", "gnis:feature_id": "204569", "gnis:feature_type": "Airport", "name": "Rio Blanco Heliport", "source_ref": "geonames.usgs.gov", "wikidata": "Q74841645"}}, {"type": "node", "id": 369166377, "lat": 37.7997189, "lon": -107.6678391, "tags": {"addr:state": "CO", "aeroway": "helipad", "ele": "2814", "gnis:county_name": "La Plata", "gnis:created": "09/01/1994", "gnis:feature_id": "204580", "gnis:feature_type": "Airport", "name": "Silverton Junction Heliport", "source_ref": "geonames.usgs.gov", "wikidata": "Q74841666"}}, {"type": "node", "id": 369166392, "lat": 39.6691493, "lon": -105.2197877, "tags": {"addr:state": "CO", "aeroway": "helipad", "ele": "2389", "gnis:county_name": "Jefferson", "gnis:created": "09/01/1994", "gnis:feature_id": "204524", "gnis:feature_type": "Airport", "name": "Mount Morrison Heliport", "source_ref": "geonames.usgs.gov"}}, {"type": "node", "id": 369166397, "lat": 38.7453938, "lon": -106.2004548, "tags": {"addr:state": "CO", "aeroway": "helipad", "ele": "3288", "gnis:county_name": "Chaffee", "gnis:created": "09/01/1994", "gnis:feature_id": "204525", "gnis:feature_type": "Airport", "name": "Mount Princeton Heliport", "source_ref": "geonames.usgs.gov", "wikidata": "Q74841547"}}, {"type": "node", "id": 369166399, "lat": 38.4544643, "lon": -107.865992, "tags": {"addr:state": "CO", "aeroway": "helipad", "crossing": "traffic_signals", "ele": "1782", "gnis:county_name": "Montrose", "gnis:created": "09/01/1994", "gnis:feature_id": "204520", "gnis:feature_type": "Airport", "highway": "crossing", "name": "Montrose BLM Heliport", "source_ref": "geonames.usgs.gov"}}, {"type": "node", "id": 369166401, "lat": 38.4658199, "lon": -107.8739514, "tags": {"addr:state": "CO", "aeroway": "helipad", "ele": "1775", "gnis:county_name": "Montrose", "gnis:created": "09/01/1994", "gnis:feature_id": "204519", "gnis:feature_type": "Airport", "name": "West Area Power Administration Operations Center Heliport", "source_ref": "geonames.usgs.gov"}}, {"type": "node", "id": 369166409, "lat": 38.099722, "lon": -106.2844725, "tags": {"addr:state": "CO", "aeroway": "helipad", "ele": "2620", "gnis:county_name": "San Miguel", "gnis:created": "09/01/1994", "gnis:feature_id": "204531", "gnis:feature_type": "Airport", "name": "Norwood Junction Heliport", "source_ref": "geonames.usgs.gov"}}, {"type": "node", "id": 369166429, "lat": 38.0844368, "lon": -107.7014486, "tags": {"addr:state": "CO", "aeroway": "helipad", "ele": "2218", "gnis:county_name": "Ouray", "gnis:created": "09/01/1994", "gnis:feature_id": "204543", "gnis:feature_type": "Airport", "name": "Ponderosa Heliport", "source_ref": "geonames.usgs.gov", "wikidata": "Q74841576"}}, {"type": "node", "id": 369166449, "lat": 39.0902589, "lon": -108.2217473, "tags": {"addr:state": "CO", "aeroway": "helipad", "ele": "3043", "gnis:county_name": "Mesa", "gnis:created": "09/01/1994", "gnis:feature_id": "204545", "gnis:feature_type": "Airport", "name": "Lands End Microwave Heliport", "source_ref": "geonames.usgs.gov", "wikidata": "Q74841580"}}, {"type": "node", "id": 369166453, "lat": 39.4163671, "lon": -108.1011882, "tags": {"addr:state": "CO", "aeroway": "helipad", "ele": "1669", "gnis:county_name": "Garfield", "gnis:created": "09/01/1994", "gnis:feature_id": "204547", "gnis:feature_type": "Airport", "name": "Grand Valley Heliport", "source_ref": "geonames.usgs.gov", "wikidata": "Q74841586"}}, {"type": "node", "id": 856281639, "lat": 38.7542527, "lon": -105.1766808, "tags": {"aeroway": "helipad", "ref": "Memorial Star LZ"}}, {"type": "node", "id": 856281773, "lat": 38.7105523, "lon": -105.1322933, "tags": {"aeroway": "helipad", "ref": "Victor FFL LZ"}}, {"type": "node", "id": 1042133811, "lat": 39.0907899, "lon": -104.543978, "tags": {"aeroway": "helipad", "name": "Rotor Leasing Heliport", "source": "ourairports.com", "wikidata": "Q74841264"}}, {"type": "node", "id": 1042133928, "lat": 39.0969009, "lon": -108.5999985, "tags": {"aeroway": "helipad", "name": "Monument Heliport", "source": "ourairports.com"}}, {"type": "node", "id": 1042134146, "lat": 39.551541, "lon": -104.5055929, "tags": {"aeroway": "helipad", "name": "Houston Heliport", "source": "ourairports.com"}}, {"type": "node", "id": 1042134348, "lat": 39.7938995, "lon": -105.4940033, "tags": {"aeroway": "helipad", "name": "Miner's Mesa Heliport", "source": "ourairports.com", "wikidata": "Q74841105"}}, {"type": "node", "id": 1042142012, "lat": 37.8527985, "lon": -107.5749969, "tags": {"aeroway": "helipad", "name": "K2 Heliport Nr 1a Heliport", "source": "ourairports.com", "wikidata": "Q74841663"}}, {"type": "node", "id": 1042142726, "lat": 39.3444336, "lon": -104.8417005, "tags": {"aeroway": "helipad", "name": "Rampart Heliport", "source": "ourairports.com", "wikidata": "Q74841147"}}, {"type": "node", "id": 1042142822, "lat": 38.4777985, "lon": -105.5210037, "tags": {"aeroway": "helipad", "name": "Prospect Peak Heliport", "source": "ourairports.com", "wikidata": "Q74841696"}}, {"type": "node", "id": 1042142825, "lat": 38.4540927, "lon": -105.2862381, "tags": {"aeroway": "helipad", "name": "Fremont Peak Heliport", "source": "ourairports.com", "wikidata": "Q74841134"}}, {"type": "node", "id": 1042144304, "lat": 32.8220878, "lon": -109.7352434, "tags": {"aeroway": "helipad", "faa": "AZ44", "name": "Mount Graham Regional Medical Center Heliport", "surface": "paved", "wikidata": "Q74840902"}}, {"type": "node", "id": 1042144553, "lat": 39.3525009, "lon": -105.0070038, "tags": {"aeroway": "helipad", "name": "Red Canyon Ranch Heliport", "source": "ourairports.com", "wikidata": "Q74841150"}}, {"type": "node", "id": 1042144588, "lat": 38.624567, "lon": -105.516017, "tags": {"aeroway": "helipad", "name": "Hecox Heliport", "source": "ourairports.com", "wikidata": "Q74841393"}}, {"type": "node", "id": 1042145163, "lat": 38.8488998, "lon": -104.8079987, "tags": {"aeroway": "helipad", "name": "St Francis Hospital Heliport", "source": "ourairports.com"}}, {"type": "node", "id": 1042152672, "lat": 34.4444008, "lon": -100.2180023, "tags": {"aeroway": "helipad", "name": "Childress Regional Medical Center Heliport", "source": "ourairports.com"}}, {"type": "node", "id": 1042153078, "lat": 38.5421982, "lon": -109.5189972, "tags": {"aeroway": "helipad", "name": "Two Jays Nr 1 Heliport", "source": "ourairports.com", "wikidata": "Q61725195"}}, {"type": "node", "id": 1042153100, "lat": 38.7601895, "lon": -109.7470135, "tags": {"aeroway": "helipad", "name": "Allen Memorial Hospital Heliport", "source": "ourairports.com"}}, {"type": "node", "id": 1042153139, "lat": 37.6379135, "lon": -109.4840196, "tags": {"aeroway": "helipad", "name": "Blanding Ambulance Heliport", "source": "ourairports.com", "wikidata": "Q61725131"}}, {"type": "node", "id": 1042153619, "lat": 33.473999, "lon": -101.987999, "tags": {"aeroway": "helipad", "name": "Mdr 1 Heliport", "source": "ourairports.com", "wikidata": "Q61720768"}}, {"type": "node", "id": 1298979755, "lat": 35.2099029, "lon": -106.44818, "tags": {"aeroway": "helipad", "emergency": "landing_site", "name": "Sandia Peak Helispot", "ref": "SAN", "surface": "asphalt"}}, {"type": "node", "id": 1437768656, "lat": 39.472343, "lon": -105.4029636, "tags": {"aeroway": "helipad"}}, {"type": "node", "id": 1440925195, "lat": 39.5637749, "lon": -105.2401511, "tags": {"aeroway": "helipad"}}, {"type": "node", "id": 1492560200, "lat": 32.6395369, "lon": -105.6920319, "tags": {"aeroway": "helipad", "lit": "no", "ref": "H1", "surface": "concrete"}}, {"type": "node", "id": 1612442604, "lat": 39.5026357, "lon": -106.1524909, "tags": {"aeroway": "helipad"}}, {"type": "node", "id": 1624764009, "lat": 39.4374362, "lon": -105.4616152, "tags": {"aeroway": "helipad"}}, {"type": "node", "id": 1625903495, "lat": 39.4981462, "lon": -105.334665, "tags": {"aeroway": "helipad"}}, {"type": "node", "id": 1775760581, "lat": 31.9052637, "lon": -109.2762694, "tags": {"aeroway": "helipad", "fixme": "survey", "name": "Rustler Park Helispot"}}, {"type": "node", "id": 1780003195, "lat": 31.8972104, "lon": -109.2901106, "tags": {"aeroway": "helipad", "name": "Helispot 20", "ref": "20"}}, {"type": "node", "id": 1792565859, "lat": 31.8624418, "lon": -109.2973774, "tags": {"aeroway": "helipad", "name": "Helispot 31"}}, {"type": "node", "id": 1792565860, "lat": 31.8506373, "lon": -109.2878278, "tags": {"aeroway": "helipad", "alt_name": "Helispot 9", "name": "Chiricahua Vista Helispot", "source": "survey", "tourism": "viewpoint"}}, {"type": "node", "id": 1792566237, "lat": 31.8296953, "lon": -109.202956, "tags": {"aeroway": "helipad", "name": "Horseshoe Saddle Helispot"}}, {"type": "node", "id": 1825912618, "lat": 31.8822228, "lon": -109.2684573, "tags": {"aeroway": "helipad", "name": "Centella Point Helispot"}}, {"type": "node", "id": 1860791164, "lat": 39.6702455, "lon": -105.2200454, "tags": {"aeroway": "helipad", "name": "Mount Morrison Heliport"}}, {"type": "node", "id": 1966966251, "lat": 32.2631959, "lon": -109.2240948, "tags": {"aeroway": "helipad", "source": "Bing"}}, {"type": "node", "id": 1976694850, "lat": 32.9242718, "lon": -108.1796359, "tags": {"aeroway": "helipad", "source": "Bing"}}, {"type": "node", "id": 2024219802, "lat": 32.4414025, "lon": -104.2574416, "tags": {"aeroway": "helipad"}}, {"type": "node", "id": 2059353771, "lat": 32.4388617, "lon": -103.0750971, "tags": {"aeroway": "helipad"}}, {"type": "node", "id": 2112891239, "lat": 34.1825275, "lon": -102.5681517, "tags": {"aeroway": "helipad"}}, {"type": "node", "id": 2161941290, "lat": 31.8455126, "lon": -109.278595, "tags": {"aeroway": "helipad", "name": "Helispot 82", "source:name": "local_knowledge"}}, {"type": "node", "id": 2172387179, "lat": 31.3646167, "lon": -109.5940785, "tags": {"aeroway": "helipad"}}, {"type": "node", "id": 2217683839, "lat": 31.869507, "lon": -109.3512634, "tags": {"aeroway": "helipad", "fixme": "survey"}}, {"type": "node", "id": 2272269120, "lat": 31.8249354, "lon": -109.3155954, "tags": {"aeroway": "helipad", "name": "Monte Vista Peak Helispot", "source": "Bing"}}, {"type": "node", "id": 2277261514, "lat": 39.8948549, "lon": -105.7700239, "tags": {"aeroway": "helipad", "name": "Winter Park Resort emergency helipad"}}, {"type": "node", "id": 2323940249, "lat": 39.5074966, "lon": -107.309566, "tags": {"aeroway": "helipad"}}, {"type": "node", "id": 2344841899, "lat": 35.1557185, "lon": -106.7933397, "tags": {"aeroway": "helipad", "layer": "1"}}, {"type": "node", "id": 2381976354, "lat": 37.2742196, "lon": -107.0640041, "tags": {"aeroway": "helipad"}}, {"type": "node", "id": 2392473426, "lat": 39.1301683, "lon": -108.5405169, "tags": {"aeroway": "helipad"}}, {"type": "node", "id": 2392473458, "lat": 39.122056, "lon": -108.5241132, "tags": {"aeroway": "helipad"}}, {"type": "node", "id": 2392473552, "lat": 39.1282377, "lon": -108.5379964, "tags": {"aeroway": "helipad"}}, {"type": "node", "id": 2392473596, "lat": 39.1221665, "lon": -108.5243161, "tags": {"aeroway": "helipad"}}, {"type": "node", "id": 2534450518, "lat": 35.1673465, "lon": -107.899031, "tags": {"aeroway": "helipad", "name": "Grants Helipad", "ref": "GRANTS"}}, {"type": "node", "id": 2535264065, "lat": 31.9052785, "lon": -109.198187, "tags": {"aeroway": "helipad", "name": "Silver Peak Helispot", "source": "survey"}}, {"type": "node", "id": 2576571575, "lat": 39.2159621, "lon": -103.6940436, "tags": {"aeroway": "helipad"}}, {"type": "node", "id": 2630755042, "lat": 38.4990912, "lon": -107.8966757, "tags": {"aeroway": "helipad", "name": "Montrose Regional Airport", "source": "Bing"}}, {"type": "node", "id": 2774198878, "lat": 39.6642772, "lon": -104.8598461, "tags": {"aeroway": "helipad", "source": "Bing"}}, {"type": "node", "id": 2878150133, "lat": 33.7875139, "lon": -107.472129, "tags": {"aeroway": "helipad", "name": "Grassy Mountain", "ref": "901", "source": "Bing"}}, {"type": "node", "id": 3277932199, "lat": 32.8501671, "lon": -109.641079, "tags": {"aeroway": "helipad"}}, {"type": "node", "id": 3277932225, "lat": 32.8510459, "lon": -109.6402349, "tags": {"aeroway": "helipad"}}, {"type": "node", "id": 3277932248, "lat": 32.8513865, "lon": -109.6402339, "tags": {"aeroway": "helipad"}}, {"type": "node", "id": 3277932271, "lat": 32.8515699, "lon": -109.6407654, "tags": {"aeroway": "helipad"}}, {"type": "node", "id": 3277932340, "lat": 32.852295, "lon": -109.6417271, "tags": {"aeroway": "helipad"}}, {"type": "node", "id": 3441942553, "lat": 34.05588, "lon": -108.0835832, "tags": {"aeroway": "helipad", "name": "Horse Mountain Safety Center Helipad"}}, {"type": "node", "id": 3487756867, "lat": 32.2446829, "lon": -109.8252814, "tags": {"aeroway": "helipad"}}, {"type": "node", "id": 3673052616, "lat": 35.1570862, "lon": -103.7220304, "tags": {"aeroway": "helipad", "name": "Dr Dan C Trigg Memorial Hospital", "source": "Bing"}}, {"type": "node", "id": 3684907272, "lat": 35.1818667, "lon": -103.6101285, "tags": {"aeroway": "helipad", "name": "Tucumcari Municipal Airport", "source": "Bing"}}, {"type": "node", "id": 3696236230, "lat": 34.4195992, "lon": -103.2351011, "tags": {"aeroway": "helipad", "source": "Bing"}}, {"type": "node", "id": 3696236232, "lat": 34.4196014, "lon": -103.2348221, "tags": {"aeroway": "helipad", "source": "Bing"}}, {"type": "node", "id": 3726094188, "lat": 38.5322099, "lon": -107.6849742, "tags": {"aeroway": "helipad", "source": "Bing"}}, {"type": "node", "id": 3761784941, "lat": 31.4326348, "lon": -109.8697341, "tags": {"aeroway": "helipad"}}, {"type": "node", "id": 3950809106, "lat": 34.96585, "lon": -106.3812709, "tags": {"access": "no", "aeroway": "helipad", "ref": "HLZ A"}}, {"type": "node", "id": 3950810086, "lat": 34.9721652, "lon": -106.41491, "tags": {"access": "no", "aeroway": "helipad", "emergency": "landing_site", "note": "Sole se Mete Pk LZ", "ref": "HLZ 2"}}, {"type": "node", "id": 3950810093, "lat": 34.9737534, "lon": -106.4922643, "tags": {"access": "no", "aeroway": "helipad", "ref": "HLZ Judge"}}, {"type": "node", "id": 3950810153, "lat": 34.9868534, "lon": -106.4896884, "tags": {"access": "no", "aeroway": "helipad", "ref": "HLZ Bobbit"}}, {"type": "node", "id": 3950810159, "lat": 34.9890649, "lon": -106.4831217, "tags": {"access": "no", "aeroway": "helipad", "ref": "HLZ Samek"}}, {"type": "node", "id": 4176832905, "lat": 33.2298577, "lon": -107.845066, "tags": {"aeroway": "helipad", "source": "Bing"}}, {"type": "node", "id": 4497351192, "lat": 35.5176936, "lon": -100.4572371, "tags": {"aeroway": "helipad"}}, {"type": "node", "id": 4501327296, "lat": 39.7326529, "lon": -104.588649, "tags": {"aeroway": "helipad"}}, {"type": "node", "id": 4549662495, "lat": 39.0599273, "lon": -100.2440475, "tags": {"aeroway": "helipad"}}, {"type": "node", "id": 4758047183, "lat": 38.534752, "lon": -105.9872974, "tags": {"aeroway": "helipad"}}, {"type": "node", "id": 5874002617, "lat": 38.6764257, "lon": -108.9786226, "tags": {"aeroway": "helipad"}}, {"type": "node", "id": 5893814448, "lat": 39.9335795, "lon": -105.6830156, "tags": {"aeroway": "helipad", "emergency": "yes", "name": "Rollins Pass Emergency Landing Zone"}}, {"type": "node", "id": 6296365957, "lat": 36.0145022, "lon": -106.9666994, "tags": {"aeroway": "helipad", "name": "Cuba HC Heliport"}}, {"type": "node", "id": 6304939523, "lat": 33.514745, "lon": -101.7873491, "tags": {"aeroway": "helipad"}}, {"type": "node", "id": 6500952586, "lat": 35.0710871, "lon": -106.3802407, "tags": {"aeroway": "helipad"}}, {"type": "node", "id": 6500952587, "lat": 35.0708351, "lon": -106.3800355, "tags": {"aeroway": "helipad"}}, {"type": "node", "id": 6591926525, "lat": 31.7536715, "lon": -107.6229849, "tags": {"aeroway": "helipad"}}, {"type": "node", "id": 7059916116, "lat": 35.8803071, "lon": -106.6794709, "tags": {"aeroway": "helipad", "emergency": "landing_site", "faa": "FH", "name": "Fenton Hill Helispot", "operator": "USFS", "ref": "FH", "surface": "concrete"}}, {"type": "node", "id": 7157553682, "lat": 32.8216312, "lon": -109.7361285, "tags": {"aeroway": "helipad"}}, {"type": "node", "id": 7157553683, "lat": 32.8216366, "lon": -109.7357777, "tags": {"aeroway": "helipad"}}, {"type": "node", "id": 7170705072, "lat": 31.4006075, "lon": -103.5145931, "tags": {"aeroway": "helipad"}}, {"type": "node", "id": 7170783533, "lat": 31.4020995, "lon": -103.5135093, "tags": {"aeroway": "helipad"}}, {"type": "node", "id": 7185473891, "lat": 37.9702041, "lon": -100.8678113, "tags": {"aeroway": "helipad"}}, {"type": "node", "id": 7331916635, "lat": 31.1137079, "lon": -102.211265, "tags": {"aeroway": "helipad"}}, {"type": "node", "id": 7333680643, "lat": 30.9060381, "lon": -102.881062, "tags": {"aeroway": "helipad"}}, {"type": "node", "id": 7498797766, "lat": 38.4903416, "lon": -100.482092, "tags": {"aeroway": "helipad", "ref": "H1", "surface": "concrete"}}, {"type": "node", "id": 7504216655, "lat": 32.776438, "lon": -106.1783861, "tags": {"aeroway": "helipad", "name": "White Sands National Monument", "tourism": "museum", "website": "https://www.nps.gov/whsa/planyourvisit/visitor-center.htm"}}, {"type": "node", "id": 7599397137, "lat": 36.3702499, "lon": -100.7995297, "tags": {"aeroway": "helipad"}}, {"type": "node", "id": 7989196086, "lat": 38.7032747, "lon": -104.5233056, "tags": {"aeroway": "helipad", "fixme": "Location incorrect? Based on FAA data.", "lit": "no", "name": "Falcon Air Force Base Helipad", "operator": "US Air Force", "ref": "CO79", "surface": "grass", "wikidata": "Q74841162"}}, {"type": "node", "id": 8207719844, "lat": 32.3504164, "lon": -104.25146, "tags": {"aeroway": "helipad", "faa": "NM95", "lit": "yes", "name": "Careflight 25 Heliport", "surface": "concrete", "wikidata": "Q61675894"}}, {"type": "node", "id": 8207719849, "lat": 36.1163512, "lon": -103.0968788, "tags": {"aeroway": "helipad", "faa": "30NM", "lit": "no", "name": "Crusader Heliport", "surface": "grass", "wikidata": "Q61676000"}}, {"type": "node", "id": 8367850095, "lat": 34.9836214, "lon": -106.0121155, "tags": {"aeroway": "helipad"}}, {"type": "node", "id": 8557088713, "lat": 39.575454, "lon": -104.846968, "tags": {"aeroway": "helipad"}}, {"type": "node", "id": 8574951444, "lat": 39.5835844, "lon": -104.8467594, "tags": {"aeroway": "helipad"}}, {"type": "node", "id": 8829358460, "lat": 38.9219038, "lon": -105.0251024, "tags": {"aeroway": "helipad"}}, {"type": "node", "id": 8829358461, "lat": 38.921675, "lon": -105.024981, "tags": {"aeroway": "helipad"}}, {"type": "node", "id": 9047130054, "lat": 35.7859197, "lon": -106.2720795, "tags": {"aeroway": "helipad", "name": "Upper Bandelier", "surface": "unpaved"}}, {"type": "node", "id": 9079801639, "lat": 39.7301084, "lon": -105.203831, "tags": {"aeroway": "helipad"}}, {"type": "node", "id": 9208346061, "lat": 35.1522377, "lon": -106.7978027, "tags": {"aeroway": "helipad"}}, {"type": "node", "id": 9217067090, "lat": 35.1524218, "lon": -106.7975497, "tags": {"aeroway": "helipad"}}, {"type": "node", "id": 9217067091, "lat": 35.1519715, "lon": -106.7980389, "tags": {"aeroway": "helipad"}}, {"type": "node", "id": 9961059439, "lat": 35.0409892, "lon": -106.604108, "tags": {"aeroway": "helipad", "source": "Bing"}}, {"type": "node", "id": 10111845019, "lat": 31.8357309, "lon": -106.327486, "tags": {"aeroway": "helipad", "name": "William Beaumont Army Medical Center Helipad"}}, {"type": "node", "id": 10184466969, "lat": 35.1085022, "lon": -106.6052878, "tags": {"aeroway": "helipad"}}, {"type": "node", "id": 10233506655, "lat": 32.8382758, "lon": -105.994665, "tags": {"aeroway": "helipad"}}, {"type": "node", "id": 10778685586, "lat": 39.720822, "lon": -105.6950452, "tags": {"aeroway": "helipad"}}, {"type": "way", "id": 77612554, "center": {"lat": 33.5887333, "lon": -101.8938919}, "nodes": [913210696, 913210699, 913210702, 913210705, 913210696], "tags": {"aeroway": "helipad"}}, {"type": "way", "id": 106595732, "center": {"lat": 32.3808893, "lon": -106.4728081}, "nodes": [1226189694, 1226189695, 1226189696, 1226189697, 1226189694], "tags": {"addr:city": "White Sands", "addr:postcode": "88002", "addr:state": "NM", "aeroway": "helipad", "name": "JFK Helipad"}}, {"type": "way", "id": 106595782, "center": {"lat": 32.3820932, "lon": -106.4882907}, "nodes": [1226189974, 1226189975, 1226189976, 1226189977, 1226189974], "tags": {"addr:city": "White Sands", "addr:postcode": "88002", "addr:state": "NM", "aeroway": "helipad", "name": "Medical Helipad", "source": "NAIP"}}, {"type": "way", "id": 107141648, "center": {"lat": 32.9132018, "lon": -107.7662345}, "nodes": [1231837997, 1231837999, 1231838001, 1231838002, 1231837997], "tags": {"aeroway": "helipad", "name": "Emory Pass Helipad"}}, {"type": "way", "id": 107141675, "center": {"lat": 32.952625, "lon": -107.7792931}, "nodes": [1231838329, 1231838330, 1231838331, 1231838332, 1231838329], "tags": {"aeroway": "helipad", "name": "Hillsboro Peak Helipad"}}, {"type": "way", "id": 129172277, "center": {"lat": 39.7282984, "lon": -104.9905051}, "nodes": [3399792117, 3399792135, 3399792118, 3399792131, 3399792119, 3399792120, 1425753869, 3399792134, 1425753883, 3399792132, 1425753907, 1425753893, 3399793359, 3399793358, 2626208608, 3399793360, 2626208604, 3399793361, 2626208606, 2626208605, 2626208607, 3399793364, 3399793363, 3399793362, 1425753857, 3399792125, 3399792137, 1425753851, 3399792126, 1425753898, 3399792127, 1425753886, 3399792128, 3399792136, 1425753900, 3399792129, 1425753850, 3399792130, 3399792117], "tags": {"addr:city": "Denver", "addr:housenumber": "777", "addr:postcode": "80204", "addr:street": "Bannock Street", "aeroway": "helipad", "faa": "CO35", "name": "Denver Health Heliport", "rooftop": "yes", "surface": "concrete", "wikidata": "Q61665384"}}, {"type": "way", "id": 142564785, "center": {"lat": 33.1406819, "lon": -107.2409485}, "nodes": [1560139374, 1560139397, 1560139430, 1560139367, 1560139374], "tags": {"aeroway": "helipad", "faa": "NM22", "lit": "no", "name": "Sierra Vista Hospital Heliport", "note": "Appears to have formerly been located on the south side of hospital", "ref": "NM22", "source": "imagery", "surface": "asphalt", "wikidata": "Q61676012"}}, {"type": "way", "id": 156304787, "center": {"lat": 35.6538556, "lon": -105.1473276}, "nodes": [1685721241, 8231610858, 1685721243, 1685721242, 1685721226, 1685721241], "tags": {"aeroway": "helipad"}}, {"type": "way", "id": 160839651, "center": {"lat": 31.7319617, "lon": -108.9816709}, "nodes": [1728554957, 1728554931, 1728554960, 1728554935, 1728554949, 1728554928, 1728554953, 1728554930, 1728554946, 1728554933, 1728554950, 1728554951, 1728554952, 1728554955, 1728554945, 1728554958, 1728554947, 1728554948, 1728554957], "tags": {"aeroway": "helipad"}}, {"type": "way", "id": 165925787, "center": {"lat": 35.0819891, "lon": -106.6341296}, "nodes": [1774344174, 2794007690, 1774344175, 1774344173, 1774344172, 1774344174], "tags": {"aeroway": "helipad", "faa": "NM39", "lit": "no", "name": "Presbyterian Hospital Heliport", "surface": "concrete", "wikidata": "Q61724263"}}, {"type": "way", "id": 174853310, "center": {"lat": 31.8529251, "lon": -102.3637895}, "nodes": [1855043183, 1855043182, 1855043180, 1855043181, 1855043183], "tags": {"aeroway": "helipad", "name": "Odessa Regional Medical Center Helipad"}}, {"type": "way", "id": 180080935, "center": {"lat": 33.4211926, "lon": -108.1146008}, "nodes": [1905139211, 1905139209, 1905139199, 1905139206, 1905139218, 1905139198, 1905139217, 1905139216, 1905139207, 1905139212, 1905139219, 1905139214, 1905139197, 1905139208, 1905139196, 1905139210, 1905139195, 1905139215, 1905139211], "tags": {"aeroway": "helipad", "ele": "2099", "name": "Beaverhead Heliport", "operator": "USFS", "ref": "H403", "source": "bing", "surface": "paved"}}, {"type": "way", "id": 188282464, "center": {"lat": 32.2645125, "lon": -109.8378953}, "nodes": [1989019928, 1989019883, 1989019884, 1989019930, 1989019928], "tags": {"aeroway": "helipad", "ele": "1274", "faa": "AZ16", "gnis:county_name": "Cochise", "gnis:created": "08/01/1994", "gnis:feature_id": "45558", "gnis:feature_type": "Airport", "name": "Northern Cochise Community Hospital Heliport", "source": "Bing", "surface": "concrete", "wikidata": "Q74841045"}}, {"type": "way", "id": 194878445, "center": {"lat": 38.9393997, "lon": -104.7181841}, "nodes": [2053996381, 2053996087, 2053994699, 2053995079, 2053996225, 2053994847, 2053996392, 2053996815, 2053994762, 2053994754, 2053996458, 2053995825, 2053996035, 2053994993, 2053996219, 2053996466, 2053997296, 2053996812, 2053996448, 2053996694, 2053996685, 2053994439, 2053996381], "tags": {"aeroway": "helipad"}}, {"type": "way", "id": 205520676, "center": {"lat": 37.2515935, "lon": -107.0781545}, "nodes": [2154849614, 2154849596, 2154849601, 2154849604, 2154849614], "tags": {"aeroway": "helipad", "name": "Pagosa Springs Medical Center Heliport", "ref": "PSMC", "source": "Bing", "surface": "concrete"}}, {"type": "way", "id": 205521791, "center": {"lat": 37.2515947, "lon": -107.0781591}, "nodes": [2154853804, 2154853814, 2154853822, 2154853839, 2154853825, 2154853844, 2154853811, 2154853819, 2154853842, 2154853837, 2154853816, 2154853808, 2154853804], "tags": {"aeroway": "helipad"}}, {"type": "way", "id": 206084777, "center": {"lat": 38.7600912, "lon": -109.7471214}, "nodes": [2160806138, 2160806142, 2160806140, 2160806139, 2160806138], "tags": {"aeroway": "helipad"}}, {"type": "way", "id": 206084778, "center": {"lat": 38.7603007, "lon": -109.7468954}, "nodes": [2160806144, 2160806146, 2160806141, 2160806143, 2160806144], "tags": {"aeroway": "helipad"}}, {"type": "way", "id": 222599336, "center": {"lat": 39.406145, "lon": -104.8841728}, "nodes": [2315527136, 2315527116, 2315527129, 2315527125, 2315527098, 2315527136], "tags": {"aeroway": "helipad", "name": "Castle Rock Adventist Hospital"}}, {"type": "way", "id": 225365720, "center": {"lat": 39.22015, "lon": -106.3152687}, "nodes": [2341505934, 2341505951, 2341505902, 2341505947, 2341505934], "tags": {"aeroway": "helipad"}}, {"type": "way", "id": 226271294, "center": {"lat": 39.5693442, "lon": -106.0787727}, "nodes": [2351272346, 1433921786, 2351272348, 2351272343, 2351272339, 2351272335, 2351272336, 2351272341, 2351272346], "tags": {"aeroway": "helipad", "name": "Flight For Life", "source": "Bing"}}, {"type": "way", "id": 226575165, "center": {"lat": 39.5809738, "lon": -106.0925438}, "nodes": [2353556124, 2353556120, 369166169, 2353556122, 2353556124], "tags": {"addr:state": "CO", "aeroway": "helipad", "ele": "2758", "gnis:county_name": "Summit", "gnis:created": "09/01/1994", "gnis:feature_id": "204410", "gnis:feature_type": "Airport", "name": "Summit Medical Center Heliport", "source_ref": "geonames.usgs.gov", "wikidata": "Q74841342"}}, {"type": "way", "id": 226668496, "center": {"lat": 34.9310981, "lon": -104.6930392}, "nodes": [2354353457, 2354353455, 2354353454, 2354353456, 2354353457], "tags": {"addr:city": "Santa Rosa", "addr:state": "NM", "addr:street": "Camino Salud", "aeroway": "helipad", "name": "Guadalupe Hospital County Heliport", "operator": "Guadalupe County Hospital", "surface": "paved"}}, {"type": "way", "id": 227582740, "center": {"lat": 39.604923, "lon": -105.9523726}, "nodes": [2362412299, 369165917, 2362412132, 2362412123, 2362412299], "tags": {"addr:state": "CO", "aeroway": "helipad", "ele": "2842", "fixme": "Please confirm name, this helipad moved here from about 500 meters to the west where Geonames had it.", "gnis:county_name": "Summit", "gnis:created": "09/01/1994", "gnis:feature_id": "204468", "gnis:feature_type": "Airport", "name": "Snake River Health Services Incorporated Heliport", "source": "Bing", "source_ref": "geonames.usgs.gov", "wikidata": "Q74841442"}}, {"type": "way", "id": 229788382, "center": {"lat": 39.1899367, "lon": -106.8398043}, "nodes": [2383351890, 2383351909, 2383351848, 369165189, 2383351890], "tags": {"aeroway": "helipad", "faa": "CO50", "gnis:feature_id": "204250", "name": "Aspen Valley Hospital Heliport", "rooftop": "yes", "wikidata": "Q74841069"}}, {"type": "way", "id": 244970997, "center": {"lat": 32.6220826, "lon": -109.9421908}, "nodes": [2522382531, 2522382528, 2522382527, 2522382529, 2522382531], "tags": {"aeroway": "helipad", "source": "Bing"}}, {"type": "way", "id": 246392535, "center": {"lat": 31.9147287, "lon": -108.5338445}, "nodes": [2534446875, 2534446873, 2534446867, 2534446856, 2534446849, 2534446842, 2534446824, 2534446816, 2534446811, 2534446818, 2534446826, 2534446841, 2534446848, 2534446855, 2534446865, 2534446872, 2534446875], "tags": {"addr:state": "NM", "aeroway": "helipad", "ele": "1371", "faa": "85NM", "gnis:county_name": "Hidalgo", "gnis:created": "09/01/1991", "gnis:feature_id": "936998", "gnis:feature_type": "Airport", "name": "Playas Medical Building Heliport", "source_ref": "geonames.usgs.gov", "wikidata": "Q61675973"}}, {"type": "way", "id": 246392570, "center": {"lat": 31.9135884, "lon": -108.5353281}, "nodes": [2534446623, 2534446622, 2534446620, 2534446618, 2534446613, 2534446610, 2534446608, 2534446606, 2534446602, 2534446604, 2534446607, 2534446609, 2534446611, 2534446617, 2534446619, 2534446621, 2534446623], "tags": {"aeroway": "helipad", "source": "Bing"}}, {"type": "way", "id": 255097820, "center": {"lat": 39.7042893, "lon": -104.7591097}, "nodes": [2608437747, 2608437751, 2608437754, 2608437750, 2608437747], "tags": {"aeroway": "helipad"}}, {"type": "way", "id": 257047213, "center": {"lat": 39.9276484, "lon": -104.9226767}, "nodes": [2626630428, 2626630429, 2626630430, 2626630431, 2626630428], "tags": {"aeroway": "helipad", "name": "Northeast ER"}}, {"type": "way", "id": 257722837, "center": {"lat": 39.792624, "lon": -104.8991183}, "nodes": [2631940986, 2631940987, 2631940988, 2631940989, 2631940986], "tags": {"aeroway": "helipad", "ele": "1592", "name": "General Mail Facility", "wikidata": "Q74841217"}}, {"type": "way", "id": 259154225, "center": {"lat": 39.9660195, "lon": -104.7674485}, "nodes": [2645055145, 2645055146, 2645055147, 2645055148, 2645055149, 2645055131, 2645055132, 2645055133, 2645055134, 2645055139, 2645055140, 2645055141, 2645055142, 2645055143, 2645055144, 2645055135, 2645055136, 2645055137, 2645055138, 2645055145], "tags": {"aeroway": "helipad", "name": "Platte Valley Medical"}}, {"type": "way", "id": 259493257, "center": {"lat": 35.6601128, "lon": -105.9465393}, "nodes": [2649270268, 2649270269, 2649270270, 2649270247, 2649270248, 2649270250, 2649270251, 2649270252, 2649270253, 2649270262, 2649270264, 2649270265, 2649270266, 2649270255, 2649270256, 369158862, 2649270257, 2649270258, 2649270260, 2649270261, 2649270268], "tags": {"aeroway": "helipad", "faa": "NM06", "gnis:feature_id": "937018", "lit": "no", "name": "Saint Vincent Hospital Heliport", "ref": "NM06", "surface": "asphalt", "wikidata": "Q61675998"}}, {"type": "way", "id": 263446162, "center": {"lat": 39.8665391, "lon": -104.9008528}, "nodes": [2690679359, 2690679360, 2690679361, 2690679343, 2690679344, 2690679345, 2690679346, 2690679347, 2690679348, 2690679355, 2690679356, 2690679357, 2690679358, 2690679349, 2690679350, 2690679351, 2690679352, 2690679353, 2690679354, 2690679359], "tags": {"aeroway": "helipad", "ele": "1558", "name": "Xcel MDC Helipad"}}, {"type": "way", "id": 264563357, "center": {"lat": 31.7716273, "lon": -106.4354635}, "nodes": [2702280540, 2702280541, 2702280542, 369121085, 2702280540], "tags": {"aeroway": "helipad", "faa": "TA41", "gnis:feature_id": "1386605", "name": "University Medical Center Heliport", "ref": "TA41", "rooftop": "yes", "wikidata": "Q61720196"}}, {"type": "way", "id": 279163162, "center": {"lat": 33.2091349, "lon": -108.0230505}, "nodes": [2834069201, 2834069200, 2834069195, 2834069191, 2834069188, 2834069190, 2834069194, 2834069198, 2834069201], "tags": {"aeroway": "helipad", "source": "Bing"}}, {"type": "way", "id": 279227317, "center": {"lat": 33.3519492, "lon": -107.821573}, "nodes": [2834673113, 2834673107, 2834673104, 2834673111, 2834673113], "tags": {"aeroway": "helipad", "source": "Bing"}}, {"type": "way", "id": 306324920, "center": {"lat": 31.8747472, "lon": -106.6964428}, "nodes": [3111949879, 3111949882, 3111949883, 3111949880, 3111949878, 3111949876, 3111949871, 3111949869, 3111949870, 3111949872, 3111949877, 3111949879], "tags": {"aeroway": "helipad"}}, {"type": "way", "id": 315522740, "center": {"lat": 31.4176715, "lon": -109.8824551}, "nodes": [7177938728, 10131235712, 3216441705, 3216441688, 3216441690, 7177938728], "tags": {"FAA:LFSN": "00634.02*H", "access": "private", "aeroway": "helipad", "closest_town": "Bisbee, AZ", "description": "6AZ6 Airport Reference Point", "ele": "1495.99", "faa": "6AZ6", "gnis:feature_id": "2622908", "ifr": "no", "length": "40 ft", "lit": "yes", "name": "Copper Queen Hospital Heliport", "owner": "Copper Queen Community Hospital", "phone": "+1 520 432 5383", "ref": "H1", "source": "FAA", "source:date": "2020-01-30", "source:note": "coordinates and elevations converted from NAD83/NAVD88 to ITRF2008 using NOAA VDatum", "source:position": "FAA", "source:url": "https://enasr.faa.gov/eNASR/nasr/Current/Airport/21702", "surface": "concrete", "variation": "11 E 1995", "width": "40 ft", "wikidata": "Q74840635"}}, {"type": "way", "id": 315834110, "center": {"lat": 38.2186812, "lon": -108.5753777}, "nodes": [3219652018, 3219653069, 3219652040, 3219653094, 3219652018], "tags": {"aeroway": "helipad", "source": "Bing"}}, {"type": "way", "id": 326134721, "center": {"lat": 39.737101, "lon": -104.992326}, "nodes": [3327497619, 3327497620, 3327497621, 3327497622, 3327497619], "tags": {"aeroway": "helipad", "faa": "9CO0", "lit": "no", "name": "Police Headquarters Heliport", "surface": "concrete", "wikidata": "Q74841221"}}, {"type": "way", "id": 334267950, "center": {"lat": 39.9708425, "lon": -105.0873848}, "nodes": [3413795623, 3413795605, 3413795606, 3413795607, 3413795608, 3413795609, 3413795610, 3413795611, 3413795620, 3413795621, 3413795622, 3413795612, 3413795613, 3413795614, 3413795615, 3413795616, 3413795617, 3413795618, 3413795619, 3413795623], "tags": {"aeroway": "helipad", "faa": "0CD6", "surface": "concrete", "wikidata": "Q74841470"}}, {"type": "way", "id": 334353417, "center": {"lat": 39.9524418, "lon": -105.1512735}, "nodes": [3414635721, 3414863641, 3414635722, 3414635723, 3414635724, 3414635721], "tags": {"aeroway": "helipad", "ele": "1674", "name": "Avista Adventist Hospital", "note": "https://www.airnav.com/airport/CO45"}}, {"type": "way", "id": 334444951, "center": {"lat": 39.7422102, "lon": -104.8424097}, "nodes": [3415394763, 3415394764, 3415394765, 3415394766, 3415394763], "tags": {"aeroway": "helipad", "name": "University of Colorado Hospital", "rooftop": "yes"}}, {"type": "way", "id": 334627321, "center": {"lat": 31.7703789, "lon": -106.500939}, "nodes": [3416882968, 3416882973, 3416882964, 3416882961, 3416882968], "tags": {"aeroway": "helipad"}}, {"type": "way", "id": 337262843, "center": {"lat": 39.9563004, "lon": -104.9905999}, "nodes": [3443724664, 3443724665, 3443724666, 3443724667, 3443724664], "tags": {"aeroway": "helipad", "faa": "4CO4", "name": "Saint Anthony North Heliport", "surface": "concrete"}}, {"type": "way", "id": 337274886, "center": {"lat": 35.5698424, "lon": -106.0905915}, "nodes": [3443866816, 3443866859, 3443866811, 3443866754, 3443866816], "tags": {"aeroway": "helipad", "name": "Santa Fe National Guard Armory", "surface": "paved"}}, {"type": "way", "id": 339046689, "center": {"lat": 39.5282869, "lon": -104.8701836}, "nodes": [3462369924, 3462369925, 3462369926, 4653098721, 4653098720, 4653098719, 3462369928, 3462369929, 3462369930, 3462369931, 3462369924], "tags": {"aeroway": "helipad", "faa": "CD53", "name": "Sky Ridge Medical Center", "surface": "concrete", "wikidata": "Q74841494"}}, {"type": "way", "id": 340548772, "center": {"lat": 37.2633586, "lon": -105.9661909}, "nodes": [3477870026, 3477870025, 3477870020, 3477870021, 3477870026], "tags": {"aeroway": "helipad", "name": "Conejos County Hospital", "operator": "San Luis Valley Health", "ref": "CCH", "surface": "concrete"}}, {"type": "way", "id": 358670290, "center": {"lat": 39.6199974, "lon": -104.6808325}, "nodes": [3635671870, 3635671871, 3635671872, 3635671873, 3635671870], "tags": {"aeroway": "helipad"}}, {"type": "way", "id": 358956059, "center": {"lat": 39.5792083, "lon": -104.7256972}, "nodes": [3637831435, 3676521471, 3637831436, 3637831437, 3637831438, 3637831435], "tags": {"aeroway": "helipad", "faa": "7CO5", "name": "Abandoned Helipad", "surface": "concrete"}}, {"type": "way", "id": 361296549, "center": {"lat": 39.6033653, "lon": -104.7118405}, "nodes": [3657923576, 3657923577, 3657923578, 3657923560, 3657923561, 3657923562, 3657923563, 3657923564, 3657923565, 3657923573, 3657923574, 3657923575, 3657923566, 3657923567, 3657923568, 3657923569, 3657923570, 3657923571, 3657923572, 3657923576], "tags": {"aeroway": "helipad", "faa": "21CO", "name": "Southlands ER", "surface": "concrete", "wikidata": "Q74841080"}}, {"type": "way", "id": 365732918, "center": {"lat": 39.5945344, "lon": -104.8235144}, "nodes": [3697383295, 3697383296, 3697383297, 3697383298, 3697383295], "tags": {"aeroway": "helipad", "name": "Centennial Health", "source": "Bing", "surface": "concrete"}}, {"type": "way", "id": 366061803, "center": {"lat": 39.547555, "lon": -104.7699214}, "nodes": [3700528637, 3700528638, 3700528639, 3700528640, 3700528641, 3700528642, 3700528643, 3700528644, 3700528653, 3700528654, 3700528655, 3700528645, 3700528646, 3700528647, 3700528648, 3700528649, 3700528650, 6063593602, 3700528651, 3700528652, 3700528637], "tags": {"aeroway": "helipad", "faa": "CD31", "name": "Parker Adventist Hospital", "surface": "concrete", "wikidata": "Q74841592"}}, {"type": "way", "id": 366226484, "center": {"lat": 38.0712658, "lon": -102.6096539}, "nodes": [3702122633, 3702122628, 3702122629, 3702122630, 3702122632, 3702122633], "tags": {"aeroway": "helipad", "faa": "0CD8", "name": "Prowers Medical Center Heliport", "ref": "0CD8", "surface": "concrete", "wikidata": "Q74841479"}}, {"type": "way", "id": 387409618, "center": {"lat": 34.9557164, "lon": -106.5622386}, "nodes": [3907075705, 3907075706, 3907075704, 3907075703, 3907075705], "tags": {"aeroway": "helipad", "source": "Bing"}}, {"type": "way", "id": 387409619, "center": {"lat": 34.9528564, "lon": -106.5604255}, "nodes": [3907075689, 3907075690, 3907075684, 3907075683, 3907075689], "tags": {"aeroway": "helipad", "source": "Bing"}}, {"type": "way", "id": 387409620, "center": {"lat": 34.9513145, "lon": -106.5657951}, "nodes": [3907075677, 3907075678, 3907075676, 3907075675, 3907075677], "tags": {"aeroway": "helipad", "source": "Bing"}}, {"type": "way", "id": 387409621, "center": {"lat": 34.9527578, "lon": -106.5551224}, "nodes": [3907075693, 3907075694, 3907075680, 3907075679, 3907075693], "tags": {"aeroway": "helipad", "source": "Bing"}}, {"type": "way", "id": 387409625, "center": {"lat": 34.9499403, "lon": -106.5657939}, "nodes": [3907075669, 3907075672, 3907075666, 3907075663, 3907075669], "tags": {"aeroway": "helipad", "source": "Bing"}}, {"type": "way", "id": 387409627, "center": {"lat": 34.9526888, "lon": -106.5657987}, "nodes": [3907075687, 3907075688, 3907075682, 3907075681, 3907075687], "tags": {"aeroway": "helipad", "source": "Bing"}}, {"type": "way", "id": 387409630, "center": {"lat": 34.9499442, "lon": -106.5624576}, "nodes": [3907075671, 3907075674, 3907075668, 3907075665, 3907075671], "tags": {"aeroway": "helipad", "source": "Bing"}}, {"type": "way", "id": 387409631, "center": {"lat": 34.9571026, "lon": -106.5622522}, "nodes": [3907075711, 3907075710, 3907075707, 3907075708, 3907075711], "tags": {"aeroway": "helipad", "source": "Bing"}}, {"type": "way", "id": 387409632, "center": {"lat": 34.9543531, "lon": -106.5622963}, "nodes": [3907075701, 3907075702, 3907075700, 3907075699, 3907075701], "tags": {"aeroway": "helipad", "source": "Bing"}}, {"type": "way", "id": 387409633, "center": {"lat": 34.9499431, "lon": -106.564125}, "nodes": [3907075670, 3907075673, 3907075667, 3907075664, 3907075670], "tags": {"aeroway": "helipad", "source": "Bing"}}, {"type": "way", "id": 387409635, "center": {"lat": 34.9528757, "lon": -106.5587469}, "nodes": [3907075691, 3907075692, 3907075686, 3907075685, 3907075691], "tags": {"aeroway": "helipad", "source": "Bing"}}, {"type": "way", "id": 391317238, "center": {"lat": 34.6435265, "lon": -102.7220222}, "nodes": [3945234386, 3945234387, 3945234388, 3945234389, 3945234386], "tags": {"aeroway": "helipad"}}, {"type": "way", "id": 393301343, "center": {"lat": 32.4093174, "lon": -106.147703}, "nodes": [3965209857, 3965209858, 3965209859, 3965209860, 3965209857], "tags": {"aeroway": "helipad", "name": "Orogrande Range Camp Helipad"}}, {"type": "way", "id": 393301344, "center": {"lat": 32.4090972, "lon": -106.1478058}, "nodes": [3965209861, 3965209862, 3965209863, 3965209864, 3965209861], "tags": {"aeroway": "helipad"}}, {"type": "way", "id": 413938871, "center": {"lat": 31.3901639, "lon": -102.3496521}, "nodes": [4151428343, 4151428354, 4151428314, 4151428322, 4151428343], "tags": {"aeroway": "helipad"}}, {"type": "way", "id": 415085445, "center": {"lat": 31.8192742, "lon": -106.4609604}, "nodes": [4161593128, 4161593129, 4161593130, 4161593131, 4161593128], "tags": {"aeroway": "helipad", "faa": "x", "old_name": "William Beaumont Helipad", "ref": "x"}}, {"type": "way", "id": 428846866, "center": {"lat": 35.2013178, "lon": -101.9196649}, "nodes": [4279652638, 4279652639, 4279652640, 4279652641, 4279652638], "tags": {"aeroway": "helipad"}}, {"type": "way", "id": 428848417, "center": {"lat": 35.2021903, "lon": -101.9183718}, "nodes": [4279664420, 4279664421, 4279664422, 4279664423, 4279664420], "tags": {"aeroway": "helipad"}}, {"type": "way", "id": 428908788, "center": {"lat": 35.1951443, "lon": -101.9202103}, "nodes": [4280233959, 4280233960, 4280233961, 4280233962, 4280233959], "tags": {"aeroway": "helipad", "faa": "6TX5", "name": "Baptist Saint Anthony's Hospital Heliport", "surface": "concrete", "wikidata": "Q61719681"}}, {"type": "way", "id": 430483169, "center": {"lat": 35.2392468, "lon": -101.7353701}, "nodes": [4297525933, 4297525934, 4297525935, 4297525936, 4297525933], "tags": {"aeroway": "helipad"}}, {"type": "way", "id": 435505126, "center": {"lat": 39.9011647, "lon": -104.9973336}, "nodes": [4334168774, 4334168775, 4334168778, 4334168776, 4334168777, 4334168774], "tags": {"aeroway": "helipad"}}, {"type": "way", "id": 438479448, "center": {"lat": 34.0369406, "lon": -106.9108992}, "nodes": [4362233932, 8014265710, 4362233933, 8014265711, 4362233934, 4362233935, 8008358120, 8008358123, 4362233932], "tags": {"access": "private", "aeroway": "helipad", "ele": "1465", "faa": "NM35", "lit": "yes", "name": "Socorro General Hospital Heliport", "surface": "concrete", "wikidata": "Q61676004"}}, {"type": "way", "id": 447122014, "center": {"lat": 39.813772, "lon": -101.0378143}, "nodes": [4443119391, 4443119389, 4443119188, 4443119390, 4443119391], "tags": {"aeroway": "helipad", "source": "Mapbox"}}, {"type": "way", "id": 448754943, "center": {"lat": 39.863324, "lon": -104.9865042}, "nodes": [4457368049, 4457368050, 4457368051, 4457368052, 4457368049], "tags": {"aeroway": "helipad", "faa": "CD22", "maxweight": "none", "surface": "concrete"}}, {"type": "way", "id": 449021948, "center": {"lat": 39.089863, "lon": -108.5628652}, "nodes": [369166031, 4459892391, 4459892393, 4459892392, 369166031], "tags": {"aeroway": "helipad", "faa": "29CO", "gnis:feature_id": "204427", "name": "Saint Mary's Hospital and Medical Center Heliport", "rooftop": "yes", "wikidata": "Q74841380"}}, {"type": "way", "id": 449085222, "center": {"lat": 39.7328435, "lon": -104.9328734}, "nodes": [369165406, 4460539948, 4460539949, 4460539957, 369165406], "tags": {"addr:state": "CO", "aeroway": "helipad", "ele": "1622", "gnis:county_name": "Denver", "gnis:created": "09/01/1994", "gnis:feature_id": "204343", "gnis:feature_type": "Airport", "location": "roof", "name": "Rose Medical Center Heliport", "source": "Bing", "source_ref": "geonames.usgs.gov", "surface": "paved", "wikidata": "Q74841230"}}, {"type": "way", "id": 453324259, "center": {"lat": 37.7869342, "lon": -100.0180088}, "nodes": [4500740434, 4500740433, 4500740432, 4500740431, 4500740434], "tags": {"aeroway": "helipad"}}, {"type": "way", "id": 455584375, "center": {"lat": 33.5737035, "lon": -101.8990014}, "nodes": [4519757752, 4519757749, 4519757750, 4519757751, 4519757752], "tags": {"aeroway": "helipad"}}, {"type": "way", "id": 455584376, "center": {"lat": 33.5738817, "lon": -101.8990004}, "nodes": [4519757756, 4519757753, 4519757754, 369121673, 4519757756], "tags": {"aeroway": "helipad", "faa": "74TS", "gnis:feature_id": "1387107", "name": "Saint Mary of the Plains Hospital Heliport", "surface": "concrete", "wikidata": "Q61720772"}}, {"type": "way", "id": 457753291, "center": {"lat": 36.7243063, "lon": -108.2180512}, "nodes": [1042150523, 4538521862, 4538521861, 4538521860, 1042150523], "tags": {"aeroway": "helipad", "faa": "NM62", "lit": "yes", "name": "SJRMC Heliport", "source": "ourairports.com", "surface": "concrete", "wikidata": "Q61675919"}}, {"type": "way", "id": 457771970, "center": {"lat": 32.7978628, "lon": -108.2613872}, "nodes": [1042150545, 4538718060, 4538718059, 4538718058, 1042150545], "tags": {"aeroway": "helipad", "faa": "NM85", "lit": "no", "name": "Gila Regional Heliport", "surface": "asphalt", "wikidata": "Q61676002"}}, {"type": "way", "id": 457801490, "center": {"lat": 32.3236161, "lon": -106.7301605}, "nodes": [2752068390, 4538883781, 4538883780, 4538883779, 2752068390], "tags": {"aeroway": "helipad", "name": "Mountain View Hospital Helipad"}}, {"type": "way", "id": 457935711, "center": {"lat": 32.7623759, "lon": -103.1866143}, "nodes": [4539939747, 2055337691, 4539939746, 4539939745, 4539939747], "tags": {"addr:city": "Hobbs", "addr:postcode": "88240", "addr:state": "NM", "aeroway": "helipad", "name": "Lea Regional Medical Center Heliport"}}, {"type": "way", "id": 457955290, "center": {"lat": 32.9655392, "lon": -103.3463543}, "nodes": [4540114907, 4540114904, 4540114903, 4540114902, 4540114901, 4540114906, 4540114900, 4540114899, 4540114898, 4540114897, 4540114896, 4540114905, 4540114895, 4540114894, 4540114893, 1042150566, 4540114907], "tags": {"aeroway": "helipad", "faa": "NM94", "lit": "yes", "name": "Nor Lea County General Hospital Heliport", "ref": "NM94", "surface": "concrete", "wikidata": "Q61675939"}}, {"type": "way", "id": 458070145, "center": {"lat": 33.4251201, "lon": -104.5291088}, "nodes": [4541137404, 2044620949, 4541137403, 4541137402, 4541137404], "tags": {"aeroway": "helipad", "name": "Eastern New Mexico Medical Center"}}, {"type": "way", "id": 458129350, "center": {"lat": 34.168761, "lon": -103.3614812}, "nodes": [4541749495, 3738414573, 4541749494, 4541749493, 4541749495], "tags": {"addr:city": "Portales", "addr:postcode": "88130", "addr:state": "NM", "addr:street": "West 18th Street", "aeroway": "helipad", "name": "Roosevelt General Hospital Heliport", "source": "Bing"}}, {"type": "way", "id": 458367087, "center": {"lat": 36.3676968, "lon": -105.5774043}, "nodes": [4543922911, 4543922913, 1042150530, 4543922912, 4543922911], "tags": {"aeroway": "helipad", "faa": "NM65", "lit": "yes", "name": "Holy Cross Hospital Heliport", "ref": "NM65", "surface": "concrete", "wikidata": "Q61676007"}}, {"type": "way", "id": 458602573, "center": {"lat": 35.6223285, "lon": -105.2107623}, "nodes": [4545813390, 4545813389, 4545812888, 4545812887, 4545813390], "tags": {"addr:city": "Las Vegas", "addr:housenumber": "104", "addr:postcode": "87701", "addr:state": "NM", "addr:street": "Legion Drive", "aeroway": "helipad", "name": "Alta Vista Regional Hospital Heliport"}}, {"type": "way", "id": 458619179, "center": {"lat": 35.997516, "lon": -106.0872572}, "nodes": [4545929799, 4545929798, 4545929797, 4545929796, 4545929799], "tags": {"aeroway": "helipad", "name": "Presbyterian Espanola Hospital Heliport"}}, {"type": "way", "id": 458700492, "center": {"lat": 35.3081097, "lon": -106.6809722}, "nodes": [2055693431, 4546601214, 4546601215, 4546601216, 2055693431], "tags": {"aeroway": "helipad", "faa": "50NM", "lit": "no", "name": "UNM Sandoval Regional Medical Center Heliport", "ref": "50NM", "surface": "concrete", "wikidata": "Q61675987"}}, {"type": "way", "id": 458710846, "center": {"lat": 35.2068173, "lon": -106.676202}, "nodes": [4546688084, 369158943, 4546688083, 4546688082, 4546688084], "tags": {"aeroway": "helipad", "faa": "NM50", "gnis:feature_id": "936891", "lit": "no", "name": "Lovelace Westside Hospital Heliport", "name_1": "Saint Joseph West Mesa Hospital Heliport", "old_name": "Saint Joseph West Mesa Hospital Heliport", "surface": "asphalt", "wikidata": "Q61675877"}}, {"type": "way", "id": 458765100, "center": {"lat": 35.088858, "lon": -106.63637}, "nodes": [1042150458, 4547177088, 4547177087, 4547177086, 1042150458], "tags": {"aeroway": "helipad", "faa": "NM00", "lit": "yes", "name": "Albuquerque Regional Medical Center Heliport", "note": "Lovelace Helipad", "operator": "Lovelace", "ref": "NM00", "surface": "concrete", "wikidata": "Q61675876"}}, {"type": "way", "id": 458777614, "center": {"lat": 38.2779721, "lon": -104.3467105}, "nodes": [4547285491, 4547285488, 4547285489, 4547285490, 4547285491], "tags": {"aeroway": "helipad", "name": "Pueblo Depot"}}, {"type": "way", "id": 458790427, "center": {"lat": 33.5768738, "lon": -101.8901475}, "nodes": [4547397063, 4547397060, 4547397061, 369121659, 4547397063], "tags": {"aeroway": "helipad", "faa": "TS66", "gnis:feature_id": "1387108", "name": "Lubbock Covenant Medical Center Heliport", "old_name": "Lubbock Methodist Hospital Heliport", "surface": "concrete"}}, {"type": "way", "id": 458790428, "center": {"lat": 33.5768745, "lon": -101.890305}, "nodes": [4547397067, 4547397064, 4547397065, 4547397066, 4547397067], "tags": {"aeroway": "helipad", "faa": "TS66", "gnis:feature_id": "1387108", "name": "Lubbock Covenant Medical Center Heliport", "old_name": "Lubbock Methodist Hospital Heliport", "surface": "concrete"}}, {"type": "way", "id": 468836825, "center": {"lat": 37.3629945, "lon": -108.5746435}, "nodes": [4633143736, 4633143735, 4633143734, 4633143733, 4633143736], "tags": {"aeroway": "helipad", "name": "Southwest Memorial Hospital Heliport", "operator": "Southwest Health System", "ref": "SWMH", "surface": "concrete"}}, {"type": "way", "id": 468936077, "center": {"lat": 37.2360683, "lon": -107.8275632}, "nodes": [1855144310, 4633856031, 4633856030, 8448905278, 4633856029, 4633856028, 4633856033, 4633856027, 4633856026, 4633856025, 4633856024, 4633856032, 4633856023, 4633856022, 4633856021, 4633856020, 4633856019, 1855144310], "tags": {"aeroway": "helipad", "name": "Mercy Regional Medical Center Heliport", "operator": "Centura Health", "ref": "CO46", "surface": "concrete"}}, {"type": "way", "id": 469220014, "center": {"lat": 39.5330706, "lon": -107.3224771}, "nodes": [4636007885, 4636007884, 4636007883, 4636007882, 4636007885], "tags": {"aeroway": "helipad"}}, {"type": "way", "id": 469284498, "center": {"lat": 38.5519087, "lon": -106.9244061}, "nodes": [4636500152, 4636500151, 369165979, 4636500150, 4636500152], "tags": {"aeroway": "helipad", "faa": "CD12", "gnis:feature_id": "204435", "name": "Gunnison Valley Hospital Heliport", "surface": "concrete", "wikidata": "Q74841397"}}, {"type": "way", "id": 469514528, "center": {"lat": 39.2451349, "lon": -106.3015914}, "nodes": [4638135682, 4638135681, 4638135680, 4638135679, 4638135682], "tags": {"addr:state": "CO", "aeroway": "helipad", "ele": "3420", "gnis:county_name": "Lake", "gnis:created": "09/01/1994", "gnis:feature_id": "204487", "gnis:feature_type": "Airport", "name": "Saint Vincent General Hospital Heliport", "source": "Esri beta", "source_ref": "geonames.usgs.gov", "surface": "paved", "wikidata": "Q74841481"}}, {"type": "way", "id": 469547417, "center": {"lat": 38.543847, "lon": -106.0090701}, "nodes": [4638479105, 4638479102, 4638479101, 4638479100, 4638479099, 4638479104, 4638479098, 4638479097, 4638479096, 4638479095, 1496005983, 4638479103, 4638479094, 4638479093, 4638479092, 4638479091, 4638479105], "tags": {"aeroway": "helipad", "source": "Esri 2019", "surface": "concrete"}}, {"type": "way", "id": 469768680, "center": {"lat": 37.9767848, "lon": -103.5499802}, "nodes": [4640532209, 4640532208, 4640532207, 369165939, 4640532209], "tags": {"aeroway": "helipad", "faa": "8CO6", "gnis:feature_id": "204479", "name": "Arkansas Valley Regional Medical Center Heliport", "operator": "Arkansas Valley Regional Medical Center", "ref": "8CO6", "short_name": "AVRMC", "surface": "concrete", "wikidata": "Q74841464"}}, {"type": "way", "id": 470282100, "center": {"lat": 38.9746698, "lon": -105.0727742}, "nodes": [4644881093, 4644881092, 1052292569, 4644881091, 4644881093], "tags": {"aeroway": "helipad", "name": "Pikes Peak Regional Hospital"}}, {"type": "way", "id": 470413805, "center": {"lat": 38.9663594, "lon": -104.7560282}, "nodes": [1042139762, 4646128319, 4646128318, 4646128317, 1042139762], "tags": {"aeroway": "helipad", "faa": "77CO", "name": "Memorial North Helipad", "surface": "concrete", "wikidata": "Q74841175"}}, {"type": "way", "id": 470449070, "center": {"lat": 38.8659971, "lon": -104.8222176}, "nodes": [4646378406, 4646378404, 369165775, 4646378405, 4646378406], "tags": {"aeroway": "helipad", "faa": "CO24", "gnis:feature_id": "204313", "name": "Penrose-St. Francis Hospital Heliport", "rooftop": "yes", "surface": "concrete", "wikidata": "Q74841166"}}, {"type": "way", "id": 470452404, "center": {"lat": 38.8403707, "lon": -104.799486}, "nodes": [4646418624, 369165773, 4646418623, 4646418622, 4646418624], "tags": {"aeroway": "helipad", "faa": "19CO", "gnis:feature_id": "204312", "lit": "yes", "location": "roof", "name": "Memorial Hospital Heliport", "source": "Bing", "surface": "concrete", "wikidata": "Q74841172"}}, {"type": "way", "id": 471127987, "center": {"lat": 39.5757067, "lon": -104.986886}, "nodes": [4652905043, 4652905040, 4652905039, 4652905038, 4652905037, 4652905036, 4652905042, 4652905035, 6225985020, 4652905034, 6225985021, 4652905033, 369165857, 4652905041, 4652905032, 4652905031, 4652905030, 4652905029, 4652905043], "tags": {"aeroway": "helipad", "faa": "CO16", "gnis:feature_id": "204490", "name": "Arapahoe Medical Park-Littleton Hospital Heliport", "surface": "concrete", "wikidata": "Q74841483"}}, {"type": "way", "id": 471297732, "center": {"lat": 39.7425008, "lon": -104.835535}, "nodes": [4654622033, 4654622032, 2794097568, 4654622031, 4654622033], "tags": {"aeroway": "helipad", "faa": "2CD8", "name": "Children's Hospital Colorado Heliport", "rooftop": "yes", "wikidata": "Q5098125", "wikipedia": "en:Children's Hospital Colorado"}}, {"type": "way", "id": 471331707, "center": {"lat": 39.7659078, "lon": -105.0926491}, "nodes": [4654955871, 6639413988, 4654955868, 6639413943, 369166223, 6639413814, 4654955867, 6639413960, 4654955866, 6639413812, 4654955870, 6639413824, 4654955865, 6639413967, 4654955864, 6639413964, 4654955863, 6639413925, 4654955862, 6639413971, 4654955869, 6639413879, 4654955861, 6639413957, 4654955860, 6639413868, 4654955859, 6639413883, 4654955858, 6639413831, 4654955857, 6639413903, 4654955871], "tags": {"aeroway": "helipad", "faa": "4CO6", "gnis:feature_id": "204625", "name": "Lutheran Medical Center Heliport", "surface": "concrete", "wikidata": "Q74841727"}}, {"type": "way", "id": 471349339, "center": {"lat": 39.7477525, "lon": -104.9678498}, "nodes": [4655094599, 4655094598, 4655094597, 4655094596, 4655094595, 4655094594, 4655094593, 4655094592, 4655094591, 4655094590, 4655094589, 4655094588, 4655094587, 4655094586, 4655094585, 4655094584, 4655094583, 4655094582, 4655094581, 369165403, 4655094599], "tags": {"aeroway": "helipad", "faa": "2CO4", "gnis:feature_id": "204342", "name": "Presbyterian-Saint Lukes Medical Center Heliport", "rooftop": "yes", "surface": "concrete", "wikidata": "Q74841228"}}, {"type": "way", "id": 477507580, "center": {"lat": 36.7403648, "lon": -108.2221785}, "nodes": [4708473982, 4708473981, 4708473980, 4708473979, 4708473982], "tags": {"aeroway": "helipad", "source": "Bing"}}, {"type": "way", "id": 477507581, "center": {"lat": 36.7403508, "lon": -108.2227397}, "nodes": [4708473986, 4708473985, 4708473984, 4708473983, 4708473986], "tags": {"aeroway": "helipad", "source": "Bing"}}, {"type": "way", "id": 477507582, "center": {"lat": 36.7403379, "lon": -108.2233038}, "nodes": [4708473990, 4708473989, 4708473988, 4708473987, 4708473990], "tags": {"aeroway": "helipad", "source": "Bing"}}, {"type": "way", "id": 478361457, "center": {"lat": 35.8275737, "lon": -106.3189524}, "nodes": [4715875470, 4715875471, 4715875472, 4715875473, 4715875470], "tags": {"aeroway": "helipad", "name": "TA-49 Helispot"}}, {"type": "way", "id": 478361458, "center": {"lat": 35.8278859, "lon": -106.3174046}, "nodes": [4715875474, 4715875475, 4715875476, 4715875477, 4715875474], "tags": {"aeroway": "helipad"}}, {"type": "way", "id": 478361459, "center": {"lat": 35.8276497, "lon": -106.3181685}, "nodes": [4715875478, 4715875479, 4715875480, 4715875481, 4715875478], "tags": {"aeroway": "helipad"}}, {"type": "way", "id": 484430331, "center": {"lat": 39.715811, "lon": -105.1287334}, "nodes": [4771836446, 4771835600, 4771836576, 4771836474, 4771836446], "tags": {"aeroway": "helipad", "alt_name": "Saint Anthony Hospital Emergency", "name": "Saint Anthony P", "source": "Bing"}}, {"type": "way", "id": 484430332, "center": {"lat": 39.7158913, "lon": -105.1279166}, "nodes": [4771836488, 4771835592, 4771835613, 4771836570, 4771836443, 4771836572, 4771836561, 4771836571, 4771835605, 4771836476, 4771836527, 4771836482, 4771836500, 4771836450, 4771836497, 4771836508, 4771835597, 4771835574, 4771836514, 4771836562, 4771836422, 4771835577, 4771836582, 4771836506, 4771836486, 4771835581, 4771836454, 4771836586, 4771836473, 4771835578, 4771836580, 4771836533, 4771836461, 4771836537, 4771836463, 4771836435, 4771836439, 4771836440, 4771836426, 4771933865, 4771836511, 4771836496, 4771836425, 4771836427, 4771836495, 4771836579, 4771836543, 4771836517, 4771835614, 4771835609, 4771836507, 4771836560, 4771835573, 4771836488], "tags": {"aeroway": "helipad", "alt_name": "Saint Anthony Hospital Emergency", "name": "Saint Anthony 25/50", "source": "Bing"}}, {"type": "way", "id": 484430334, "center": {"lat": 39.7158099, "lon": -105.1285346}, "nodes": [4771835600, 4771836446, 4771836437, 4771836485, 4771835600], "tags": {"aeroway": "helipad", "alt_name": "Saint Anthony Hospital Emergency", "name": "Saint Anthony 12/44", "source": "Bing"}}, {"type": "way", "id": 497344597, "center": {"lat": 38.4802993, "lon": -107.8682838}, "nodes": [4889202373, 369166405, 4889202372, 4889202371, 4889202373], "tags": {"aeroway": "helipad", "faa": "CD47", "gnis:feature_id": "204521", "name": "Montrose Memorial Hospital Heliport", "rooftop": "yes", "surface": "metal", "wikidata": "Q74841533"}}, {"type": "way", "id": 500193410, "center": {"lat": 38.2336301, "lon": -104.6244674}, "nodes": [4913040065, 4913040064, 4913040063, 4913040062, 4913040061, 4913040060, 4913040059, 4913040058, 4913040065], "tags": {"addr:city": "Pueblo", "addr:state": "CO", "aeroway": "helipad", "ele": "1462", "gnis:county_name": "Pueblo", "gnis:created": "09/01/1994", "gnis:feature_id": "204559", "gnis:feature_type": "Airport", "is_in:city": "Pueblo", "is_in:state": "Colorado", "is_in:state_code": "CO", "layer": "1", "name": "Saint Mary-Corwin Hospital Heliport", "source_ref": "geonames.usgs.gov", "wikidata": "Q74841618"}}, {"type": "way", "id": 500193411, "center": {"lat": 38.2327262, "lon": -104.6254269}, "nodes": [4913040069, 4913040068, 4913040067, 4913040066, 4913040069], "tags": {"aeroway": "helipad"}}, {"type": "way", "id": 503311324, "center": {"lat": 38.4610823, "lon": -104.8159378}, "nodes": [4936432701, 4936432700, 4936432699, 4936432698, 4936432701], "tags": {"aeroway": "helipad", "ref": "heliport"}}, {"type": "way", "id": 533581302, "center": {"lat": 31.7911777, "lon": -106.2636359}, "nodes": [5176373701, 5176373702, 5176373703, 5176373704, 5176373701], "tags": {"aeroway": "helipad"}}, {"type": "way", "id": 541987183, "center": {"lat": 38.2804782, "lon": -104.6141353}, "nodes": [369166308, 5240301706, 10604412667, 5240301707, 5240301708, 369166308], "tags": {"aeroway": "helipad", "ele": "1448", "gnis:county_name": "Pueblo", "gnis:created": "09/01/1994", "gnis:feature_id": "204558", "gnis:feature_type": "Airport", "name": "Parkview Medical Center Heliport", "operator": "Parkview Medical Center", "source": "Bing", "source_ref": "geonames.usgs.gov", "surface": "concrete", "wikidata": "Q74841608"}}, {"type": "way", "id": 542867323, "center": {"lat": 38.8317293, "lon": -104.8078723}, "nodes": [5248203128, 5248203129, 5248203130, 5248203131, 5248203128], "tags": {"aeroway": "helipad"}}, {"type": "way", "id": 544481887, "center": {"lat": 32.7209833, "lon": -102.6552133}, "nodes": [4560913659, 5263303484, 5263303487, 5263303485, 5263303486, 4560913659], "tags": {"aeroway": "helipad"}}, {"type": "way", "id": 544484257, "center": {"lat": 32.7206458, "lon": -102.6549577}, "nodes": [5263291836, 5263291843, 5263291837, 5263291838, 5263291841, 5263291839, 5263291836], "tags": {"aeroway": "helipad"}}, {"type": "way", "id": 546219122, "center": {"lat": 38.1670034, "lon": -104.6195298}, "nodes": [5278691880, 5278691881, 5278691882, 5278691883, 5278691880], "tags": {"aeroway": "helipad", "name": "Vestas Heliport", "source": "EsriWorldImageryClarity"}}, {"type": "way", "id": 562911007, "center": {"lat": 31.7773604, "lon": -106.48108}, "nodes": [5425747979, 5425747978, 5425747977, 1042152815, 5425747979], "tags": {"aeroway": "helipad", "faa": "TX44", "name": "Sierra Medical Center Heliport", "ref": "TX44", "rooftop": "yes", "surface": "concrete", "wikidata": "Q61720192"}}, {"type": "way", "id": 563628248, "center": {"lat": 34.8486298, "lon": -100.2111221}, "nodes": [5431256031, 5431256030, 5431256029, 5431256028, 5431256031], "tags": {"aeroway": "helipad", "surface": "concrete"}}, {"type": "way", "id": 563679693, "center": {"lat": 35.5726676, "lon": -100.9662843}, "nodes": [5431736802, 5431736801, 5431736800, 5431736799, 5431736802], "tags": {"aeroway": "helipad", "surface": "concrete"}}, {"type": "way", "id": 563682497, "center": {"lat": 35.6559268, "lon": -101.4093091}, "nodes": [5431769154, 5431769153, 5431769152, 5431769151, 5431769154], "tags": {"aeroway": "helipad", "surface": "concrete"}}, {"type": "way", "id": 564166359, "center": {"lat": 33.6038618, "lon": -101.9164055}, "nodes": [5436431419, 5436431418, 5436431417, 1042142445, 5436431419], "tags": {"aeroway": "helipad", "faa": "XA25", "name": "Lubbock Heart Hospital Heliport", "surface": "concrete", "wikidata": "Q61720767"}}, {"type": "way", "id": 564383164, "center": {"lat": 33.1882964, "lon": -102.2682005}, "nodes": [5437797823, 5437797822, 369120711, 5437797821, 5437797823], "tags": {"aeroway": "helipad", "faa": "TX63", "gnis:feature_id": "1386300", "name": "Brownfield Regional Medical Center Heliport", "surface": "concrete", "wikidata": "Q61719877"}}, {"type": "way", "id": 564423912, "center": {"lat": 32.7489902, "lon": -101.966693}, "nodes": [5438136101, 5438136100, 5438136099, 5438136098, 5438136101], "tags": {"aeroway": "helipad", "surface": "concrete"}}, {"type": "way", "id": 564427725, "center": {"lat": 32.3376082, "lon": -102.5474334}, "nodes": [4073984233, 4073984244, 4073984235, 4073984246, 4073984233], "tags": {"aeroway": "helipad", "surface": "concrete"}}, {"type": "way", "id": 564431307, "center": {"lat": 31.2326512, "lon": -101.9345295}, "nodes": [5438213672, 5438213671, 5438213670, 5438213669, 5438213672], "tags": {"aeroway": "helipad", "surface": "concrete"}}, {"type": "way", "id": 564442785, "center": {"lat": 32.2358625, "lon": -101.491577}, "nodes": [5438302939, 5438302938, 5438302937, 5438302936, 5438302939], "tags": {"aeroway": "helipad", "surface": "asphalt"}}, {"type": "way", "id": 564510542, "center": {"lat": 31.846216, "lon": -102.3743392}, "nodes": [5438881269, 5438881268, 5438881267, 1907420807, 5438881269], "tags": {"aeroway": "helipad", "faa": "32XA", "name": "Medical Center Hospital Heliport", "rooftop": "yes", "surface": "metal", "wikidata": "Q61720966"}}, {"type": "way", "id": 564518627, "center": {"lat": 31.418891, "lon": -100.4705661}, "nodes": [369122334, 5438933830, 5438933829, 5438933828, 369122334], "tags": {"aeroway": "helipad", "faa": "7TA9", "gnis:feature_id": "1387450", "name": "Angelo Community Hospital Heliport", "surface": "concrete", "wikidata": "Q61721187"}}, {"type": "way", "id": 564526443, "center": {"lat": 31.4658625, "lon": -100.4339907}, "nodes": [5438970797, 5438970796, 5438970795, 5438970794, 5438970797], "tags": {"aeroway": "helipad", "faa": "03TS", "name": "Shannon Medical Center Heliport", "surface": "asphalt", "wikidata": "Q61721191"}}, {"type": "way", "id": 564732583, "center": {"lat": 32.4523633, "lon": -100.3971916}, "nodes": [5440348819, 5440348818, 5440348817, 5440348816, 5440348819], "tags": {"aeroway": "helipad", "faa": "2XA9", "name": "Rolling Plains Memorial Hospital Heliport", "surface": "concrete", "wikidata": "Q61721341"}}, {"type": "way", "id": 564740852, "center": {"lat": 32.4058907, "lon": -100.8759371}, "nodes": [5440417480, 5440417479, 5440417478, 5440417477, 5440417480], "tags": {"aeroway": "helipad"}}, {"type": "way", "id": 564763062, "center": {"lat": 32.8856291, "lon": -100.1354787}, "nodes": [5440582728, 5440582727, 5440582726, 369121364, 5440582728], "tags": {"aeroway": "helipad", "faa": "48TA", "gnis:feature_id": "1386785", "name": "Hamlin Memorial Hospital Heliport", "surface": "concrete", "wikidata": "Q61720410"}}, {"type": "way", "id": 564769919, "center": {"lat": 33.1501844, "lon": -100.229084}, "nodes": [5440640046, 5440640045, 5440640044, 5440640043, 5440640046], "tags": {"aeroway": "helipad", "surface": "concrete"}}, {"type": "way", "id": 569814929, "center": {"lat": 38.4554995, "lon": -105.2314785}, "nodes": [5479388771, 5479388772, 5479388773, 5479388774, 5479388775, 5479388776, 5479388777, 5479388759, 5479388760, 5479388763, 5479388764, 5479388765, 5479388766, 5479388767, 5479388768, 5479388769, 5479388770, 5479388761, 5479388762, 5479388771], "tags": {"aeroway": "helipad"}}, {"type": "way", "id": 577278330, "center": {"lat": 38.3640965, "lon": -105.1001701}, "nodes": [5534502915, 5534502914, 5534502913, 5534502912, 5534502911, 5534502910, 5534502909, 5534502908, 5534502907, 5534502906, 5534502916, 5534502905, 5534502904, 5534502903, 5534502902, 5534502901, 5534502900, 5534502899, 5534502898, 5534502897, 5534502915], "tags": {"aeroway": "helipad", "source": "Esri"}}, {"type": "way", "id": 580683623, "center": {"lat": 37.472707, "lon": -105.8831015}, "nodes": [4017488811, 5558165718, 5558165717, 5558165716, 4017488811], "tags": {"aeroway": "helipad", "name": "San Luis Valley Health Heliport (Alamosa)", "operator": "San Luis Valley Health", "ref": "SLVH Alamosa", "rooftop": "yes", "source": "Mapbox", "surface": "concrete"}}, {"type": "way", "id": 580695551, "center": {"lat": 38.3291354, "lon": -104.7021243}, "nodes": [5558236173, 5558236172, 4043218771, 5558236171, 5558236173], "tags": {"aeroway": "helipad", "faa": "4CD0", "name": "Parkview - Pueblo West Emergency Services Heliport", "surface": "concrete", "wikidata": "Q74841612"}}, {"type": "way", "id": 580989216, "center": {"lat": 39.6547033, "lon": -104.9805389}, "nodes": [5560304791, 369165590, 5560304790, 5560304789, 5560304791], "tags": {"aeroway": "helipad", "faa": "15CO", "gnis:feature_id": "204385", "name": "Swedish Medical Center Heliport", "ref": "H1", "rooftop": "yes", "surface": "concrete", "wikidata": "Q74841291"}}, {"type": "way", "id": 583929276, "center": {"lat": 35.2189763, "lon": -106.6944018}, "nodes": [5582275469, 2052292931, 5582275468, 5582275467, 5582275469], "tags": {"aeroway": "helipad", "faa": "NM36", "lit": "no", "name": "Rust Medical Center Heliport", "surface": "concrete"}}, {"type": "way", "id": 583932541, "center": {"lat": 35.0879516, "lon": -106.6185907}, "nodes": [1042150482, 3276784509, 5582306116, 5582306115, 1042150482], "tags": {"aeroway": "helipad", "faa": "NM11", "layer": "2", "lit": "yes", "name": "University of NM Hospital Heliport", "note": "\"1648\" on pad", "operator": "UNM Hospital", "ref": "NM11", "rooftop": "yes", "surface": "metal", "wikidata": "Q61675878"}}, {"type": "way", "id": 586664230, "center": {"lat": 33.877221, "lon": -109.9603801}, "nodes": [5604905637, 5604905636, 5604905635, 5604905634, 5604905637], "tags": {"aeroway": "helipad", "surface": "concrete"}}, {"type": "way", "id": 587214788, "center": {"lat": 39.7273321, "lon": -104.8266876}, "nodes": [5609291992, 5609291991, 369165181, 5609291990, 5609291992], "tags": {"aeroway": "helipad", "gnis:feature_id": "204254", "name": "Medical Center of Aurora North Campus Heliport", "surface": "concrete"}}, {"type": "way", "id": 587217826, "center": {"lat": 39.688192, "lon": -104.8316496}, "nodes": [369165184, 5609308603, 5609308602, 5609308601, 5609308600, 5609308599, 5609308598, 5609308597, 5609308605, 5609308596, 5609308595, 5609308594, 5609308593, 5609308592, 5609308604, 5609308591, 5609308590, 5609308589, 5609308588, 5609308587, 5609308586, 5609308585, 369165184], "tags": {"aeroway": "helipad", "faa": "1CO0", "gnis:feature_id": "204256", "name": "The Medical Center of Aurora Heliport", "source": "Bing", "surface": "concrete", "wikidata": "Q74841083"}}, {"type": "way", "id": 587265261, "center": {"lat": 36.8237065, "lon": -108.0226656}, "nodes": [5609625671, 5609625668, 5609625669, 5609625670, 5609625671], "tags": {"aeroway": "helipad", "name": "SJC SO Helipad"}}, {"type": "way", "id": 587268178, "center": {"lat": 37.6750008, "lon": -106.3629361}, "nodes": [5609651806, 5609651805, 5609651804, 5609651803, 5609651806], "tags": {"aeroway": "helipad", "faa": "1CD5", "name": "Rio Grande Hospital Heliport", "ref": "1CD5", "short_name": "RGH", "surface": "concrete", "wikidata": "Q74841193"}}, {"type": "way", "id": 587286111, "center": {"lat": 39.1388144, "lon": -103.4744619}, "nodes": [369165923, 8847024005, 5609850244, 5609850243, 5609850242, 369165923], "tags": {"aeroway": "helipad", "faa": "CO78", "gnis:feature_id": "204455", "name": "Lincoln Community Hospital Heliport", "surface": "asphalt", "wikidata": "Q74841419"}}, {"type": "way", "id": 587296954, "center": {"lat": 37.600795, "lon": -104.832461}, "nodes": [5609962395, 5609962394, 5609962393, 5609962392, 5609962395], "tags": {"aeroway": "helipad", "name": "Spanish Peaks Regional Health Center Heliport", "operator": "Spanish Peaks Regional Health Center", "ref": "SPRHC", "surface": "concrete"}}, {"type": "way", "id": 587300828, "center": {"lat": 39.5219348, "lon": -107.7696148}, "nodes": [5609998477, 5609998476, 5609998475, 5609998474, 5609998477], "tags": {"aeroway": "helipad", "surface": "concrete"}}, {"type": "way", "id": 588820405, "center": {"lat": 38.4669297, "lon": -100.9045597}, "nodes": [5623326909, 5623326908, 5623326907, 5623326906, 5623326909], "tags": {"aeroway": "helipad", "surface": "concrete"}}, {"type": "way", "id": 591400451, "center": {"lat": 32.2917317, "lon": -106.7354141}, "nodes": [5646171873, 5646171871, 5646171870, 5646171869, 5646171868, 5646171867, 369158823, 5646171866, 5646171865, 5646171864, 5646171863, 5646171872, 5646171862, 5646171861, 5646171860, 5646171859, 5646171873], "tags": {"aeroway": "helipad", "faa": "NM77", "gnis:feature_id": "936969", "lit": "no", "name": "Memorial Medical Center Heliport", "surface": "concrete", "wikidata": "Q49748052"}}, {"type": "way", "id": 591448522, "center": {"lat": 35.6978985, "lon": -108.1396867}, "nodes": [5646652792, 5646652791, 5646652790, 5646652789, 5646652792], "tags": {"aeroway": "helipad", "name": "Crownpoint Helipad", "surface": "concrete"}}, {"type": "way", "id": 591452842, "center": {"lat": 33.4176437, "lon": -104.5213706}, "nodes": [5646701796, 5646701795, 5646701794, 5646701793, 5646701796], "tags": {"aeroway": "helipad", "faa": "NM93", "lit": "no", "name": "Lovelace Regional Hospital - Roswell Heliport", "surface": "concrete", "wikidata": "Q61675993"}}, {"type": "way", "id": 591571388, "center": {"lat": 35.0682426, "lon": -107.5720276},