{"version": 0.6, "generator": "Overpass API 0.7.61.5 4133829e", "osm3s": {"timestamp_osm_base": "2023-10-31T20:38:15Z", "copyright": "The data included in this document is from www.openstreetmap.org. The data is made available under ODbL."}, "elements": [{"type": "node", "id": 254351847, "lat": 49.6160059, "lon": -114.4572559, "tags": {"aeroway": "helipad"}}, {"type": "node", "id": 368979160, "lat": 45.1299916, "lon": -115.32287, "tags": {"addr:state": "ID", "aeroway": "helipad", "ele": "1750", "faa": "54U", "gnis:county_name": "Valley", "gnis:created": "08/01/1992", "gnis:feature_id": "400761", "gnis:feature_type": "Airport", "name": "Big Creek Heliport", "source_ref": "geonames.usgs.gov", "wikidata": "Q61668086"}}, {"type": "node", "id": 368979185, "lat": 46.5121785, "lon": -116.2931629, "tags": {"addr:state": "ID", "aeroway": "helipad", "ele": "493", "faa": "ID46", "gnis:county_name": "Clearwater", "gnis:created": "08/01/1992", "gnis:feature_id": "400742", "gnis:feature_type": "Airport", "lit": "no", "name": "Dworshak Heliport", "source_ref": "geonames.usgs.gov", "surface": "asphalt", "wikidata": "Q61668074"}}, {"type": "node", "id": 368979281, "lat": 43.5971034, "lon": -116.782084, "tags": {"addr:state": "ID", "aeroway": "helipad", "ele": "782", "faa": "ID47", "gnis:county_name": "Canyon", "gnis:created": "08/01/1992", "gnis:feature_id": "400838", "gnis:feature_type": "Airport", "lit": "no", "name": "Whelan's Heliport", "source_ref": "geonames.usgs.gov", "surface": "grass", "wikidata": "Q61668183"}}, {"type": "node", "id": 368979312, "lat": 47.6723428, "lon": -116.7838193, "tags": {"addr:state": "ID", "aeroway": "helipad", "ele": "650", "gnis:county_name": "Kootenai", "gnis:created": "08/01/1992", "gnis:feature_id": "400793", "gnis:feature_type": "Airport", "lit": "no", "name": "Coeur d'Alene Resort Heliport", "source_ref": "geonames.usgs.gov", "surface": "concrete", "wikidata": "Q61668125"}}, {"type": "node", "id": 368979394, "lat": 46.7271094, "lon": -117.0237769, "tags": {"addr:state": "ID", "aeroway": "helipad", "ele": "794", "gnis:county_name": "Latah", "gnis:created": "08/01/1992", "gnis:feature_id": "400881", "gnis:feature_type": "Airport", "name": "University of Idaho Heliport", "source_ref": "geonames.usgs.gov"}}, {"type": "node", "id": 368979458, "lat": 44.0026728, "lon": -115.8120568, "tags": {"addr:state": "ID", "aeroway": "helipad", "ele": "1766", "gnis:county_name": "Boise", "gnis:created": "08/01/1992", "gnis:feature_id": "400840", "gnis:feature_type": "Airport", "name": "Golden Age Mine Heliport", "source_ref": "geonames.usgs.gov", "wikidata": "Q61668186"}}, {"type": "node", "id": 368979536, "lat": 47.4931515, "lon": -115.9578219, "tags": {"addr:state": "ID", "aeroway": "helipad", "ele": "804", "gnis:county_name": "Shoshone", "gnis:created": "08/01/1992", "gnis:feature_id": "400930", "gnis:feature_type": "Airport", "name": "Wallace Ranger Station Heliport", "source_ref": "geonames.usgs.gov"}}, {"type": "node", "id": 368979578, "lat": 47.7330784, "lon": -116.9964597, "tags": {"addr:state": "ID", "aeroway": "helipad", "ele": "645", "gnis:county_name": "Kootenai", "gnis:created": "08/01/1992", "gnis:feature_id": "400904", "gnis:feature_type": "Airport", "lit": "no", "name": "Hubofs Heliport", "source_ref": "geonames.usgs.gov", "surface": "concrete", "wikidata": "Q61668278"}}, {"type": "node", "id": 368981771, "lat": 40.722232, "lon": -112.1624518, "tags": {"addr:state": "UT", "aeroway": "helipad", "ele": "1292", "gnis:county_name": "Salt Lake", "gnis:created": "02/25/1989", "gnis:feature_id": "1435075", "gnis:feature_type": "Airport", "name": "BP Minerals-Garfield Heliport", "source_ref": "geonames.usgs.gov"}}, {"type": "node", "id": 368981807, "lat": 41.1829424, "lon": -111.9550093, "tags": {"addr:state": "UT", "aeroway": "helipad", "ele": "1362", "gnis:county_name": "Weber", "gnis:created": "02/25/1989", "gnis:feature_id": "1434579", "gnis:feature_type": "Airport", "name": "McKay-Dee Hospital Heliport", "source_ref": "geonames.usgs.gov"}}, {"type": "node", "id": 368981816, "lat": 40.5152268, "lon": -111.8618779, "tags": {"addr:state": "UT", "aeroway": "helipad", "ele": "1369", "gnis:county_name": "Salt Lake", "gnis:created": "02/25/1989", "gnis:feature_id": "1435910", "gnis:feature_type": "Airport", "name": "M Osmond Heliport", "source_ref": "geonames.usgs.gov"}}, {"type": "node", "id": 368981818, "lat": 41.3716058, "lon": -111.7924392, "tags": {"addr:state": "UT", "aeroway": "helipad", "ele": "2568", "gnis:county_name": "Weber", "gnis:created": "02/25/1989", "gnis:feature_id": "1436170", "gnis:feature_type": "Airport", "name": "Powder Mountain Ski Area Heliport", "source_ref": "geonames.usgs.gov"}}, {"type": "node", "id": 368981822, "lat": 41.1722083, "lon": -112.0271008, "tags": {"addr:state": "UT", "aeroway": "helipad", "ele": "1365", "gnis:county_name": "Weber", "gnis:created": "02/25/1989", "gnis:feature_id": "1436275", "gnis:feature_type": "Airport", "name": "Roy City Municipal Heliport", "source_ref": "geonames.usgs.gov"}}, {"type": "node", "id": 368981833, "lat": 40.7768904, "lon": -111.8868807, "tags": {"addr:state": "UT", "aeroway": "helipad", "ele": "1378", "gnis:county_name": "Salt Lake", "gnis:created": "02/25/1989", "gnis:feature_id": "1436428", "gnis:feature_type": "Airport", "name": "State Capitol Heliport", "source_ref": "geonames.usgs.gov"}}, {"type": "node", "id": 368981836, "lat": 40.5840557, "lon": -111.6509895, "tags": {"addr:state": "UT", "aeroway": "helipad", "ele": "2522", "gnis:county_name": "Salt Lake", "gnis:created": "02/25/1989", "gnis:feature_id": "1436379", "gnis:feature_type": "Airport", "name": "Snowbird Ski Resort Heliport", "source_ref": "geonames.usgs.gov"}}, {"type": "node", "id": 368981837, "lat": 40.673264, "lon": -114.0391766, "tags": {"addr:state": "UT", "aeroway": "helipad", "ele": "1286", "gnis:county_name": "Tooele", "gnis:created": "02/25/1989", "gnis:feature_id": "1436547", "gnis:feature_type": "Airport", "name": "United States Pollution Control Heliport", "source_ref": "geonames.usgs.gov"}}, {"type": "node", "id": 368981840, "lat": 40.916614, "lon": -111.4007524, "tags": {"addr:state": "UT", "aeroway": "helipad", "ele": "1698", "gnis:county_name": "Summit", "gnis:created": "02/25/1989", "gnis:feature_id": "1436445", "gnis:feature_type": "Airport", "name": "Summit County Hospital Heliport", "source_ref": "geonames.usgs.gov"}}, {"type": "node", "id": 368981879, "lat": 40.4032809, "lon": -110.7640506, "tags": {"addr:state": "UT", "aeroway": "helipad", "ele": "2060", "gnis:county_name": "Duchesne", "gnis:created": "02/25/1989", "gnis:feature_id": "1435648", "gnis:feature_type": "Airport", "name": "Hanna Heliport", "source_ref": "geonames.usgs.gov"}}, {"type": "node", "id": 368981894, "lat": 41.2540553, "lon": -113.0827074, "tags": {"addr:state": "UT", "aeroway": "helipad", "ele": "1296", "gnis:county_name": "Box Elder", "gnis:created": "02/25/1989", "gnis:feature_id": "1435682", "gnis:feature_type": "Airport", "name": "Hogup Pump Station Heliport", "source_ref": "geonames.usgs.gov"}}, {"type": "node", "id": 368981913, "lat": 40.7285758, "lon": -113.2573449, "tags": {"addr:state": "UT", "aeroway": "helipad", "ele": "1300", "gnis:county_name": "Tooele", "gnis:created": "02/25/1989", "gnis:feature_id": "1435829", "gnis:feature_type": "Airport", "name": "Knoll I-80 Heliport", "source_ref": "geonames.usgs.gov"}}, {"type": "node", "id": 368981917, "lat": 40.9322806, "lon": -111.386456, "tags": {"addr:state": "UT", "aeroway": "helipad", "ele": "1800", "gnis:county_name": "Summit", "gnis:created": "02/25/1989", "gnis:feature_id": "1435828", "gnis:feature_type": "Airport", "name": "Knight Hawk Helicopter Service", "source_ref": "geonames.usgs.gov", "wikidata": "Q49747269"}}, {"type": "node", "id": 368981921, "lat": 41.221597, "lon": -112.8708122, "tags": {"addr:state": "UT", "aeroway": "helipad", "ele": "1340", "gnis:county_name": "Box Elder", "gnis:created": "02/25/1989", "gnis:feature_id": "1435842", "gnis:feature_type": "Airport", "name": "Lakeside Heliport", "source_ref": "geonames.usgs.gov"}}, {"type": "node", "id": 368981928, "lat": 40.6332784, "lon": -112.1841105, "tags": {"addr:state": "UT", "aeroway": "helipad", "ele": "2172", "gnis:county_name": "Salt Lake", "gnis:created": "02/25/1989", "gnis:feature_id": "1435874", "gnis:feature_type": "Airport", "name": "Little Farnsworth Peak Heliport", "source_ref": "geonames.usgs.gov"}}, {"type": "node", "id": 368982182, "lat": 40.7830167, "lon": -111.958708, "tags": {"addr:state": "UT", "aeroway": "helipad", "ele": "1287", "gnis:county_name": "Salt Lake", "gnis:created": "02/25/1989", "gnis:feature_id": "1448960", "gnis:feature_type": "Airport", "name": "HF", "source_ref": "geonames.usgs.gov", "surface": "asphalt"}}, {"type": "node", "id": 368982183, "lat": 41.2162695, "lon": -111.858244, "tags": {"addr:state": "UT", "aeroway": "helipad", "ele": "1940", "gnis:county_name": "Weber", "gnis:created": "02/25/1989", "gnis:feature_id": "1449013", "gnis:feature_type": "Airport", "name": "Snow Basin Heliport", "source_ref": "geonames.usgs.gov"}}, {"type": "node", "id": 368982187, "lat": 40.5572287, "lon": -110.6997211, "tags": {"addr:state": "UT", "aeroway": "helipad", "ele": "2435", "gnis:county_name": "Duchesne", "gnis:created": "02/25/1989", "gnis:feature_id": "1449070", "gnis:feature_type": "Airport", "name": "Stillwater Heliport", "source_ref": "geonames.usgs.gov"}}, {"type": "node", "id": 368982197, "lat": 40.8271676, "lon": -111.9218825, "tags": {"addr:state": "UT", "aeroway": "helipad", "ele": "1286", "gnis:county_name": "Salt Lake", "gnis:created": "02/25/1989", "gnis:feature_id": "1448514", "gnis:feature_type": "Airport", "name": "J D McNeil Construction Inc Heliport", "source_ref": "geonames.usgs.gov"}}, {"type": "node", "id": 368982198, "lat": 40.7701751, "lon": -111.9006146, "tags": {"addr:state": "UT", "aeroway": "helipad", "created_by": "Potlatch 0.10f", "ele": "1304", "gnis:county_name": "Salt Lake", "gnis:created": "02/25/1989", "gnis:feature_id": "1448533", "gnis:feature_type": "Airport", "name": "KSL TV, Channel 5 Heliport", "source_ref": "geonames.usgs.gov"}}, {"type": "node", "id": 368982202, "lat": 41.2538075, "lon": -112.2537772, "tags": {"addr:state": "UT", "aeroway": "helipad", "ele": "1283", "gnis:county_name": "Weber", "gnis:created": "02/25/1989", "gnis:feature_id": "1448609", "gnis:feature_type": "Airport", "name": "Little Mountain USAF Heliports", "source_ref": "geonames.usgs.gov"}}, {"type": "node", "id": 368982212, "lat": 40.6282846, "lon": -111.5257515, "tags": {"addr:state": "UT", "aeroway": "helipad", "ele": "2740", "gnis:county_name": "Summit", "gnis:created": "02/25/1989", "gnis:feature_id": "1448804", "gnis:feature_type": "Airport", "name": "Park City Ski Area Heliport", "source_ref": "geonames.usgs.gov"}}, {"type": "node", "id": 368982222, "lat": 40.5766151, "lon": -111.8474335, "tags": {"addr:state": "UT", "aeroway": "helipad", "ele": "1462", "gnis:county_name": "Salt Lake", "gnis:created": "02/25/1989", "gnis:feature_id": "1448067", "gnis:feature_type": "Airport", "name": "Alta View Hospital Heliport", "source_ref": "geonames.usgs.gov"}}, {"type": "node", "id": 368982234, "lat": 40.6015396, "lon": -111.5831923, "tags": {"addr:state": "UT", "aeroway": "helipad", "ele": "2660", "gnis:county_name": "Salt Lake", "gnis:created": "02/25/1989", "gnis:feature_id": "1448188", "gnis:feature_type": "Airport", "name": "Brighton Ski Area Heliport", "source_ref": "geonames.usgs.gov"}}, {"type": "node", "id": 368982248, "lat": 40.7724293, "lon": -111.8370502, "tags": {"addr:state": "UT", "aeroway": "helipad", "ele": "1509", "gnis:county_name": "Salt Lake", "gnis:created": "02/25/1989", "gnis:feature_id": "1447606", "gnis:feature_type": "Airport", "name": "University of Utah Medical Center Heliport", "source_ref": "geonames.usgs.gov"}}, {"type": "node", "id": 368982304, "lat": 40.6815862, "lon": -112.0888087, "tags": {"addr:state": "UT", "aeroway": "helipad", "ele": "1392", "gnis:county_name": "Salt Lake", "gnis:created": "02/25/1989", "gnis:feature_id": "1450382", "gnis:feature_type": "Airport", "name": "Hercules Bacchus Works Heliport", "source_ref": "geonames.usgs.gov"}}, {"type": "node", "id": 368982366, "lat": 41.0314836, "lon": -111.8392135, "tags": {"addr:state": "UT", "aeroway": "helipad", "ele": "2883", "gnis:county_name": "Morgan", "gnis:created": "02/25/1989", "gnis:feature_id": "1454744", "gnis:feature_type": "Airport", "name": "Francis Peak Heliport", "source_ref": "geonames.usgs.gov"}}, {"type": "node", "id": 368982477, "lat": 40.7549461, "lon": -111.8946585, "tags": {"addr:state": "UT", "aeroway": "helipad", "ele": "1291", "gnis:county_name": "Salt Lake", "gnis:created": "02/25/1989", "gnis:feature_id": "1455921", "gnis:feature_type": "Airport", "name": "Tri-Arc Hotel Helipad", "source_ref": "geonames.usgs.gov"}}, {"type": "node", "id": 369014607, "lat": 45.7743, "lon": -118.5594, "tags": {"addr:state": "OR", "aeroway": "helipad", "closest_town": "Adams, Oregon", "ele": "472", "faa": "OR18", "gnis:county_name": "Umatilla", "gnis:created": "05/22/1986", "gnis:feature_id": "1131739", "gnis:feature_type": "Airport", "name": "Davis Heliport", "operator": "B.L. Davis", "source_ref": "geonames.usgs.gov", "type": "private", "wikidata": "Q6634945", "wikipedia": "en:List of private-use airports in Oregon"}}, {"type": "node", "id": 369017506, "lat": 45.4304058, "lon": -116.6940004, "tags": {"addr:state": "OR", "aeroway": "helipad", "ele": "2032", "gnis:county_name": "Wallowa", "gnis:created": "04/01/1993", "gnis:feature_id": "1158092", "gnis:feature_type": "Airport", "name": "Helitack Base", "source_ref": "geonames.usgs.gov", "wikidata": "Q49746753"}}, {"type": "node", "id": 369018097, "lat": 45.3165227, "lon": -118.0343835, "tags": {"addr:state": "OR", "aeroway": "helipad", "ele": "830", "gnis:county_name": "Union", "gnis:created": "05/22/1986", "gnis:feature_id": "1164160", "gnis:feature_type": "Airport", "name": "Rambling Rotors Heliport", "source_ref": "geonames.usgs.gov"}}, {"type": "node", "id": 369030160, "lat": 46.4248835, "lon": -117.0571032, "tags": {"addr:state": "WA", "aeroway": "helipad", "ele": "235", "gnis:county_name": "Asotin", "gnis:created": "06/01/1992", "gnis:feature_id": "1514351", "gnis:feature_type": "Airport", "name": "Asotin County Heliport", "source_ref": "geonames.usgs.gov"}}, {"type": "node", "id": 369033516, "lat": 46.6724926, "lon": -117.442412, "tags": {"addr:state": "WA", "aeroway": "helipad", "ele": "209", "faa": "70WA", "gnis:county_name": "Whitman", "gnis:created": "03/01/1990", "gnis:feature_id": "1533716", "gnis:feature_type": "Airport", "lit": "yes", "name": "Whitman Community Hospital Heliport", "source_ref": "geonames.usgs.gov", "surface": "concrete", "wikidata": "Q61725880"}}, {"type": "node", "id": 369033518, "lat": 46.6613717, "lon": -117.4309726, "tags": {"addr:state": "WA", "aeroway": "helipad", "ele": "196", "gnis:county_name": "Garfield", "gnis:created": "03/01/1990", "gnis:feature_id": "1533714", "gnis:feature_type": "Airport", "name": "Lower Granite Dam Heliport", "source_ref": "geonames.usgs.gov"}}, {"type": "node", "id": 369033523, "lat": 46.4221316, "lon": -117.0389789, "tags": {"addr:state": "WA", "aeroway": "helipad", "ele": "227", "gnis:county_name": "Asotin", "gnis:created": "03/01/1990", "gnis:feature_id": "1533709", "gnis:feature_type": "Airport", "name": "O and M Facilities Heliport", "source_ref": "geonames.usgs.gov"}}, {"type": "node", "id": 369033623, "lat": 48.1821612, "lon": -117.049284, "tags": {"aeroway": "helipad", "faa": "WN32", "gnis:feature_id": "1533852", "lit": "yes", "name": "Newport Community Hospital Heliport", "surface": "asphalt", "wikidata": "Q61726035"}}, {"type": "node", "id": 369033664, "lat": 46.2527127, "lon": -118.878492, "tags": {"addr:state": "WA", "aeroway": "helipad", "ele": "135", "faa": "WN81", "gnis:county_name": "Franklin", "gnis:created": "03/01/1990", "gnis:feature_id": "1533878", "gnis:feature_type": "Airport", "lit": "no", "name": "Ice Harbor Dam Heliport", "operator": "US Army Corps of Engineers", "source_ref": "geonames.usgs.gov", "surface": "asphalt", "wikidata": "Q61726064"}}, {"type": "node", "id": 369033938, "lat": 46.5690295, "lon": -118.53693, "tags": {"addr:state": "WA", "aeroway": "helipad", "ele": "194", "faa": "WN84", "gnis:county_name": "Franklin", "gnis:created": "03/01/1990", "gnis:feature_id": "1533796", "gnis:feature_type": "Airport", "lit": "no", "name": "Lower Monumental Dam Heliport", "source_ref": "geonames.usgs.gov", "surface": "asphalt", "wikidata": "Q61725970"}}, {"type": "node", "id": 369034114, "lat": 47.6862848, "lon": -117.197984, "tags": {"access": "private", "addr:state": "WA", "aeroway": "helipad", "ele": "614", "faa": "06WA", "fixme": "Location incorrect?", "gnis:county_name": "Spokane", "gnis:created": "03/01/1990", "gnis:feature_id": "1533972", "gnis:feature_type": "Airport", "lit": "no", "name": "N A Degerstrom Yard Heliport", "source_ref": "geonames.usgs.gov", "surface": "asphalt", "wikidata": "Q61726159"}}, {"type": "node", "id": 369034169, "lat": 46.5820912, "lon": -118.0316153, "tags": {"addr:state": "WA", "aeroway": "helipad", "ele": "165", "gnis:county_name": "Columbia", "gnis:created": "03/01/1990", "gnis:feature_id": "1533985", "gnis:feature_type": "Airport", "name": "Little Goose Dam Heliport", "source_ref": "geonames.usgs.gov"}}, {"type": "node", "id": 369035154, "lat": 48.9818592, "lon": -117.359589, "tags": {"addr:state": "WA", "aeroway": "helipad", "ele": "787", "gnis:county_name": "Pend Oreille", "gnis:created": "05/01/1992", "gnis:feature_id": "1534167", "gnis:feature_type": "Airport", "name": "Boundary Substation Heliport", "source_ref": "geonames.usgs.gov"}}, {"type": "node", "id": 369147653, "lat": 45.9540045, "lon": -112.5009333, "tags": {"addr:state": "MT", "aeroway": "helipad", "ele": "1686", "gnis:county_name": "Silver Bow", "gnis:created": "01/01/1994", "gnis:feature_id": "806376", "gnis:feature_type": "Airport", "name": "Butte Aero Heliport", "source_ref": "geonames.usgs.gov"}}, {"type": "node", "id": 369147925, "lat": 48.0931776, "lon": -114.0877575, "tags": {"addr:city": "Bigfork", "addr:housenumber": "7583", "addr:postcode": "59911", "addr:state": "MT", "addr:street": "State Highway 35", "aeroway": "helipad", "ele": "932", "faa": "MT91", "gnis:county_name": "Flathead", "gnis:created": "01/01/1994", "gnis:feature_id": "806362", "gnis:feature_type": "Airport", "name": "North Country Pad Heliport", "ref": "MT91", "source_ref": "geonames.usgs.gov"}}, {"type": "node", "id": 369148275, "lat": 46.5163213, "lon": -112.2016743, "tags": {"addr:state": "MT", "aeroway": "helipad", "ele": "1844", "gnis:county_name": "Lewis and Clark", "gnis:created": "01/01/1994", "gnis:feature_id": "807095", "gnis:feature_type": "Airport", "name": "Red Mountain Heliport", "source_ref": "geonames.usgs.gov"}}, {"type": "node", "id": 369148408, "lat": 47.0996576, "lon": -113.4184093, "tags": {"addr:state": "MT", "aeroway": "helipad", "ele": "1397", "gnis:county_name": "Missoula", "gnis:created": "01/01/1994", "gnis:feature_id": "806520", "gnis:feature_type": "Airport", "name": "Sourdough Island on Salmon Lake Heliport", "source_ref": "geonames.usgs.gov"}}, {"type": "node", "id": 369148591, "lat": 46.2066715, "lon": -114.1527223, "tags": {"addr:state": "MT", "aeroway": "helipad", "ele": "1105", "gnis:county_name": "Ravalli", "gnis:created": "01/01/1994", "gnis:feature_id": "806436", "gnis:feature_type": "Airport", "lit": "no", "name": "Rotorcraft Heliport", "ref": "M62", "source_ref": "geonames.usgs.gov", "surface": "concrete"}}, {"type": "node", "id": 369148600, "lat": 47.4880461, "lon": -111.2968818, "tags": {"addr:state": "MT", "aeroway": "helipad", "ele": "1048", "faa": "MT27", "gnis:county_name": "Cascade", "gnis:created": "01/01/1994", "gnis:feature_id": "806432", "gnis:feature_type": "Airport", "name": "Columbus Hospital Heliport", "ref": "MT27", "source_ref": "geonames.usgs.gov", "surface": "asphalt"}}, {"type": "node", "id": 389141433, "lat": 40.7726576, "lon": -111.8372103, "tags": {"aeroway": "helipad"}}, {"type": "node", "id": 1042134088, "lat": 48.9189476, "lon": -117.4160743, "tags": {"aeroway": "helipad", "faa": "6WA7", "lit": "no", "name": "Metaline Radio Heliport", "operator": "US Forest Service", "source": "ourairports.com", "surface": "dirt", "wikidata": "Q61726019"}}, {"type": "node", "id": 1042134144, "lat": 46.8749008, "lon": -117.3759995, "tags": {"aeroway": "helipad", "name": "Whitman Community Hospital Heliport", "source": "ourairports.com"}}, {"type": "node", "id": 1042134314, "lat": 49.8674232, "lon": -119.5792294, "tags": {"aeroway": "helipad", "name": "Kelowna (Wildcat Helicopters) Heliport", "source": "ourairports.com"}}, {"type": "node", "id": 1042135252, "lat": 45.1238603, "lon": -116.7426361, "tags": {"aeroway": "helipad", "faa": "OR91", "lit": "no", "name": "Big Bar Heliport", "operator": "Idaho Power Company", "source": "ourairports.com", "surface": "concrete", "wikidata": "Q619927"}}, {"type": "node", "id": 1042141248, "lat": 40.708044, "lon": -112.183056, "tags": {"aeroway": "helipad", "name": "Bear River Valley Hospital Heliport", "source": "ourairports.com"}}, {"type": "node", "id": 1042141884, "lat": 40.6786003, "lon": -111.9029999, "tags": {"aeroway": "helipad", "name": "Century Equipment Company Heliport", "source": "ourairports.com"}}, {"type": "node", "id": 1042142378, "lat": 47.759712, "lon": -117.1502075, "tags": {"addr:city": "Spokane", "addr:housenumber": "11310", "addr:postcode": "99027", "addr:state": "WA", "addr:street": "North Judkins Lane", "aeroway": "helipad", "faa": "WA91", "lit": "no", "name": "Pathfinder Helicopter Heliport", "source": "ourairports.com", "surface": "concrete", "wikidata": "Q61726161"}}, {"type": "node", "id": 1042142409, "lat": 46.3579994, "lon": -119.333637, "tags": {"aeroway": "helipad", "faa": "WT02", "lit": "no", "name": "Hammer EVOC Skid Pad Heliport", "operator": "US Dept. of Energy", "source": "ourairports.com", "surface": "asphalt", "wikidata": "Q61726105"}}, {"type": "node", "id": 1042142736, "lat": 42.5432391, "lon": -114.5455368, "tags": {"aeroway": "helipad", "faa": "84ID", "name": "Shetler's Heliport", "source": "ourairports.com", "wikidata": "Q61668330"}}, {"type": "node", "id": 1042143011, "lat": 47.573152, "lon": -117.703998, "tags": {"access": "private", "aeroway": "helipad", "faa": "8WT0", "lit": "yes", "name": "Eastern State Hospital EMS Heliport", "surface": "concrete", "wikidata": "Q61726012"}}, {"type": "node", "id": 1042143021, "lat": 46.955611, "lon": -114.127083, "tags": {"aeroway": "helipad", "faa": "90MT", "lit": "no", "name": "Aero Heliport", "ref": "90MT", "source": "ourairports.com", "surface": "grass"}}, {"type": "node", "id": 1042143128, "lat": 43.2993011, "lon": -110.777, "tags": {"aeroway": "helipad", "faa": "97WY", "lit": "yes", "name": "Snake River Canyon Heliport", "source": "ourairports.com", "surface": "grass", "wikidata": "Q61726866"}}, {"type": "node", "id": 1042143155, "lat": 43.3016167, "lon": -110.775387, "tags": {"aeroway": "helipad", "faa": "98WY", "lit": "no", "name": "HMHS Heliport", "source": "ourairports.com", "surface": "grass", "wikidata": "Q61726864"}}, {"type": "node", "id": 1042143170, "lat": 44.5115055, "lon": -114.2244685, "tags": {"aeroway": "helipad", "faa": "99ID", "lit": "no", "name": "CAHC Emergency Heliport", "source": "ourairports.com", "surface": "asphalt", "wikidata": "Q61668111"}}, {"type": "node", "id": 1042144406, "lat": 49.865384, "lon": -119.5688184, "tags": {"aeroway": "helipad", "name": "Kelowna (Alpine) Heliport", "source": "ourairports.com"}}, {"type": "node", "id": 1042144504, "lat": 49.3861008, "lon": -117.552002, "tags": {"aeroway": "helipad", "name": "Castlegar (Tarrys Convention Centre) Heliport", "source": "ourairports.com"}}, {"type": "node", "id": 1042144686, "lat": 49.6086006, "lon": -114.4509964, "tags": {"aeroway": "helipad", "name": "Blairmore (Forestry) Heliport", "source": "ourairports.com"}}, {"type": "node", "id": 1042145372, "lat": 49.7855081, "lon": -112.1661739, "tags": {"aeroway": "helipad", "name": "Taber (Health Centre) Heliport", "source": "ourairports.com"}}, {"type": "node", "id": 1042147134, "lat": 47.7798996, "lon": -117.010002, "tags": {"aeroway": "helipad", "faa": "ID38", "lit": "no", "name": "Sutherland Heliport", "source": "ourairports.com", "surface": "gravel", "wikidata": "Q61668173"}}, {"type": "node", "id": 1042147139, "lat": 47.7831993, "lon": -116.6839981, "tags": {"aeroway": "helipad", "name": "Welburn Heliport", "source": "ourairports.com"}}, {"type": "node", "id": 1042147154, "lat": 42.7055016, "lon": -114.348999, "tags": {"aeroway": "helipad", "faa": "ID69", "lit": "no", "name": "Sun Valley Gun Club Heliport", "source": "ourairports.com", "surface": "gravel", "wikidata": "Q61668325"}}, {"type": "node", "id": 1042147167, "lat": 47.6929337, "lon": -116.7842667, "tags": {"aeroway": "helipad", "faa": "ID71", "lit": "no", "name": "Big Country Heliport", "source": "ourairports.com", "surface": "asphalt", "wikidata": "Q61668123"}}, {"type": "node", "id": 1042147172, "lat": 47.5073236, "lon": -116.892492, "tags": {"aeroway": "helipad", "faa": "ID73", "lit": "no", "name": "Rockford Bay Heliport", "source": "ourairports.com", "surface": "grass", "wikidata": "Q61668131"}}, {"type": "node", "id": 1042147173, "lat": 43.654167, "lon": -116.9860001, "tags": {"aeroway": "helipad", "name": "West Valley Hospital Heliport", "source": "ourairports.com"}}, {"type": "node", "id": 1042147178, "lat": 42.5674019, "lon": -117.4950027, "tags": {"aeroway": "helipad", "name": "Scanlon Heliport", "source": "ourairports.com"}}, {"type": "node", "id": 1042149923, "lat": 48.215514, "lon": -114.298047, "tags": {"aeroway": "helipad", "faa": "MT10", "lit": "no", "name": "Riverside Heliport", "ref": "MT10", "source": "ourairports.com", "surface": "concrete"}}, {"type": "node", "id": 1042150768, "lat": 44.4944, "lon": -117.7470016, "tags": {"aeroway": "helipad", "name": "Three Valleys Ranch Heliport", "source": "ourairports.com"}}, {"type": "node", "id": 1042150991, "lat": 44.846431, "lon": -116.8987602, "tags": {"aeroway": "helipad", "name": "Brownlee Heliport", "source": "ourairports.com"}}, {"type": "node", "id": 1042150995, "lat": 44.8165016, "lon": -116.8590012, "tags": {"aeroway": "helipad", "name": "Oxbow Heliport", "source": "ourairports.com"}}, {"type": "node", "id": 1042153044, "lat": 40.5172643, "lon": -111.888903, "tags": {"aeroway": "helipad", "faa": "UT05", "lit": "no", "name": "Utah National Guard Headquarters Heliport", "source": "ourairports.com", "surface": "concrete", "wikidata": "Q61725149"}}, {"type": "node", "id": 1042153145, "lat": 40.6883385, "lon": -111.8920881, "tags": {"aeroway": "helipad", "name": "Skaggs Heliport", "source": "ourairports.com", "wikidata": "Q61725231"}}, {"type": "node", "id": 1042153157, "lat": 40.5836497, "lon": -112.383032, "tags": {"aeroway": "helipad", "name": "Miller Motorsports Park Heliport", "source": "ourairports.com", "wikidata": "Q61725235"}}, {"type": "node", "id": 1042153543, "lat": 43.6018908, "lon": -110.751248, "tags": {"aeroway": "helipad", "faa": "WY20", "lit": "no", "name": "HeliX Heliport", "source": "ourairports.com", "surface": "concrete", "wikidata": "Q61726863"}}, {"type": "node", "id": 1157024906, "lat": 49.721101, "lon": -114.8932657, "tags": {"aeroway": "helipad", "source": "Bing"}}, {"type": "node", "id": 1350984666, "lat": 49.0585892, "lon": -117.6088558, "tags": {"aeroway": "helipad"}}, {"type": "node", "id": 1350984846, "lat": 49.016721, "lon": -118.4251203, "tags": {"aeroway": "helipad"}}, {"type": "node", "id": 1485341479, "lat": 40.7678897, "lon": -111.8297306, "tags": {"aeroway": "helipad"}}, {"type": "node", "id": 1877790879, "lat": 40.6207672, "lon": -111.9965418, "tags": {"aeroway": "helipad"}}, {"type": "node", "id": 1891816408, "lat": 40.2209378, "lon": -111.719632, "tags": {"aeroway": "helipad"}}, {"type": "node", "id": 1916539053, "lat": 48.7988615, "lon": -113.6653124, "tags": {"aeroway": "helipad"}}, {"type": "node", "id": 1956610023, "lat": 49.1035511, "lon": -117.7001889, "tags": {"aeroway": "helipad", "name": "Trail Regional Hospital Helipad"}}, {"type": "node", "id": 2000560155, "lat": 49.3012345, "lon": -117.6359425, "tags": {"aeroway": "helipad"}}, {"type": "node", "id": 2180431863, "lat": 43.6066178, "lon": -110.7348572, "tags": {"aeroway": "helipad"}}, {"type": "node", "id": 2180431864, "lat": 43.6054021, "lon": -110.7347151, "tags": {"aeroway": "helipad"}}, {"type": "node", "id": 2180431872, "lat": 43.6062295, "lon": -110.7348706, "tags": {"aeroway": "helipad"}}, {"type": "node", "id": 2218253565, "lat": 42.5395559, "lon": -113.7697785, "tags": {"aeroway": "helipad"}}, {"type": "node", "id": 2309329031, "lat": 44.834837, "lon": -117.8096913, "tags": {"aeroway": "helipad"}}, {"type": "node", "id": 2988296051, "lat": 49.4595455, "lon": -119.6052562, "tags": {"aeroway": "helipad"}}, {"type": "node", "id": 2988296052, "lat": 49.4594479, "lon": -119.6050094, "tags": {"aeroway": "helipad"}}, {"type": "node", "id": 2988296053, "lat": 49.4592962, "lon": -119.6050148, "tags": {"aeroway": "helipad"}}, {"type": "node", "id": 2988296054, "lat": 49.4591463, "lon": -119.6050228, "tags": {"aeroway": "helipad"}}, {"type": "node", "id": 2988296055, "lat": 49.4590923, "lon": -119.6052696, "tags": {"aeroway": "helipad"}}, {"type": "node", "id": 3458596103, "lat": 46.7233732, "lon": -116.9815198, "tags": {"aeroway": "helipad", "source": "Bing"}}, {"type": "node", "id": 3523499269, "lat": 40.772756, "lon": -111.8375469, "tags": {"aeroway": "helipad"}}, {"type": "node", "id": 3786895853, "lat": 43.454968, "lon": -112.0867186, "tags": {"aeroway": "helipad"}}, {"type": "node", "id": 3864943958, "lat": 46.7187439, "lon": -115.2609571, "tags": {"aeroway": "helipad"}}, {"type": "node", "id": 4089173665, "lat": 41.2740914, "lon": -111.0311768, "tags": {"aeroway": "helipad"}}, {"type": "node", "id": 4120610581, "lat": 48.4874074, "lon": -113.9993437, "tags": {"aeroway": "helipad", "name": "Glacier Heli Tours"}}, {"type": "node", "id": 4120610582, "lat": 48.4804159, "lon": -114.000822, "tags": {"aeroway": "helipad", "faa": "33MT", "lit": "no", "name": "Kruger Heliport", "operator": "Kruger Helicoper Tours", "ref": "33MT", "surface": "concrete"}}, {"type": "node", "id": 4262164864, "lat": 43.5569924, "lon": -116.2126758, "tags": {"aeroway": "helipad", "source": "bing"}}, {"type": "node", "id": 4262165399, "lat": 43.5595242, "lon": -116.2013036, "tags": {"aeroway": "helipad", "source": "bing"}}, {"type": "node", "id": 4576097645, "lat": 41.0685329, "lon": -111.9887033, "tags": {"aeroway": "helipad"}}, {"type": "node", "id": 4650876299, "lat": 40.2217379, "lon": -118.3867722, "tags": {"aeroway": "helipad"}}, {"type": "node", "id": 5639657687, "lat": 49.1035765, "lon": -117.7004373, "tags": {"aeroway": "helipad"}}, {"type": "node", "id": 5884734166, "lat": 45.7169127, "lon": -114.5028915, "tags": {"aeroway": "helipad"}}, {"type": "node", "id": 5921643100, "lat": 41.0480897, "lon": -112.9392486, "tags": {"aeroway": "helipad"}}, {"type": "node", "id": 6271796406, "lat": 49.6858956, "lon": -112.8166723, "tags": {"aeroway": "helipad"}}, {"type": "node", "id": 6484775927, "lat": 47.1911126, "lon": -119.3231567, "tags": {"aeroway": "helipad"}}, {"type": "node", "id": 6484802309, "lat": 47.1910977, "lon": -119.3281875, "tags": {"aeroway": "helipad"}}, {"type": "node", "id": 6677587264, "lat": 40.7634166, "lon": -111.8906544, "tags": {"aeroway": "helipad", "ref": "UT33"}}, {"type": "node", "id": 6677587265, "lat": 40.7631994, "lon": -111.8907148, "tags": {"aeroway": "helipad", "ref": "UT31"}}, {"type": "node", "id": 7170784125, "lat": 48.106517, "lon": -119.7818123, "tags": {"aeroway": "helipad"}}, {"type": "node", "id": 7221294958, "lat": 47.776937, "lon": -117.083836, "tags": {"access": "private", "aeroway": "helipad", "faa": "0WA7", "lit": "no", "name": "Shamrock Port Heliport", "surface": "concrete", "wikidata": "Q61726033"}}, {"type": "node", "id": 7221294965, "lat": 47.6013466, "lon": -117.2356083, "tags": {"access": "no", "aeroway": "helipad", "faa": "WA70", "name": "Birdhouse", "note": "Heliport has been ordered to close by a judge"}}, {"type": "node", "id": 7820130579, "lat": 44.5928697, "lon": -114.4759321, "tags": {"aeroway": "helipad"}}, {"type": "node", "id": 8067255726, "lat": 47.6000199, "lon": -112.6720266, "tags": {"aeroway": "helipad", "faa": "2MT6", "fixme": "Location wrong? Current is FAA estimated location.", "name": "Sun River Ranch Heliport", "ref": "2MT6", "surface": "concrete"}}, {"type": "node", "id": 8067255727, "lat": 45.7745772, "lon": -111.202805, "tags": {"aeroway": "helipad", "faa": "1MT1", "name": "Krinitt Helicopters Heliport", "ref": "1MT1", "surface": "concrete"}}, {"type": "node", "id": 8067256213, "lat": 46.3076893, "lon": -114.1114343, "tags": {"aeroway": "helipad", "faa": "MT59", "lit": "no", "name": "King Copters Heliport", "ref": "MT59", "surface": "grass"}}, {"type": "node", "id": 8067256214, "lat": 46.080279, "lon": -114.178638, "tags": {"addr:city": "Darby", "addr:housenumber": "157", "addr:postcode": "59829", "addr:state": "MT", "addr:street": "Lake Como Road", "aeroway": "helipad", "faa": "7MT5", "lit": "no", "name": "Kyle Heliport", "ref": "7MT5", "surface": "grass"}}, {"type": "node", "id": 8067256215, "lat": 48.0817138, "lon": -113.9947496, "tags": {"aeroway": "helipad", "faa": "2MT4", "lit": "no", "name": "River Bend Ranch Heliport", "ref": "2MT4", "surface": "concrete"}}, {"type": "node", "id": 8067256216, "lat": 48.7778666, "lon": -114.9688332, "tags": {"aeroway": "helipad", "faa": "2MT7", "lit": "no", "name": "Barnaby Lake Medivac Site Heliport", "ref": "2MT7", "surface": "grass"}}, {"type": "node", "id": 8067256222, "lat": 46.2279238, "lon": -114.157523, "tags": {"aeroway": "helipad", "faa": "38MT", "fixme": "Location incorrect. Current is FAA data estimate.", "lit": "no", "name": "AV8-ORR Helicopters Heliport", "operator": "AV8-ORR Helicopters", "ref": "38MT", "surface": "asphalt"}}, {"type": "node", "id": 8067256223, "lat": 46.7034446, "lon": -111.8271998, "tags": {"aeroway": "helipad", "faa": "4MT5", "lit": "no", "name": "Port Smith Heliport", "operator": "Patrick Smith", "ref": "4MT5", "start_date": "2020-05", "surface": "grass"}}, {"type": "node", "id": 8067256234, "lat": 46.8553112, "lon": -114.0584251, "tags": {"aeroway": "helipad", "lit": "no", "ref": "H2", "surface": "grass"}}, {"type": "node", "id": 8067256242, "lat": 48.8595397, "lon": -115.1073764, "tags": {"aeroway": "helipad", "faa": "MT07", "lit": "no", "name": "Moose Country Heliport", "ref": "MT07", "surface": "grass"}}, {"type": "node", "id": 8067256244, "lat": 48.0511165, "lon": -114.2294194, "tags": {"aeroway": "helipad", "faa": "MT14", "lit": "no", "name": "Marco Bay Heliport", "ref": "MT14", "surface": "grass"}}, {"type": "node", "id": 8067256247, "lat": 48.4862863, "lon": -113.9981444, "tags": {"aeroway": "helipad", "faa": "0MT8", "lit": "no", "name": "Glacier Heli Tours Heliport", "ref": "0MT8", "surface": "asphalt"}}, {"type": "node", "id": 8165432211, "lat": 47.260932, "lon": -119.2763948, "tags": {"addr:city": "Moses Lake", "addr:housenumber": "11821", "addr:postcode": "98837", "addr:state": "WA", "addr:street": "Stratford Road Northeast", "aeroway": "helipad", "name": "Life Flight Network", "surface": "asphalt"}}, {"type": "node", "id": 8210852924, "lat": 48.1478809, "lon": -119.6968559, "tags": {"aeroway": "helipad"}}, {"type": "node", "id": 8250885280, "lat": 46.6613694, "lon": -117.4379272, "tags": {"aeroway": "helipad", "faa": "WN43", "lit": "no", "name": "Lower Granite Dam Heliport", "operator": "US Army Corps of Engineers", "surface": "asphalt", "wikidata": "Q61725878"}}, {"type": "node", "id": 8250885281, "lat": 46.4265743, "lon": -117.0582559, "tags": {"aeroway": "helipad", "faa": "WT28", "lit": "no", "name": "Kiwi Air Heliport", "surface": "asphalt", "wikidata": "Q61725872"}}, {"type": "node", "id": 8253142665, "lat": 48.5748017, "lon": -116.9583194, "tags": {"aeroway": "helipad"}}, {"type": "node", "id": 8253142666, "lat": 48.5743992, "lon": -116.9580997, "tags": {"aeroway": "helipad"}}, {"type": "node", "id": 8313481921, "lat": 43.5632055, "lon": -116.2529762, "tags": {"addr:city": "Boise", "addr:housenumber": "5717", "addr:postcode": "83705", "addr:state": "ID", "addr:street": "West Albatros Street", "aeroway": "helipad", "faa": "Id58", "lit": "no", "name": "Nampa Valley Heliport", "note": "Faa Coord. are off by a long-ways. This is correct.", "surface": "gravel", "wikidata": "Q61668091"}}, {"type": "node", "id": 8313481932, "lat": 42.9544137, "lon": -115.3055564, "tags": {"aeroway": "helipad", "faa": "3ID4", "lit": "no", "name": "Health Center Heliport", "surface": "grass", "wikidata": "Q61668161"}}, {"type": "node", "id": 8313481959, "lat": 43.7167368, "lon": -116.3886291, "tags": {"aeroway": "helipad", "faa": "ID31", "lit": "no", "name": "Young Heliport", "surface": "grass", "wikidata": "Q61668145"}}, {"type": "node", "id": 8313481960, "lat": 47.2510692, "lon": -116.8522707, "tags": {"aeroway": "helipad", "faa": "0WN8", "fixme": "Location correct? FAA records given location used.", "name": "Sheldon Heliport", "surface": "metal", "wikidata": "Q61668134"}}, {"type": "node", "id": 8313481961, "lat": 42.58412, "lon": -114.3584656, "tags": {"addr:city": "Kimberly", "addr:housenumber": "3550", "addr:postcode": "83341", "addr:state": "ID", "addr:street": "East 4000 North Road", "aeroway": "helipad", "faa": "1ID6", "name": "Sligars Landing", "wikidata": "Q61668203"}}, {"type": "node", "id": 8313481970, "lat": 43.5744055, "lon": -111.1082488, "tags": {"aeroway": "helipad", "faa": "ID15", "lit": "no", "name": "Teton Springs Heliport", "surface": "grass", "wikidata": "Q61668332"}}, {"type": "node", "id": 8313481975, "lat": 44.2310887, "lon": -116.1775892, "tags": {"aeroway": "helipad", "faa": "91ID", "lit": "no", "name": "Double Dreidel Heliport", "surface": "concrete", "wikidata": "Q61668313"}}, {"type": "node", "id": 8313481976, "lat": 45.2424462, "lon": -116.3285879, "tags": {"aeroway": "helipad", "faa": "11ID", "lit": "no", "name": "Elk Creek Heliport", "surface": "grass", "wikidata": "Q61668285"}}, {"type": "node", "id": 8313481977, "lat": 45.4415126, "lon": -116.3995589, "tags": {"aeroway": "helipad", "faa": "19ID", "lit": "no", "name": "Race Creek Heliport", "surface": "grass", "wikidata": "Q61668286"}}, {"type": "node", "id": 8313481978, "lat": 45.4200579, "lon": -116.1744786, "tags": {"aeroway": "helipad", "faa": "93ID", "lit": "yes", "name": "Salmon River Helicopters Heliport", "surface": "concrete", "wikidata": "Q61668287"}}, {"type": "node", "id": 8313481987, "lat": 48.6309117, "lon": -116.872355, "tags": {"aeroway": "helipad", "faa": "21ID", "name": "Phillabaum Heliport", "surface": "concrete", "wikidata": "Q61668260"}}, {"type": "node", "id": 8343171915, "lat": 43.1390475, "lon": -115.6942058, "tags": {"aeroway": "helipad", "faa": "18ID", "lit": "yes", "name": "Elmore Medical Center Heliport", "surface": "asphalt", "wikidata": "Q61668248"}}, {"type": "node", "id": 8419773256, "lat": 46.3740695, "lon": -119.2065016, "tags": {"addr:city": "Pasco", "addr:housenumber": "4440", "addr:postcode": "99301", "addr:state": "WA", "addr:street": "Birch Road", "aeroway": "helipad", "faa": "18WA", "lit": "yes", "name": "Pasco Heliport", "surface": "gravel", "wikidata": "Q61726065"}}, {"type": "node", "id": 8653911033, "lat": 49.4555168, "lon": -119.6051033, "tags": {"aeroway": "helipad"}}, {"type": "node", "id": 8653911034, "lat": 49.4552927, "lon": -119.6051123, "tags": {"aeroway": "helipad"}}, {"type": "node", "id": 8653911035, "lat": 49.4593845, "lon": -119.6052475, "tags": {"aeroway": "helipad"}}, {"type": "node", "id": 8653911036, "lat": 49.4592415, "lon": -119.6052528, "tags": {"aeroway": "helipad"}}, {"type": "node", "id": 8779260301, "lat": 45.1139235, "lon": -113.8805912, "tags": {"aeroway": "helipad", "name": "Salmon Air Base"}}, {"type": "node", "id": 8840269493, "lat": 44.5165658, "lon": -114.216907, "tags": {"aeroway": "helipad", "name": "Challis Helitack Pad 3"}}, {"type": "node", "id": 8840269494, "lat": 44.5159398, "lon": -114.217493, "tags": {"aeroway": "helipad", "name": "Challis Helitack Pad 4"}}, {"type": "node", "id": 9499960364, "lat": 40.220897, "lon": -111.7193861, "tags": {"aeroway": "helipad"}}, {"type": "node", "id": 10871039360, "lat": 40.7638268, "lon": -111.8906546, "tags": {"aeroway": "helipad", "ref": "UT33"}}, {"type": "node", "id": 11020677347, "lat": 43.8271068, "lon": -115.8388235, "tags": {"aeroway": "helipad"}}, {"type": "node", "id": 11104137093, "lat": 45.9969752, "lon": -114.1727334, "tags": {"aeroway": "helipad"}}, {"type": "node", "id": 11224906575, "lat": 45.9560951, "lon": -112.5041601, "tags": {"aeroway": "helipad", "name": "Life Flight Network Helipad", "surface": "asphalt", "wikipedia": "en:Life Flight Network"}}, {"type": "node", "id": 11226064404, "lat": 45.9464463, "lon": -112.4975458, "tags": {"aeroway": "helipad", "name": "KBTM Private Helipad"}}, {"type": "way", "id": 97395714, "center": {"lat": 47.2854044, "lon": -110.8024877}, "nodes": [1128003698, 1128003627, 1128003516, 1128003702, 1128003698], "tags": {"aeroway": "helipad", "source": "Bing"}}, {"type": "way", "id": 102179692, "center": {"lat": 49.5128808, "lon": -115.0561558}, "nodes": [1179279566, 1179279555, 1179279517, 1179279601, 1179279566], "tags": {"aeroway": "helipad", "source": "Bing"}}, {"type": "way", "id": 153064908, "center": {"lat": 47.5047113, "lon": -111.1873351}, "nodes": [1658110356, 3001358312, 3001358311, 1658111103, 1658110356], "tags": {"aeroway": "helipad", "name": "H1", "surface": "asphalt"}}, {"type": "way", "id": 183089619, "center": {"lat": 48.3919872, "lon": -115.5453321}, "nodes": [1042149928, 1934472389, 1934472383, 1934472386, 1042149928], "tags": {"aeroway": "helipad", "name": "Libby Heliport"}}, {"type": "way", "id": 245301259, "center": {"lat": 48.2155056, "lon": -115.8509542}, "nodes": [2525237196, 2525237197, 2525237195, 2525237192, 2525237189, 2525237186, 2525237193, 2525237196], "tags": {"aeroway": "helipad"}}, {"type": "way", "id": 247285497, "center": {"lat": 44.2481253, "lon": -116.962542}, "nodes": [2541980284, 2541980283, 2541980279, 2541980280, 2541980284], "tags": {"aeroway": "helipad"}}, {"type": "way", "id": 270509380, "center": {"lat": 49.9612793, "lon": -119.3806934}, "nodes": [2755199350, 7700756306, 7700756314, 2755199352, 2755199354, 7700756333, 7703926994, 7700756305, 2755199356, 2755199350], "tags": {"aeroway": "helipad", "surface": "paved"}}, {"type": "way", "id": 277212786, "center": {"lat": 47.3048545, "lon": -115.1088843}, "nodes": [2817413929, 2817413942, 2817413946, 2817413941, 2817413933, 2817413931, 2817413930, 2817413927, 2817413924, 2817413925, 2817413926, 2817413928, 2817413929], "tags": {"aeroway": "helipad"}}, {"type": "way", "id": 289316654, "center": {"lat": 43.825745, "lon": -111.7689846}, "nodes": [2928653312, 2928653313, 2928653314, 2928653315, 2928653312], "tags": {"aeroway": "helipad", "operator": "Madison Memorial Hospital", "source": "Bing", "surface": "asphalt"}}, {"type": "way", "id": 292621287, "center": {"lat": 49.4915118, "lon": -117.305156}, "nodes": [2961566006, 2961566007, 2961566008, 2961566009, 2961566006], "tags": {"aeroway": "helipad"}}, {"type": "way", "id": 295138547, "center": {"lat": 49.4586563, "lon": -119.605114}, "nodes": [2988296107, 2988296108, 2988296109, 2988296110, 2988296111, 2988296112, 2988296094, 2988296095, 2988296096, 2988296101, 2988296102, 2988296103, 2988296104, 2988296105, 2988296106, 2988296097, 2988296098, 2988296099, 2988296100, 2988296107], "tags": {"aeroway": "helipad", "ref": "5"}}, {"type": "way", "id": 302347935, "center": {"lat": 48.2613014, "lon": -111.6251501}, "nodes": [3066031090, 3066031089, 3066031072, 3066031073, 3066031090], "tags": {"aeroway": "helipad"}}, {"type": "way", "id": 310668916, "center": {"lat": 43.9080366, "lon": -114.793908}, "nodes": [3161265676, 3161265677, 3161265678, 3161265679, 3161265680, 3161265662, 3161265663, 3161265664, 3161265665, 3161265666, 3161265672, 3161265673, 3161265674, 3161265675, 3161265667, 3161265668, 3161265669, 3161265670, 3161265671, 3161265676], "tags": {"aeroway": "helipad"}}, {"type": "way", "id": 327715414, "center": {"lat": 49.9840782, "lon": -117.374486}, "nodes": [3345216778, 3345216779, 3345216780, 3345216781, 3345216782, 3345216783, 3345216784, 3345216785, 3345216767, 3345216768, 3345216771, 3345216772, 3345216773, 3345216774, 3345216775, 3345216776, 3345216777, 3345216769, 3345216770, 3345216778], "tags": {"aeroway": "helipad"}}, {"type": "way", "id": 330174594, "center": {"lat": 49.0306576, "lon": -118.4698811}, "nodes": [3371270087, 3371270088, 3371270089, 3371270090, 3371270091, 3371270092, 3371270193, 3371270075, 3371270076, 3371270077, 3371270082, 3371270083, 3371270084, 3371270085, 3371270086, 3371270078, 3371270079, 3371270080, 3371270081, 3371270087], "tags": {"aeroway": "helipad", "name": "Grand Forks Boundary Hospital Heliport", "note": "TC LID: CGF4", "wikipedia": "en:List of heliports in Canada#100"}}, {"type": "way", "id": 361493598, "center": {"lat": 42.6212959, "lon": -113.685839}, "nodes": [368979571, 3659578875, 3659578877, 3659578878, 3659578880, 3659578881, 3659578882, 3659578879, 3659578876, 3659578874, 368979571], "tags": {"access": "private", "aeroway": "helipad", "faa": "ID53", "gnis:feature_id": "400916", "lit": "yes", "name": "Minidoka Memorial Hospital Heliport", "source_ref": "geonames.usgs.gov", "surface": "concrete", "wikidata": "Q61668289"}}, {"type": "way", "id": 363054298, "center": {"lat": 47.3254965, "lon": -112.0902508}, "nodes": [3672683346, 3672683343, 3672683342, 3672683345, 3672683346], "tags": {"aeroway": "helipad", "source": "Bing"}}, {"type": "way", "id": 363054311, "center": {"lat": 47.6032431, "lon": -112.3084207}, "nodes": [3672683384, 3672683383, 3672683381, 3672683382, 3672683384], "tags": {"aeroway": "helipad", "source": "Bing"}}, {"type": "way", "id": 363054315, "center": {"lat": 47.7523287, "lon": -111.5449318}, "nodes": [3672683479, 3672683476, 3672683472, 3672683474, 3672683479], "tags": {"aeroway": "helipad", "source": "Bing"}}, {"type": "way", "id": 363054317, "center": {"lat": 47.094848, "lon": -110.1600349}, "nodes": [3672683140, 3672683137, 3672683138, 3672683142, 3672683140], "tags": {"aeroway": "helipad", "source": "Bing"}}, {"type": "way", "id": 363054324, "center": {"lat": 47.6957094, "lon": -111.9423805}, "nodes": [3672683418, 3672683416, 3672683411, 3672683413, 3672683418], "tags": {"aeroway": "helipad", "source": "Bing"}}, {"type": "way", "id": 363054327, "center": {"lat": 47.3129012, "lon": -111.4742947}, "nodes": [3672683322, 3672683323, 3672683321, 3672683320, 3672683322], "tags": {"aeroway": "helipad", "source": "Bing"}}, {"type": "way", "id": 363054330, "center": {"lat": 47.2845669, "lon": -110.360433}, "nodes": [3672683193, 3672683192, 3672683186, 3672683188, 3672683193], "tags": {"aeroway": "helipad", "source": "Bing"}}, {"type": "way", "id": 363237050, "center": {"lat": 48.0370026, "lon": -111.7928304}, "nodes": [3674150985, 3674150987, 3674150981, 3674150980, 3674150985], "tags": {"aeroway": "helipad", "source": "Bing"}}, {"type": "way", "id": 363237051, "center": {"lat": 48.2519292, "lon": -112.2765809}, "nodes": [3674151161, 3674151160, 3674151156, 3674151157, 3674151161], "tags": {"aeroway": "helipad", "source": "Bing"}}, {"type": "way", "id": 363237053, "center": {"lat": 48.2045154, "lon": -111.9093771}, "nodes": [3674151023, 3674151022, 3674151018, 3674151019, 3674151023], "tags": {"aeroway": "helipad", "source": "Bing"}}, {"type": "way", "id": 363237056, "center": {"lat": 48.0955606, "lon": -111.5780213}, "nodes": [3674151014, 3674151015, 3674151013, 3674151012, 3674151014], "tags": {"aeroway": "helipad", "source": "Bing"}}, {"type": "way", "id": 375239144, "center": {"lat": 40.8853929, "lon": -111.8682947}, "nodes": [3786214800, 3786214802, 3786242359, 3786242360, 3786214806, 3786214809, 3786214811, 3786214812, 3786214813, 3786242461, 3786214815, 3786214817, 3786214818, 3786225879, 3786242462, 3786242464, 3786214819, 3786243057, 3786242959, 3786242961, 3786243457, 3786242361, 3786243458, 3786242962, 3786243259, 3786242964, 3786243459, 3786243558, 3786235860, 3786242965, 3786243460, 3786243462, 3786242367, 3786242369, 3786225880, 3786225975, 3786214823, 3786225976, 3786214825, 3786225882, 3786225883, 3786235862, 3786225885, 3786225884, 3786214826, 3786225977, 3786214824, 3786225881, 3786235861, 3786214822, 3786214821, 3786242368, 3786242466, 3786243461, 3786242366, 3786243559, 3786242465, 3786242365, 3786242364, 3786242963, 3786243258, 3786242363, 3786242362, 3786243557, 3786243257, 3786242960, 3786242958, 3786214820, 3786242957, 3786242463, 3786235859, 3786225974, 3786225878, 3786214816, 3786225877, 3786214814, 3786225973, 3786225876, 3786214810, 3786214807, 3786214805, 3786214804, 3786214803, 3786214801, 3786242460, 3786214799, 3786225972, 3786225970, 3786214798, 3786242458, 3786214796, 3786214794, 3786225967, 3786214795, 3786214797, 3786225968, 3786225969, 3786225971, 3786242358, 3786242459, 3786214800], "tags": {"addr:state": "UT", "aeroway": "helipad", "ele": "1367", "gnis:county_name": "Davis", "gnis:created": "02/25/1989", "gnis:feature_id": "1448573", "gnis:feature_type": "Airport", "name": "Lakeview Hospital Heliport", "source_ref": "geonames.usgs.gov"}}, {"type": "way", "id": 376399317, "center": {"lat": 41.4751052, "lon": -112.0266264}, "nodes": [3798342372, 3798342373, 3798342374, 3798342375, 3798342372], "tags": {"aeroway": "helipad"}}, {"type": "way", "id": 382135836, "center": {"lat": 44.4529379, "lon": -111.3615041}, "nodes": [3853343684, 3853343686, 3853343688, 3853343690, 3853343692, 3853343694, 3853343695, 3853343693, 3853343691, 3853343689, 3853343687, 3853343685, 3853343683, 3853343681, 3853343680, 3853343682, 3853343684], "tags": {"aeroway": "helipad"}}, {"type": "way", "id": 385733578, "center": {"lat": 48.7022939, "lon": -116.3223131}, "nodes": [3890707544, 3890707547, 3890707549, 3890707551, 3890707553, 3890707552, 3890707550, 3890707548, 3890707545, 3890707543, 3890707541, 3890707539, 3890707537, 3890707538, 3890707540, 3890707542, 3890707544], "tags": {"aeroway": "helipad", "emergency": "landing_site", "surface": "concrete"}}, {"type": "way", "id": 389276994, "center": {"lat": 43.5259791, "lon": -112.9503134}, "nodes": [3924378848, 3924378851, 3924378853, 3924378855, 3924378857, 3924378859, 3924378861, 3924378863, 3924378865, 3924378864, 3924378862, 3924378860, 3924378858, 3924378856, 3924378854, 3924378852, 3924378849, 3924378847, 3924378845, 3924378843, 3924378841, 3924378839, 3924378837, 3924378835, 3924378833, 3924378834, 3924378836, 3924378838, 3924378840, 3924378842, 3924378844, 3924378846, 3924378848], "tags": {"aeroway": "helipad", "source": "Bing"}}, {"type": "way", "id": 402082075, "center": {"lat": 43.5877352, "lon": -118.9548388}, "nodes": [4045170009, 4045170010, 4045170011, 4045170012, 4045170013, 4045170014, 4045170015, 4045170016, 4045169998, 4045169999, 4045170002, 4045170003, 4045170004, 4045170005, 4045170006, 4045170007, 4045170008, 4045170000, 4045170001, 4045170009], "tags": {"aeroway": "helipad"}}, {"type": "way", "id": 402082076, "center": {"lat": 43.5877184, "lon": -118.9543212}, "nodes": [4045170028, 4045170029, 4045170030, 4045170031, 4045170032, 4045170033, 4045170034, 4045170035, 4045170017, 4045170018, 4045170021, 4045170022, 4045170023, 4045170024, 4045170025, 4045170026, 4045170027, 4045170019, 4045170020, 4045170028], "tags": {"aeroway": "helipad"}}, {"type": "way", "id": 402086562, "center": {"lat": 44.1402901, "lon": -118.9751143}, "nodes": [4045213716, 4045213717, 4045213718, 4045213719, 4045213720, 4045213721, 4045213722, 4045213704, 4045213705, 4045213706, 4045213710, 4045213711, 4045213712, 4045213713, 4045213714, 4045213715, 4045213707, 4045213708, 4045213709, 4045213716], "tags": {"aeroway": "helipad", "area": "yes"}}, {"type": "way", "id": 440804960, "center": {"lat": 43.4801076, "lon": -110.7497268}, "nodes": [4385735198, 4385735199, 4385735200, 4385735201, 4385735198], "tags": {"aeroway": "helipad", "faa": "23WY", "lit": "yes", "location": "roof", "name": "St. John's Medical Center Heliport", "operator": "Saint John's Medical Center", "source": "Esri beta", "surface": "deck", "wikidata": "Q61726867"}}, {"type": "way", "id": 442361109, "center": {"lat": 46.6160529, "lon": -112.095825}, "nodes": [4400572068, 4400572069, 4400572070, 4400572071, 4400572068], "tags": {"aeroway": "helipad"}}, {"type": "way", "id": 444457637, "center": {"lat": 41.7893353, "lon": -110.541779}, "nodes": [4419376215, 4419376218, 369132296, 4419376220, 4419376215], "tags": {"aeroway": "helipad", "faa": "WY67", "gnis:feature_id": "1605610", "lit": "no", "name": "South Lincon Medical Center Heliport", "surface": "concrete", "wikidata": "Q61726871"}}, {"type": "way", "id": 444458636, "center": {"lat": 42.7177306, "lon": -110.9308462}, "nodes": [4419385707, 4419385705, 7833612530, 4419385704, 4419385706, 4419385707], "tags": {"aeroway": "helipad", "operator": "Star Valley Health", "source": "Bing", "surface": "concrete"}}, {"type": "way", "id": 444844701, "center": {"lat": 43.5652697, "lon": -116.2376616}, "nodes": [4423106811, 4423106812, 4423106813, 4423106814, 4423106811], "tags": {"aeroway": "helipad"}}, {"type": "way", "id": 457953508, "center": {"lat": 41.7747437, "lon": -111.8215948}, "nodes": [4540097570, 9004874198, 4540097571, 4540097572, 4540097573, 4540097570], "tags": {"aeroway": "helipad", "operator": "Cache Valley Hospital", "source": "Esri 2018", "surface": "concrete"}}, {"type": "way", "id": 458796605, "center": {"lat": 48.2775147, "lon": -116.549988}, "nodes": [4547454189, 4547454088, 4547454087, 4547454086, 4547454189], "tags": {"aeroway": "helipad"}}, {"type": "way", "id": 458797318, "center": {"lat": 47.6953371, "lon": -116.7943684}, "nodes": [4547458795, 4547458794, 368979314, 4547458793, 4547458795], "tags": {"aeroway": "helipad", "faa": "ID03", "gnis:feature_id": "400792", "lit": "yes", "name": "Kootenai Medical Center Heliport", "rooftop": "yes", "surface": "concrete", "wikidata": "Q61668127"}}, {"type": "way", "id": 458797590, "center": {"lat": 47.5479045, "lon": -116.1300511}, "nodes": [4547462606, 2762475914, 4547462605, 4547462604, 4547462606], "tags": {"aeroway": "helipad", "source": "Esri 2019", "surface": "concrete"}}, {"type": "way", "id": 458860982, "center": {"lat": 46.4169245, "lon": -117.0242087}, "nodes": [4547982683, 4547982682, 4547982681, 1042147126, 4547982683], "tags": {"aeroway": "helipad", "faa": "ID37", "lit": "yes", "location": "roof", "name": "Saint Joseph's Regional Medical Center Heliport", "surface": "concrete", "wikidata": "Q61668217"}}, {"type": "way", "id": 458911986, "center": {"lat": 43.5981785, "lon": -116.347555}, "nodes": [1042143020, 4548401159, 3788922778, 4548401158, 1042143020], "tags": {"aeroway": "helipad", "faa": "90ID", "lit": "yes", "name": "St. Luke's Meridian Medical Center Heliport", "surface": "concrete", "wikidata": "Q61668235"}}, {"type": "way", "id": 458921173, "center": {"lat": 43.6135673, "lon": -116.2556371}, "nodes": [368979153, 4548479541, 4548479540, 4548479539, 368979153], "tags": {"aeroway": "helipad", "faa": "ID91", "gnis:feature_id": "400764", "name": "Saint Alphonsus Helistop", "ref": "H1", "rooftop": "yes", "surface": "concrete", "wikidata": "Q49750429"}}, {"type": "way", "id": 458921174, "center": {"lat": 43.6136282, "lon": -116.2614612}, "nodes": [4548479545, 4548479544, 4548479543, 4548479542, 4548479545], "tags": {"aeroway": "helipad", "faa": "ID91", "lit": "yes", "name": "St. Alphonsus Heliport", "ref": "H1", "surface": "concrete", "wikidata": "Q49750429"}}, {"type": "way", "id": 458928500, "center": {"lat": 43.6128615, "lon": -116.1918841}, "nodes": [4548529721, 4548529720, 368979152, 4548529719, 4548529721], "tags": {"aeroway": "helipad", "faa": "ID49", "gnis:feature_id": "400765", "lit": "no", "name": "Saint Luke's Boise Medical Center Heliport", "rooftop": "yes", "surface": "concrete", "wikidata": "Q61668095"}}, {"type": "way", "id": 458937622, "center": {"lat": 43.6485557, "lon": -114.3501021}, "nodes": [4548609616, 4548609615, 4548609614, 4548609613, 4548609616], "tags": {"aeroway": "helipad", "faa": "1ID5", "lit": "yes", "location": "roof", "name": "St Luke's Wood River Medical Center Heliport", "source": "Bing", "surface": "concrete", "wikidata": "Q61668200"}}, {"type": "way", "id": 458948469, "center": {"lat": 42.1896593, "lon": -112.2497025}, "nodes": [4548715720, 3743226928, 4548715719, 4548715718, 4548715720], "tags": {"aeroway": "helipad", "operator": "Neil J. Redfield Memorial Hospital", "source": "Esri beta", "surface": "concrete"}}, {"type": "way", "id": 458948964, "center": {"lat": 42.781453, "lon": -112.8493085}, "nodes": [4548699398, 4548699397, 4548699396, 4548699395, 4548699398], "tags": {"aeroway": "helipad", "faa": "ID34", "lit": "no", "name": "Power County Hospital District Heliport", "surface": "concrete"}}, {"type": "way", "id": 459008979, "center": {"lat": 44.0255619, "lon": -116.975826}, "nodes": [4549306271, 4549306270, 4549306269, 1042133593, 4987112736, 4549306271], "tags": {"aeroway": "helipad", "faa": "5OR6", "name": "Saint Alphonsus Regional Medical Center - Oregon Heliport", "old_name": "Holy Rosary Medical Center Heliport", "surface": "concrete", "wikidata": "Q3207604"}}, {"type": "way", "id": 459017337, "center": {"lat": 44.7947868, "lon": -117.8461112}, "nodes": [4549404285, 4549404284, 4549404283, 1042143069, 4549404285], "tags": {"aeroway": "helipad", "faa": "93OR", "name": "Saint Alphonsus Medical Center - Baker City Heliport", "old_name": "Saint Elizabeth Hospital Heliport", "surface": "asphalt", "wikidata": "Q61724402"}}, {"type": "way", "id": 459026774, "center": {"lat": 45.6490546, "lon": -118.8114251}, "nodes": [4549488327, 4549488326, 4549488325, 4549488324, 4549488327], "tags": {"aeroway": "helipad"}}, {"type": "way", "id": 459035891, "center": {"lat": 45.8471967, "lon": -119.3093636}, "nodes": [1364764260, 4549569381, 4549569380, 4549569379, 1364764260], "tags": {"aeroway": "helipad"}}, {"type": "way", "id": 459584167, "center": {"lat": 40.3129345, "lon": -111.7144654}, "nodes": [9247252149, 4553958470, 4553958468, 4553958467, 4553958466, 4553958465, 4553958464, 939745417, 4553958463, 9247252147, 9247252148, 4553958462, 4553958461, 4553958460, 4553958459, 4553958469, 4553958458, 4553958457, 4553958456, 9247252149], "tags": {"access": "no", "aeroway": "helipad", "emergency": "yes"}}, {"type": "way", "id": 459584815, "center": {"lat": 40.3796857, "lon": -111.7686139}, "nodes": [368982217, 4553964369, 4553964368, 4553964367, 4553964366, 4553964365, 4553964371, 4553964364, 4553964363, 4553964362, 4553964361, 4553964370, 4553964360, 4553964359, 4553964358, 4553964357, 368982217], "tags": {"aeroway": "helipad", "faa": "UT56", "gnis:feature_id": "1448073", "name": "American Fork Hospital Heliport", "surface": "asphalt", "wikidata": "Q61725126"}}, {"type": "way", "id": 459590932, "center": {"lat": 40.566036, "lon": -112.2970164}, "nodes": [4554014429, 1784717889, 4554014428, 4554014427, 4554014429], "tags": {"aeroway": "helipad", "faa": "20UT", "name": "Mountain West Medical Center Heliport", "surface": "concrete", "wikidata": "Q61725236"}}, {"type": "way", "id": 459593182, "center": {"lat": 40.6878308, "lon": -111.4706466}, "nodes": [4029475656, 4554032896, 4554032895, 4554032894, 4554032893, 4554032898, 4554032892, 4554032891, 4554032890, 4554032889, 4554032897, 4554032188, 4554032187, 4554032186, 4554032185, 4554032184, 4029475656], "tags": {"aeroway": "helipad", "operator": "Park City Hospital", "source": "Mapbox", "surface": "concrete"}}, {"type": "way", "id": 459626821, "center": {"lat": 41.7244907, "lon": -112.1837134}, "nodes": [368981770, 4554259317, 4554259316, 4554259315, 4554259314, 4554259319, 4554259313, 4554259312, 4554259311, 4554259310, 4554259309, 4554259318, 4554259308, 4554259307, 4554259306, 4554259305, 368981770], "tags": {"aeroway": "helipad", "faa": "79UT", "gnis:feature_id": "1435099", "name": "Bear River Valley Hospital Heliport", "surface": "concrete", "wikidata": "Q61725244"}}, {"type": "way", "id": 459670915, "center": {"lat": 41.4919709, "lon": -112.0264315}, "nodes": [368982227, 4554657238, 4554657237, 4554657236, 4554657235, 4554657240, 4554657234, 4554657233, 4554657232, 4554657231, 4554657239, 4554657230, 4554657229, 4554657228, 4554657227, 4554657226, 368982227], "tags": {"aeroway": "helipad", "faa": "UT14", "gnis:feature_id": "1448184", "name": "Brigham City Community Hospital Heliport", "source": "Bing", "surface": "concrete", "wikidata": "Q61725134"}}, {"type": "way", "id": 459683620, "center": {"lat": 41.0918161, "lon": -111.9959335}, "nodes": [4554757524, 4554757522, 4554757521, 4554757520, 4554757519, 4554757523, 4554757518, 4554757517, 4554757516, 4554757515, 368982196, 4554757514, 4554757513, 4554757512, 4554757511, 4554757510, 4554757524], "tags": {"aeroway": "helipad", "faa": "UT44", "gnis:feature_id": "1448498", "name": "Davis Hospital & Medical Center Heliport", "surface": "concrete", "wikidata": "Q61725178"}}, {"type": "way", "id": 459704555, "center": {"lat": 41.1643742, "lon": -111.9721953}, "nodes": [4554868721, 368982339, 4554868720, 344365302, 4554868721], "tags": {"aeroway": "helipad", "faa": "54UT", "gnis:feature_id": "1455532", "name": "Saint Benedicts Hospital Heliport", "surface": "concrete", "wikidata": "Q61725248"}}, {"type": "way", "id": 459822599, "center": {"lat": 40.7714242, "lon": -111.8394805}, "nodes": [9464740541, 4555597617, 4555597616, 4555597615, 4555597614, 4555597618, 4555597613, 4555597612, 4555597611, 4555597610, 3523500011, 4555597609, 4555597608, 4555597607, 4555597606, 4555597605, 9464740541], "tags": {"aeroway": "helipad"}}, {"type": "way", "id": 459822600, "center": {"lat": 40.7710364, "lon": -111.8390759}, "nodes": [9464740540, 4555597632, 4555597631, 4555597630, 4555597629, 4555597628, 4555597633, 4555597627, 4555597626, 4555597625, 4555597624, 3523500012, 4555597623, 4555597622, 4555597621, 4555597620, 9464740540], "tags": {"aeroway": "helipad"}}, {"type": "way", "id": 459826073, "center": {"lat": 40.6990895, "lon": -111.9906662}, "nodes": [4555625137, 4555625135, 4555625134, 4555625133, 4555625132, 4555625131, 4555625136, 4555625130, 4555625129, 4555625128, 4555625127, 368981817, 4555625126, 4555625125, 4555625124, 4555625123, 4555625137], "tags": {"aeroway": "helipad", "faa": "UT23", "gnis:feature_id": "1436139", "name": "Jordan Valley Medical Center - West Valley Campus Heliport", "old_name": "Pioneer Valley Hospital Heliport", "surface": "asphalt", "wikidata": "Q61725251"}}, {"type": "way", "id": 459884062, "center": {"lat": 40.7675245, "lon": -111.8618876}, "nodes": [4556092804, 4556092803, 368981743, 4556092802, 4556092804], "tags": {"aeroway": "helipad", "faa": "UT19", "gnis:feature_id": "1434595", "name": "Salt Lake Regional Medical Center Helipad", "rooftop": "yes", "surface": "concrete", "wikidata": "Q61725226"}}, {"type": "way", "id": 459890485, "center": {"lat": 40.756934, "lon": -111.8421147}, "nodes": [4556150826, 4556150824, 4556150823, 4556150822, 4556150821, 368982191, 4556150820, 4556150819, 4556150818, 4556150817, 4556150825, 4556150816, 4556150815, 4556150814, 4556150813, 4556150812, 4556150826], "tags": {"aeroway": "helipad", "gnis:feature_id": "1449146", "name": "Veterans Administration Hospital Heliport"}}, {"type": "way", "id": 459900099, "center": {"lat": 40.5411432, "lon": -112.0144597}, "nodes": [6110354434, 2390922369, 4556229543, 4556229542, 4556229541, 4556229540, 4556229545, 4556229539, 4556229538, 6110354432, 6110354433, 4556229537, 4556229536, 4556229544, 4556229535, 4556229534, 4556229533, 4556229532, 4556229531, 6110354434], "tags": {"aeroway": "helipad"}}, {"type": "way", "id": 459908240, "center": {"lat": 40.5911483, "lon": -111.9763457}, "nodes": [368981891, 4556316325, 4556316324, 4556316323, 368981891], "tags": {"aeroway": "helipad", "faa": "UT87", "gnis:feature_id": "1435691", "name": "Jordan Valley Medical Center Heliport", "old_name": "Holy Cross Jordan Valley Hospital Heliport", "surface": "concrete", "wikidata": "Q61725250"}}, {"type": "way", "id": 460040843, "center": {"lat": 40.6602809, "lon": -111.8896031}, "nodes": [1042153046, 4557289106, 4557289105, 4557289104, 1042153046], "tags": {"aeroway": "helipad", "faa": "UT11", "maxrotordiameter": "55'", "maxweight": "none", "name": "Intermountain Medical Center Helipad", "surface": "asphalt", "wikidata": "Q61725199"}}, {"type": "way", "id": 460072957, "center": {"lat": 40.6861514, "lon": -111.8562138}, "nodes": [4557541539, 4557541538, 368982188, 4557541537, 4557541539], "tags": {"aeroway": "helipad", "faa": "UT64", "gnis:feature_id": "1449061", "name": "Saint Marks Hospital Heliport", "rooftop": "yes", "surface": "concrete", "wikidata": "Q61725227"}}, {"type": "way", "id": 465102538, "center": {"lat": 40.5357525, "lon": -111.8901319}, "nodes": [4601055831, 4601055832, 4601055833, 4601055834, 4601055835, 4601055831], "tags": {"aeroway": "helipad"}}, {"type": "way", "id": 465205119, "center": {"lat": 40.5200158, "lon": -111.9816196}, "nodes": [4602023338, 4602023339, 4602023340, 4602023342, 4602023341, 4602023338], "tags": {"aeroway": "helipad", "source": "Bing"}}, {"type": "way", "id": 466289851, "center": {"lat": 40.0442872, "lon": -111.7154118}, "nodes": [4553244178, 4553244170, 4553244169, 4553244168, 4553244167, 4553244166, 4553244180, 4553244177, 4553244176, 4553244175, 4553244179, 4553244174, 4611243675, 4553244172, 4553244171, 1042153067, 4553244178], "tags": {"aeroway": "helipad", "faa": "UT35", "name": "Mountain View Hospital Heliport", "surface": "concrete", "wikidata": "Q61725210"}}, {"type": "way", "id": 483369409, "center": {"lat": 41.9509515, "lon": -116.0985534}, "nodes": [4761152864, 4761152863, 4761152862, 4761152861, 4761152864], "tags": {"aeroway": "helipad"}}, {"type": "way", "id": 485419284, "center": {"lat": 46.2823612, "lon": -119.2804607}, "nodes": [4781883475, 4781883473, 4781883472, 4781883471, 6835597662, 4781883470, 4781883474, 4781883469, 4781883468, 6835597665, 4781883467, 4781883466, 1042142374, 4781883465, 4781883464, 4781883463, 4781883462, 4781883461, 6835597664, 4781883475], "tags": {"aeroway": "helipad", "faa": "WA89", "name": "Kadlec Regional Medical Center Heliport", "source": "ourairports.com", "surface": "concrete", "wikidata": "Q61726106"}}, {"type": "way", "id": 485439207, "center": {"lat": 46.0613818, "lon": -118.3421408}, "nodes": [1042133690, 4782093844, 4782093843, 4782093842, 1042133690], "tags": {"aeroway": "helipad", "faa": "5WA3", "lit": "yes", "name": "St Mary Medical Center Heliport", "source": "ourairports.com", "surface": "asphalt", "wikidata": "Q61726207"}}, {"type": "way", "id": 485439209, "center": {"lat": 46.0559593, "lon": -118.3295112}, "nodes": [369034281, 4782093857, 4782093856, 4782093855, 4782093854, 4782093859, 4782093853, 4782093852, 4782093851, 4782093850, 4782093858, 4782093849, 4782093848, 4782093847, 4782093846, 4782093845, 369034281], "tags": {"aeroway": "helipad", "faa": "WN06", "gnis:feature_id": "1534020", "lit": "yes", "name": "Walla Walla General Hospital Heliport", "surface": "asphalt", "wikidata": "Q61726208"}}, {"type": "way", "id": 485439679, "center": {"lat": 46.3124971, "lon": -117.969515}, "nodes": [4782094128, 2849717436, 4782094127, 4782094126, 4782094128], "tags": {"aeroway": "helipad", "name": "Dayton General Hospital Helipad", "surface": "asphalt"}}, {"type": "way", "id": 485444098, "center": {"lat": 47.6706585, "lon": -117.2355562}, "nodes": [4782137295, 4782137294, 4782137293, 4782137292, 4782137295], "tags": {"aeroway": "helipad", "note": "Helipad not registered with the FAA", "rooftop": "yes"}}, {"type": "way", "id": 485445533, "center": {"lat": 47.6491162, "lon": -117.4130165}, "nodes": [369034117, 4782145718, 4782145717, 4782145716, 369034117], "tags": {"access": "private", "aeroway": "helipad", "faa": "05WA", "gnis:feature_id": "1533971", "lit": "no", "name": "Sacred Heart Medical Center Helipad", "rooftop": "yes", "surface": "concrete", "wikidata": "Q61726162"}}, {"type": "way", "id": 485445534, "center": {"lat": 47.6516523, "lon": -117.4242886}, "nodes": [4782145921, 4782145720, 4782145719, 369034126, 4782145921], "tags": {"access": "private", "aeroway": "helipad", "faa": "07WA", "gnis:feature_id": "1533973", "lit": "yes", "name": "Deaconess Hospital Heliport", "rooftop": "yes", "surface": "concrete", "wikidata": "Q61726158"}}, {"type": "way", "id": 485446322, "center": {"lat": 47.7094594, "lon": -117.4066475}, "nodes": [4782149995, 4782149994, 4782149993, 369034123, 4782149995], "tags": {"aeroway": "helipad", "faa": "09WA", "gnis:feature_id": "1533974", "lit": "yes", "name": "Holy Family Hospital Heliport", "rooftop": "yes", "surface": "concrete", "wikidata": "Q61726157"}}, {"type": "way", "id": 485492764, "center": {"lat": 48.2780185, "lon": -117.7100219}, "nodes": [2664376713, 369035235, 4782761360, 4782761359, 2664376713], "tags": {"aeroway": "helipad", "faa": "6WA0", "gnis:feature_id": "1534155", "lit": "yes", "name": "Saint Joseph's Hospital Heliport", "surface": "asphalt", "wikidata": "Q49750438"}}, {"type": "way", "id": 485499210, "center": {"lat": 48.6527461, "lon": -118.7310695}, "nodes": [4782836210, 369034431, 4782836209, 4782836208, 4782836210], "tags": {"aeroway": "helipad", "faa": "WN82", "gnis:feature_id": "1533919", "lit": "yes", "name": "Ferry County Memorial Hospital Heliport", "surface": "asphalt", "wikidata": "Q61726103"}}, {"type": "way", "id": 485502187, "center": {"lat": 48.3972461, "lon": -119.5478484}, "nodes": [4782857967, 4782857965, 4782857964, 4782857963, 4782857962, 4782857966, 4782857961, 4782857960, 4782857959, 4782857958, 2652428646, 4782857957, 4782857956, 4782857955, 4782857954, 4782857953, 4782857967], "tags": {"aeroway": "helipad", "faa": "9WA5", "lit": "yes", "name": "Mid-Valley Hospital EMS Heliport", "surface": "concrete", "wikidata": "Q6840830", "wikipedia": "en:Mid-Valley Hospital"}}, {"type": "way", "id": 485511452, "center": {"lat": 47.2305145, "lon": -119.8676768}, "nodes": [1042143349, 4782938490, 4782938489, 4782938488, 1042143349], "tags": {"aeroway": "helipad", "faa": "9WA1", "lit": "yes", "name": "Quincy Valley Hospital EMS Heliport", "surface": "concrete", "wikidata": "Q61726088"}}, {"type": "way", "id": 485512327, "center": {"lat": 47.3150472, "lon": -119.5473109}, "nodes": [369033437, 4782955183, 4782955182, 4782955181, 4782955180, 4782955185, 4782955179, 4782955178, 4782955177, 4782955176, 4782955184, 4782955175, 4782955174, 4782955173, 4782955172, 4782955171, 369033437], "tags": {"aeroway": "helipad", "faa": "WN56", "gnis:feature_id": "1533760", "lit": "yes", "name": "Columbia Basin Hospital Heliport", "surface": "concrete", "wikidata": "Q61725921"}}, {"type": "way", "id": 485515455, "center": {"lat": 47.9418961, "lon": -119.0071172}, "nodes": [4782979741, 4782979740, 369033942, 4782979739, 4782979741], "tags": {"aeroway": "helipad", "faa": "2WA5", "gnis:feature_id": "1533784", "lit": "yes", "name": "Coulee Community Hospital Heliport", "surface": "concrete", "wikidata": "Q61725950"}}, {"type": "way", "id": 485520027, "center": {"lat": 47.1211051, "lon": -118.371618}, "nodes": [4783021937, 4783021936, 4783021935, 1042153419, 4783021937], "tags": {"aeroway": "helipad", "faa": "WN94", "lit": "no", "name": "East Adams Rural Hospital Heliport", "surface": "concrete", "wikidata": "Q61726110"}}, {"type": "way", "id": 485524814, "center": {"lat": 46.8298152, "lon": -119.1549923}, "nodes": [4783064005, 4783064004, 2498037881, 4783064003, 4783064005], "tags": {"aeroway": "helipad", "faa": "24WA", "lit": "no", "location": "roof", "name": "Othello Community Hospital Heliport", "source": "Bing", "surface": "concrete", "wikidata": "Q61726057"}}, {"type": "way", "id": 485529900, "center": {"lat": 47.3314502, "lon": -118.682306}, "nodes": [1042143352, 4783112761, 4783112760, 4783112759, 1042143352], "tags": {"aeroway": "helipad", "faa": "9WA2", "lit": "yes", "location": "roof", "name": "Odessa Memorial Hospital EMS Heliport", "source": "Esri beta;Bing Streetside", "surface": "metal", "wikidata": "Q61726044"}}, {"type": "way", "id": 499350662, "center": {"lat": 46.5816911, "lon": -111.9960564}, "nodes": [4906329984, 4906329983, 4906329982, 369148263, 6135865490, 4906329984], "tags": {"aeroway": "helipad", "faa": "MT35", "gnis:feature_id": "807089", "lit": "no", "name": "Saint Peter's Community Hospital Heliport", "ref": "MT35", "surface": "concrete"}}, {"type": "way", "id": 499383679, "center": {"lat": 46.4140304, "lon": -112.7266353}, "nodes": [4906646153, 4906646152, 4906646151, 4906646150, 4906646153], "tags": {"aeroway": "helipad"}}, {"type": "way", "id": 499513648, "center": {"lat": 46.8754933, "lon": -113.9997792}, "nodes": [369148486, 4907827301, 4907827300, 4907827299, 4907827298, 4907827297, 4907827303, 4907827296, 4907827295, 4907827294, 4907827293, 4907827302, 4907827292, 4907827291, 4907827290, 4907827289, 369148486], "tags": {"aeroway": "helipad", "faa": "MT23", "gnis:feature_id": "806486", "lit": "yes", "name": "Saint Patrick Hospital Heliport", "ref": "MT23", "rooftop": "yes", "surface": "concrete"}}, {"type": "way", "id": 499513652, "center": {"lat": 46.8484816, "lon": -114.0477504}, "nodes": [4907827316, 8067256239, 369148487, 4907827315, 4907827314, 4907827316], "tags": {"aeroway": "helipad", "faa": "2MT3", "gnis:feature_id": "806485", "lit": "yes", "ref": "H1", "surface": "asphalt"}}, {"type": "way", "id": 499570782, "center": {"lat": 48.2133193, "lon": -114.3240085}, "nodes": [369148547, 4908359566, 4908359565, 4908359564, 369148547], "tags": {"aeroway": "helipad", "faa": "MT28", "gnis:feature_id": "806456", "lit": "no", "name": "Kalispell Regional Hospital Heliport", "ref": "MT28", "surface": "concrete"}}, {"type": "way", "id": 499683287, "center": {"lat": 45.6691572, "lon": -111.0185164}, "nodes": [369147659, 4909256726, 4909256725, 8067256201, 4909256724, 369147659], "tags": {"addr:city": "Bozeman", "addr:housenumber": "915", "addr:postcode": "59715", "addr:state": "MT", "addr:street": "Highland Boulevard", "aeroway": "helipad", "faa": "0MY1", "gnis:feature_id": "806371", "name": "Bozeman Deaconess Hospital Heliport", "ref": "0MY1", "surface": "concrete", "wikidata": "Q61674756"}}, {"type": "way", "id": 499739272, "center": {"lat": 45.6750199, "lon": -110.5253084}, "nodes": [4909771759, 4909771758, 369148514, 4909771757, 4909771759], "tags": {"aeroway": "helipad", "faa": "00MT", "lit": "no", "name": "Livingston Memorial Hospital Heliport", "ref": "00MT", "surface": "concrete", "wikidata": "Q61674867"}}, {"type": "way", "id": 499756183, "center": {"lat": 45.202212, "lon": -112.6464705}, "nodes": [4909890100, 4909890099, 4909890098, 4909890097, 4909890100], "tags": {"aeroway": "helipad"}}, {"type": "way", "id": 500753961, "center": {"lat": 47.49183, "lon": -111.259828}, "nodes": [369148614, 4917365589, 4917365588, 4917365587, 369148614], "tags": {"aeroway": "helipad", "faa": "MT70", "gnis:feature_id": "806431", "lit": "yes", "name": "Benefis Healthcare Heliport", "old_name": "Montana Deaconess Medical Center Heliport", "ref": "MT70", "surface": "concrete"}}, {"type": "way", "id": 501029553, "center": {"lat": 47.1855418, "lon": -114.877468}, "nodes": [4919351537, 4919351536, 4919351535, 369148393, 4919351537], "tags": {"aeroway": "helipad", "faa": "MT64", "gnis:feature_id": "806529", "lit": "no", "name": "Mineral County Hospital Heliport", "ref": "MT64", "surface": "concrete"}}, {"type": "way", "id": 501067955, "center": {"lat": 47.469088, "lon": -114.8888841}, "nodes": [4919710351, 4919710350, 369148430, 4919710349, 4919710351], "tags": {"aeroway": "helipad", "faa": "MT78", "gnis:feature_id": "806500", "lit": "yes", "name": "Clark Fork Valley Hospital Heliport", "ref": "MT78", "surface": "concrete"}}, {"type": "way", "id": 501175539, "center": {"lat": 48.3808712, "lon": -114.3324236}, "nodes": [4920508542, 4920508539, 4920508538, 4920508537, 4920508536, 4920508541, 4920508535, 4920508534, 4920508533, 4920508532, 4920508540, 4920508531, 4920508530, 4920508529, 4920508528, 4920508527, 4920508542], "tags": {"aeroway": "helipad"}}, {"type": "way", "id": 514048643, "center": {"lat": 44.0249854, "lon": -117.0137113}, "nodes": [5023209317, 5023209316, 5023209315, 5023209314, 5023209317], "tags": {"aeroway": "helipad"}}, {"type": "way", "id": 542500653, "center": {"lat": 49.7257585, "lon": -113.3924861}, "nodes": [5244926649, 5244926636, 5244926637, 5244926638, 5244926639, 5244926640, 5244926651, 5244926641, 5244926642, 5244926643, 5244926644, 5244926650, 5244926645, 5244926646, 5244926647, 5244926648, 5244926649], "tags": {"aeroway": "helipad", "name": "Fort Macleod (Hospital) Heliport", "source": "ourairports.com"}}, {"type": "way", "id": 547114755, "center": {"lat": 40.2255665, "lon": -112.7380524}, "nodes": [5286444954, 5286444955, 5286444956, 5286444957, 5286444954], "tags": {"aeroway": "helipad"}}, {"type": "way", "id": 547370641, "center": {"lat": 40.4031052, "lon": -112.0679469}, "nodes": [5289013273, 5289013274, 5289013275, 5289013276, 5289013273], "tags": {"aeroway": "helipad"}}, {"type": "way", "id": 564764756, "center": {"lat": 43.2947265, "lon": -116.0552155}, "nodes": [5440595912, 5440595913, 5440595914, 5440595915, 5440595912], "tags": {"aeroway": "helipad"}}, {"type": "way", "id": 575266669, "center": {"lat": 43.966019, "lon": -117.2499401}, "nodes": [5520438536, 5520438533, 5520438534, 5520438535, 5520438536], "tags": {"aeroway": "helipad"}}, {"type": "way", "id": 575266670, "center": {"lat": 43.9660616, "lon": -117.2503612}, "nodes": [5520438540, 5520438537, 5520438538, 5520438539, 5520438540], "tags": {"aeroway": "helipad"}}, {"type": "way", "id": 581428424, "center": {"lat": 46.4864884, "lon": -116.2596048}, "nodes": [5563248140, 5563248139, 1042147152, 5563248138, 5563248140], "tags": {"aeroway": "helipad", "faa": "ID66", "lit": "yes", "name": "Clearwater Valley Hospital Heliport", "surface": "concrete", "wikidata": "Q61668268"}}, {"type": "way", "id": 581429226, "center": {"lat": 46.0507975, "lon": -116.3524888}, "nodes": [5563252349, 5563252348, 5563252347, 5563252346, 5563252349], "tags": {"aeroway": "helipad", "surface": "concrete"}}, {"type": "way", "id": 581433204, "center": {"lat": 43.8806271, "lon": -116.4844911}, "nodes": [5563282314, 5563282313, 5563282312, 1042143131, 5563282314], "tags": {"aeroway": "helipad", "faa": "98ID", "lit": "yes", "name": "Walter Knox Memorial Hospital Heliport", "old_name": "Valor Health Hospital Heliport", "surface": "concrete", "wikidata": "Q61668151"}}, {"type": "way", "id": 581578468, "center": {"lat": 43.1932971, "lon": -112.3459056}, "nodes": [5564279580, 5564279579, 3733558065, 5564279578, 5564279580], "tags": {"aeroway": "helipad", "surface": "asphalt"}}, {"type": "way", "id": 585140516, "center": {"lat": 40.4903556, "lon": -111.4049663}, "nodes": [5592303270, 368981842, 5592303269, 5592303268, 5592303270], "tags": {"aeroway": "helipad", "faa": "2UT4", "gnis:feature_id": "1436589", "name": "Heber Valley Hospital Heliport", "old_name": "Wasatch County Hospital Heliport", "surface": "clay", "wikidata": "Q61725161"}}, {"type": "way", "id": 585305470, "center": {"lat": 47.3426657, "lon": -116.8948971}, "nodes": [5593713520, 5593713521, 5593713522, 5593713524, 5593713523, 5593713520], "tags": {"aeroway": "helipad"}}, {"type": "way", "id": 585769999, "center": {"lat": 42.5912586, "lon": -114.496376}, "nodes": [5597279566, 5597279567, 5597279568, 5597279569, 5597279566], "tags": {"aeroway": "heliport", "faa": "80ID", "name": "St. Luke's Magic Valley Heliport", "wikidata": "Q61668331"}}, {"type": "way", "id": 586463085, "center": {"lat": 40.5522816, "lon": -112.2938141}, "nodes": [5603481194, 5603481195, 5603481196, 5603481197, 5603481194], "tags": {"aeroway": "helipad"}}, {"type": "way", "id": 587501638, "center": {"lat": 42.9216945, "lon": -114.7094213}, "nodes": [5611708059, 5611708058, 5611708057, 5611708056, 5611708059], "tags": {"aeroway": "helipad", "surface": "concrete"}}, {"type": "way", "id": 587506551, "center": {"lat": 45.1737057, "lon": -113.8924412}, "nodes": [5611740405, 5611740404, 5611740403, 5611740402, 5611740405], "tags": {"aeroway": "helipad", "faa": "67ID", "lit": "yes", "name": "Steele Memorial Heliport", "surface": "concrete", "wikidata": "Q61668294"}}, {"type": "way", "id": 587510281, "center": {"lat": 44.5183187, "lon": -116.0486954}, "nodes": [5611772995, 368979334, 5611772994, 5611772993, 5611772995], "tags": {"aeroway": "helipad", "faa": "ID55", "gnis:feature_id": "400777", "lit": "no", "name": "Cascade Medical Center Heliport", "old_name": "Valley County Hospital Heliport", "surface": "asphalt", "wikidata": "Q61668102"}}, {"type": "way", "id": 587516857, "center": {"lat": 42.6519217, "lon": -111.6141216}, "nodes": [5611846563, 5611846562, 5611846561, 5611846560, 5611846563], "tags": {"aeroway": "helipad", "surface": "concrete"}}, {"type": "way", "id": 587518536, "center": {"lat": 44.8907789, "lon": -116.1031938}, "nodes": [5611867789, 5611867788, 5611867787, 5611867786, 5611867789], "tags": {"aeroway": "helipad", "faa": "25ID", "lit": "no", "name": "McCall USFS Heliport", "operator": "US Forest Service", "surface": "concrete", "wikidata": "Q61668232"}}, {"type": "way", "id": 587534062, "center": {"lat": 47.3145072, "lon": -116.5677703}, "nodes": [368979557, 5612016853, 5612016852, 5612016851, 368979557], "tags": {"aeroway": "helipad", "faa": "ID14", "gnis:feature_id": "400920", "lit": "yes", "name": "Benewah Community Hospital Heliport", "rooftop": "yes", "surface": "concrete", "wikidata": "Q61668317"}}, {"type": "way", "id": 591053343, "center": {"lat": 42.8744568, "lon": -112.4223042}, "nodes": [5642278754, 5642278755, 5642278756, 5642278757, 5642278754], "tags": {"aeroway": "helipad"}}, {"type": "way", "id": 604591917, "center": {"lat": 47.1281417, "lon": -119.2654089}, "nodes": [5736308561, 5736308560, 1042142351, 5736308559, 5736308561], "tags": {"aeroway": "helipad", "faa": "WA51", "lit": "yes", "name": "Samaritan Hospital RMS Heliport", "rooftop": "yes", "surface": "concrete", "wikidata": "Q61726024"}}, {"type": "way", "id": 604609860, "center": {"lat": 46.1993559, "lon": -119.1202337}, "nodes": [369033983, 5736435755, 5736435754, 5736435753, 369033983], "tags": {"aeroway": "helipad", "faa": "87WA", "gnis:feature_id": "1533805", "lit": "no", "name": "Trios Women's & Children's Hospital Heliport", "old_name": "Kennewick General Hospital Heliport", "surface": "asphalt", "wikidata": "Q61725977"}}, {"type": "way", "id": 605087504, "center": {"lat": 43.3468388, "lon": -114.7991864}, "nodes": [5739904817, 5739904818, 5739904819, 5739904820, 5739905021, 5739904817], "tags": {"aeroway": "helipad"}}, {"type": "way", "id": 628164927, "center": {"lat": 40.4245898, "lon": -111.8776668}, "nodes": [5930339366, 5930339367, 5930339368, 5930339369, 5930339370, 9773352526, 5930339371, 5930339353, 5930339354, 5930339355, 5930339360, 5930339361, 5930339362, 5930339363, 5930339364, 5930339365, 5930339356, 5930339357, 5930339358, 5930339359, 5930339366], "tags": {"aeroway": "helipad"}}, {"type": "way", "id": 641630911, "center": {"lat": 47.6247141, "lon": -117.6307583}, "nodes": [6042116470, 6042116471, 6042116472, 6042116473, 6042116470], "tags": {"aeroway": "helipad"}}, {"type": "way", "id": 653761091, "center": {"lat": 47.5506544, "lon": -117.70616}, "nodes": [6126666895, 6126666891, 6126666890, 6126666894, 6126666895], "tags": {"aeroway": "helipad", "note": "Helipad not registered with the FAA"}}, {"type": "way", "id": 661835556, "center": {"lat": 49.6150384, "lon": -115.7855684}, "nodes": [6196169677, 6196169678, 6196169679, 6196169680, 6196169677], "tags": {"aeroway": "helipad"}}, {"type": "way", "id": 663379243, "center": {"lat": 49.8742662, "lon": -119.4924381}, "nodes": [6209420756, 6209420757, 6209420758, 6209420759, 6209420756], "tags": {"aeroway": "helipad"}}, {"type": "way", "id": 663379979, "center": {"lat": 49.4925358, "lon": -113.9473608}, "nodes": [6209426741, 6209426742, 6209426743, 6209426744, 6209426741], "tags": {"aeroway": "helipad"}}, {"type": "way", "id": 663380185, "center": {"lat": 43.554026, "lon": -116.5686798}, "nodes": [6209428072, 6209428073, 6209428074, 6209428075, 6209428072], "tags": {"aeroway": "helipad"}}, {"type": "way", "id": 663695877, "center": {"lat": 40.8244279, "lon": -115.7299708}, "nodes": [6212197866, 6212197867, 6212197868, 6212197869, 6212197866], "tags": {"aeroway": "helipad"}}, {"type": "way", "id": 675750052, "center": {"lat": 46.2344639, "lon": -119.095339}, "nodes": [6328289525, 6328289526, 6328289527, 6328289528, 6328289525], "tags": {"aeroway": "helipad", "surface": "asphalt"}}, {"type": "way", "id": 680089751, "center": {"lat": 40.8334128, "lon": -115.7896474}, "nodes": [6367831394, 6367831395, 6367831396, 6367831397, 6367831398, 6367831399, 6367831400, 6367831401, 6367831402, 6367831403, 6367831404, 6367831405, 6367831406, 6367831407, 6367831408, 6367831409, 6367831410, 6367831411, 6367831412, 6367831413, 6367831414, 6367831415, 6367831394], "tags": {"aeroway": "helipad"}}, {"type": "way", "id": 680089752, "center": {"lat": 40.8332384, "lon": -115.7894155}, "nodes": [6367831416, 6367831417, 6367831418, 6367831419, 6367831420, 6367831421, 6367831422, 6367831423, 6367831424, 6367831425, 6367831426, 6367831427, 6367831428, 6367831429, 6367831430, 6367831431, 6367831432, 6367831433, 6367831434, 6367831435, 6367831436, 6367831437, 6367831416], "tags": {"aeroway": "helipad"}}, {"type": "way", "id": 680089754, "center": {"lat": 40.8283727, "lon": -115.7792175}, "nodes": [6367831457, 6367831458, 6367831459, 6367831460, 6367831461, 6367831462, 6367831463, 6367831464, 6367831457], "tags": {"aeroway": "helipad"}}, {"type": "way", "id": 680098546, "center": {"lat": 40.727421, "lon": -114.0371008}, "nodes": [6367910518, 6367910519, 6367910520, 6367910521, 6367910522, 6367910523, 6367910524, 6367910525, 6367910526, 6367910527, 6367910528, 6367910529, 6367910530, 6367910531, 6367910532, 6367910533, 6367910534, 6367910535, 6367910536, 6367910537, 6367910538, 6367910539, 6367910540, 6367910541, 6367910542, 6367910518], "tags": {"aeroway": "helipad"}}, {"type": "way", "id": 680098547, "center": {"lat": 40.7272031, "lon": -114.0371007}, "nodes": [6367910543, 6367910544, 6367910545, 6367910546, 6367910547, 6367910548, 6367910549, 6367910550, 6367910551, 6367910552, 6367910553, 6367910554, 6367910555, 6367910556, 6367910557, 6367910558, 6367910559, 6367910560, 6367910561, 6367910562, 6367910563, 6367910564, 6367910565, 6367910566, 6367910543], "tags": {"aeroway": "helipad"}}, {"type": "way", "id": 680098548, "center": {"lat": 40.7269843, "lon": -114.0370991}, "nodes": [6367910567, 6367910568, 6367910569, 6367910570, 6367910571, 6367910572, 6367910573, 6367910574, 6367910575, 6367910576, 6367910577, 6367910578, 6367910579, 6367910580, 6367910581, 6367910582, 6367910583, 6367910584, 6367911185, 6367911186, 6367911187, 6367911188, 6367911189, 6367911190, 6367910567], "tags": {"aeroway": "helipad"}}, {"type": "way", "id": 680986343, "center": {"lat": 40.6128866, "lon": -111.9931924}, "nodes": [6376824298, 6376824299, 6376824300, 6376824301, 6376824298], "tags": {"aeroway": "helipad", "ref": "H2"}}, {"type": "way", "id": 680986345, "center": {"lat": 40.6161577, "lon": -111.9937637}, "nodes": [6376824310, 6376824311, 6376824312, 6376824313, 6376824310], "tags": {"aeroway": "helipad", "ref": "H3"}}, {"type": "way", "id": 680986347, "center": {"lat": 40.6261793, "lon": -111.9955106}, "nodes": [6376824360, 6376824361, 6376824362, 6376824363, 6376824360], "tags": {"aeroway": "helipad", "ref": "H5"}}, {"type": "way", "id": 680986349, "center": {"lat": 40.6218228, "lon": -111.994749}, "nodes": [6376824372, 6376824373, 6376824374, 6376824375, 6376824372], "tags": {"aeroway": "helipad", "ref": "H4"}}, {"type": "way", "id": 680986360, "center": {"lat": 40.6164088, "lon": -111.9946327}, "nodes": [6376824593, 6376824594, 6376824595, 6376824596, 6376824597, 6376824598, 6376824599, 6376824600, 6376824601, 6376824602, 6376824603, 6376824604, 6376824605, 6376824606, 6376824607, 6376824608, 6376824609, 6376824610, 6376824611, 6376824612, 6376824613, 6376824614, 6376824615, 6376824616, 6376824617, 6376824618, 6376824619, 6376824593], "tags": {"aeroway": "helipad"}}, {"type": "way", "id": 680986361, "center": {"lat": 40.6162216, "lon": -111.9946009}, "nodes": [6376824620, 6376824621, 6376824622, 6376824623, 6376824624, 6376824625, 6376824626, 6376824627, 6376824628, 6376824629, 6376824630, 6376824631, 6376824632, 6376824633, 6376824634, 6376824635, 6376824636, 6376824637, 6376824638, 6376824639, 6376824640, 6376824620], "tags": {"aeroway": "helipad"}}, {"type": "way", "id": 686316368, "center": {"lat": 45.2606708, "lon": -111.3001022}, "nodes": [6432852702, 6432852703, 6432852704, 6432852705, 6432852702], "tags": {"aeroway": "helipad", "faa": "4MT7", "lit": "no", "name": "Big Sky Medical Center Heliport", "ref": "4MT7", "surface": "concrete"}}, {"type": "way", "id": 697596921, "center": {"lat": 40.774202, "lon": -111.9566972}, "nodes": [6551288049, 6551288050, 6551288051, 6551288052, 6551372619, 6551288049], "tags": {"aeroway": "helipad", "name": "HB", "surface": "asphalt"}}, {"type": "way", "id": 697602523, "center": {"lat": 40.7824136, "lon": -111.9593986}, "nodes": [6551348954, 6551348955, 6551348956, 6551348957, 6551348954], "tags": {"aeroway": "helipad"}}, {"type": "way", "id": 720561551, "center": {"lat": 42.316552, "lon": -111.2994671}, "nodes": [6762156017, 6762156033, 6762156018, 6762156019, 6762156020, 6762156021, 6762156022, 6762156023, 6762156024, 6762156025, 6762156026, 6762156027, 6762156028, 6762156029, 6762156030, 6762156031, 6762156032, 6762156017], "tags": {"aeroway": "helipad", "faa": "16ID", "lit": "yes", "name": "Bear Lake Memorial Hospital Helipad", "surface": "concrete", "wikidata": "Q61668240"}}, {"type": "way", "id": 733781220, "center": {"lat": 41.0480897, "lon": -112.9392486}, "nodes": [6872433010, 6872433009, 6872433008, 6872433007, 6872433010], "tags": {"aeroway": "helipad"}}, {"type": "way", "id": 742717624, "center": {"lat": 41.0529001, "lon": -111.9700465}, "nodes": [6952770499, 6952770500, 6952770501, 6952770502, 6952770499], "tags": {"aeroway": "helipad"}}, {"type": "way", "id": 750228715, "center": {"lat": 49.5116035, "lon": -115.7499511}, "nodes": [1042144416, 7015080079, 7015080080, 7015080081, 7015080082, 7015080083, 7015080084, 7015088985, 7015088986, 7015088987, 7015088988, 7015088989, 7015080072, 7015080075, 7015080076, 7015080077, 7015080078, 7015080073, 7015080074, 1042144416], "tags": {"aeroway": "helipad", "name": "Cranbrook (East Kootenay Regional Hospital) Heliport", "source": "ourairports.com"}}, {"type": "way", "id": 766384072, "center": {"lat": 48.627502, "lon": -112.3258426}, "nodes": [7157738745, 7157738746, 7157738747, 7157738748, 7157738745], "tags": {"aeroway": "helipad", "source": "Bing", "surface": "concrete"}}, {"type": "way", "id": 773052323, "center": {"lat": 43.913506, "lon": -116.1969785}, "nodes": [7217794230, 7217793836, 7217792671, 7217793765, 7217794230], "tags": {"aeroway": "helipad", "faa": "1ID2", "lit": "yes", "name": "Horseshoe Bend Heliport", "source": "microsoft/BuildingFootprints", "surface": "concrete", "wikidata": "Q61668179"}}, {"type": "way", "id": 775634205, "center": {"lat": 46.4757272, "lon": -117.6023363}, "nodes": [7143150776, 7235937437, 7235937438, 7235937439, 7235937440, 7235937441, 7235937442, 7235937443, 7235937444, 7235937445, 7235937446, 7235937447, 7143150776], "tags": {"aeroway": "helipad"}}, {"type": "way", "id": 791860626, "center": {"lat": 46.1776258, "lon": -119.1940333}, "nodes": [7402779045, 7402779046, 7402779047, 7402779029, 7402779030, 7402779031, 7402779032, 7402779033, 7402779034, 7402779041, 7402779042, 7402779043, 7402779044, 7402779035, 7402779036, 7402779037, 7402779038, 7402779039, 7402779040, 7402779045], "tags": {"aeroway": "helipad", "operator": "Trios Southridge Hospital"}}, {"type": "way", "id": 798984984, "center": {"lat": 40.1763327, "lon": -118.4814394}, "nodes": [7472510641, 7472510642, 7472510643, 7472510644, 7472510641], "tags": {"aeroway": "helipad"}}, {"type": "way", "id": 799201267, "center": {"lat": 48.5103088, "lon": -111.8502047}, "nodes": [7474325725, 7474325726, 7474325727, 9872815596, 7474325728, 7474325725], "tags": {"aeroway": "helipad", "source": "Bing", "surface": "concrete"}}, {"type": "way", "id": 807876287, "center": {"lat": 40.77821, "lon": -111.8795333}, "nodes": [7554685711, 7554685712, 7554685713, 7554685714, 7554685711], "tags": {"aeroway": "helipad", "surface": "paved"}}, {"type": "way", "id": 837725543, "center": {"lat": 46.2816663, "lon": -119.281259}, "nodes": [7818639873, 7818639874, 5264861792, 7818639857, 7818639858, 7818639859, 7818639860, 7818639861, 7818639862, 7818639870, 7818639871, 7818639872, 7818639863, 7818639864, 7818639865, 7818639866, 7818639867, 7818639868, 7818639869, 7818639873], "tags": {"addr:city": "Richland", "addr:housenumber": "888", "addr:postcode": "99352", "addr:state": "WA", "addr:street": "Swift Boulevard", "aeroway": "helipad", "faa": "WA89", "fixme": "need to verify if this helipad is still in use", "lit": "yes", "location": "roof", "name": "Kadlec Regional Medical Center Heliport", "ref": "H1", "source": "Esri 2018", "surface": "concrete", "wheelchair": "yes"}}, {"type": "way", "id": 837725544, "center": {"lat": 46.2816451, "lon": -119.2819087}, "nodes": [7818639875, 7818639876, 7818639877, 7818639878, 7818639875], "tags": {"aeroway": "helipad", "faa": "WA89", "lit": "yes", "location": "roof", "name": "Kadlec Regional Medical Center Heliport", "ref": "H2", "source": "Esri 2018", "surface": "concrete"}}, {"type": "way", "id": 838325548, "center": {"lat": 46.8694909, "lon": -117.3760343}, "nodes": [5639656007, 7824045606, 7824045607, 7824045608, 5639656007], "tags": {"aeroway": "helipad", "faa": "70WA", "lit": "yes", "location": "roof", "name": "Whitman Community Hospital Heliport", "source": "Esri beta", "surface": "concrete", "wikidata": "Q61725880"}}, {"type": "way", "id": 838326004, "center": {"lat": 46.7123929, "lon": -117.1698162}, "nodes": [5215006990, 7823999833, 7823999834, 7823999835, 5215006990], "tags": {"aeroway": "helipad", "location": "roof", "source": "Esri beta", "surface": "paved"}}, {"type": "way", "id": 838327394, "center": {"lat": 46.4020936, "lon": -117.0555862}, "nodes": [7824053970, 7824053971, 7824053972, 7824053973, 7824053970], "tags": {"aeroway": "helipad", "faa": "WT89", "lit": "yes", "name": "Tri-State Memorial Hospital EMS Heliport", "source": "Esri 2019", "surface": "concrete", "wikidata": "Q61725873"}}, {"type": "way", "id": 838329096, "center": {"lat": 48.8859718, "lon": -111.8963544}, "nodes": [7824076669, 7824076668, 7824076667, 7824076666, 7824076669], "tags": {"aeroway": "helipad"}}, {"type": "way", "id": 838329796, "center": {"lat": 47.5291614, "lon": -114.1075826}, "nodes": [7824056167, 7824056168, 7824056169, 7824056170, 7824056167], "tags": {"aeroway": "helipad", "source": "Bing", "surface": "paved"}}, {"type": "way", "id": 838330190, "center": {"lat": 47.6817445, "lon": -114.1629268}, "nodes": [7824057631, 7824057632, 7824057633, 7824057634, 7824057631], "tags": {"aeroway": "helipad", "source": "Esri beta", "surface": "paved"}}, {"type": "way", "id": 839459864, "center": {"lat": 47.6573179, "lon": -118.1464012}, "nodes": [369035113, 7833507918, 7833507919, 7833507920, 369035113], "tags": {"addr:state": "WA", "aeroway": "helipad", "ele": "736", "gnis:county_name": "Lincoln", "gnis:created": "05/01/1992", "gnis:feature_id": "1534180", "gnis:feature_type": "Airport", "name": "Lincoln County Hospital Heliport", "source": "Esri 2019", "source_ref": "geonames.usgs.gov", "surface": "asphalt"}}, {"type": "way", "id": 839460564, "center": {"lat": 48.5408276, "lon": -117.8916014}, "nodes": [7833369908, 7833369909, 7833369910, 7833369911, 7833369908], "tags": {"aeroway": "helipad", "faa": "77WA", "lit": "yes", "location": "roof", "name": "Providence Mount Carmel Hospital Heliport", "source": "Bing", "surface": "concrete", "wikidata": "Q61725881"}}, {"type": "way", "id": 839461650, "center": {"lat": 45.3195154, "lon": -118.105407}, "nodes": [6094435935, 7833522390, 7833522391, 7833522392, 6094435935], "tags": {"aeroway": "helipad", "location": "roof", "operator": "Grande Ronde Hospital", "source": "Bing"}}, {"type": "way", "id": 839463768, "center": {"lat": 45.3544017, "lon": -119.5483848}, "nodes": [7833536101, 7833536102, 7833536103, 7833536085, 7833536086, 7833536087, 7833536088, 7833536089, 7833536096, 7833536097, 7833536098, 7833536099, 7833536100, 7833536090, 7833536091, 7833536092, 7833536093, 7833536094, 7833536095, 7833536101], "tags": {"aeroway": "helipad", "source": "Esri 2018", "surface": "asphalt"}}, {"type": "way", "id": 839467335, "center": {"lat": 43.5885658, "lon": -119.0593267}, "nodes": [7833568005, 7833568006, 7833568007, 7833568008, 7833568005], "tags": {"aeroway": "helipad", "operator": "Harney District Hospital", "source": "Bing", "surface": "asphalt"}}, {"type": "way", "id": 839469048, "center": {"lat": 43.654128, "lon": -116.695875}, "nodes": [7833578790, 7833578791, 7833578792, 7833578793, 7833570275, 7833570276, 7833570277, 7833570278, 7833570279, 7833570280, 7833578787, 7833578788, 7833578789, 7833570281, 7833570282, 7833570283, 7833570284, 7833578785, 7833578786, 7833578790], "tags": {"aeroway": "helipad", "faa": "ID80", "lit": "yes", "name": "West Valley Hospital Heliport", "operator": "West Valley Medical Center", "source": "Bing", "surface": "concrete", "wikidata": "Q61668099"}}, {"type": "way", "id": 839470094, "center": {"lat": 43.5957224, "lon": -116.5194025}, "nodes": [7833561233, 7833561234, 7833561235, 7833561236, 7833561233], "tags": {"aeroway": "helipad", "source": "Bing", "surface": "concrete"}}, {"type": "way", "id": 839472129, "center": {"lat": 42.5351142, "lon": -113.7802827}, "nodes": [7833586308, 7833586309, 7833586310, 7833586311, 7833586308], "tags": {"aeroway": "helipad", "operator": "Cassia Regional Hospital", "source": "Bing", "surface": "concrete"}}, {"type": "way", "id": 839475234, "center": {"lat": 43.7266471, "lon": -111.1073355}, "nodes": [7833556354, 7833556355, 7833556356, 7833556357, 7833556354], "tags": {"aeroway": "helipad", "description": "Helipad shares space with an active parking lot", "operator": "Teton Valley Hospital", "source": "Bing", "surface": "asphalt"}}, {"type": "way", "id": 839478514, "center": {"lat": 42.098134, "lon": -111.8724767}, "nodes": [7833607439, 7833607440, 7833607441, 7833607442, 7833607439], "tags": {"aeroway": "helipad", "operator": "Franklin County Medical Center", "source": "Esri 2018", "surface": "concrete"}}, {"type": "way", "id": 839901410, "center": {"lat": 48.1747173, "lon": -111.9579108}, "nodes": [7837639190, 7837639189, 7837639188, 7837639187, 7837639190], "tags": {"aeroway": "helipad"}}, {"type": "way", "id": 841582159, "center": {"lat": 42.5563593, "lon": -110.111503}, "nodes": [7851981683, 7851981684, 7851994385, 7851994386, 7851981683], "tags": {"aeroway": "helipad", "name": "H1", "surface": "concrete"}}, {"type": "way", "id": 841582166, "center": {"lat": 41.2436623, "lon": -110.9899537}, "nodes": [7851994416, 7851994417, 7851994418, 7851994419, 7851994416], "tags": {"aeroway": "helipad", "lit": "yes", "ref": "H1", "surface": "asphalt"}}, {"type": "way", "id": 841582167, "center": {"lat": 43.4852932, "lon": -110.7613717},