{"version": 0.6, "generator": "Overpass API 0.7.61.5 4133829e", "osm3s": {"timestamp_osm_base": "2023-10-31T20:38:15Z", "copyright": "The data included in this document is from www.openstreetmap.org. The data is made available under ODbL."}, "elements": [{"type": "node", "id": 368886136, "lat": 44.6242189, "lon": -88.7579127, "tags": {"addr:state": "WI", "aeroway": "helipad", "ele": "254", "gnis:county_name": "Waupaca", "gnis:created": "09/01/1992", "gnis:feature_id": "1581920", "gnis:feature_type": "Airport", "name": "Clintonville Community Hospital Heliport", "ref": "2"}}, {"type": "node", "id": 368886297, "lat": 43.1814103, "lon": -87.9636133, "tags": {"addr:state": "WI", "aeroway": "helipad", "ele": "200", "gnis:county_name": "Milwaukee", "gnis:created": "09/01/1992", "gnis:feature_id": "1581904", "gnis:feature_type": "Airport", "name": "WITI-TV Studio Building Heliport", "wikidata": "Q61726294"}}, {"type": "node", "id": 368888517, "lat": 43.2663714, "lon": -87.966043, "tags": {"addr:state": "WI", "aeroway": "helipad", "ele": "220", "gnis:county_name": "Ozaukee", "gnis:created": "09/01/1992", "gnis:feature_id": "1582234", "gnis:feature_type": "Airport", "name": "Hoffman Prop Inc Heliport", "wikidata": "Q61726655"}}, {"type": "node", "id": 368888630, "lat": 42.98751, "lon": -88.416486, "tags": {"addr:state": "WI", "aeroway": "heliport", "ele": "302", "gnis:county_name": "Waukesha", "gnis:created": "09/01/1992", "gnis:feature_id": "1582249", "gnis:feature_type": "Airport", "name": "Koller Heliport"}}, {"type": "node", "id": 368888872, "lat": 42.5425186, "lon": -88.1703653, "tags": {"aeroway": "helipad", "fixme": "still active?", "gnis:feature_id": "1582208", "name": "Westosha Emergency Center Heliport"}}, {"type": "node", "id": 368889288, "lat": 44.3358125, "lon": -89.0834469, "tags": {"addr:state": "WI", "aeroway": "helipad", "ele": "274", "gnis:county_name": "Waupaca", "gnis:created": "09/01/1992", "gnis:feature_id": "1582259", "gnis:feature_type": "Airport", "name": "Riverside Hospital Heliport"}}, {"type": "node", "id": 368962453, "lat": 41.2817202, "lon": -82.8371317, "tags": {"addr:state": "OH", "aeroway": "helipad", "ele": "223", "gnis:county_name": "Huron", "gnis:created": "05/01/1990", "gnis:feature_id": "1082213", "gnis:feature_type": "Airport", "name": "Scagnetti Heliport"}}, {"type": "node", "id": 368962709, "lat": 40.0139529, "lon": -82.8648995, "tags": {"addr:state": "OH", "aeroway": "helipad", "ele": "247", "gnis:county_name": "Franklin", "gnis:created": "05/01/1990", "gnis:feature_id": "1082230", "gnis:feature_type": "Airport", "name": "Gahanna Municipal Heliport"}}, {"type": "node", "id": 368962839, "lat": 40.782001, "lon": -82.5385037, "tags": {"addr:state": "OH", "aeroway": "helipad", "ele": "411", "gnis:county_name": "Richland", "gnis:created": "05/01/1990", "gnis:feature_id": "1082236", "gnis:feature_type": "Airport", "name": "Westbrook Heliport"}}, {"type": "node", "id": 368962976, "lat": 41.0864433, "lon": -81.729296, "tags": {"addr:state": "OH", "aeroway": "helipad", "ele": "315", "gnis:county_name": "Medina", "gnis:created": "05/01/1990", "gnis:feature_id": "1082253,1083006", "gnis:feature_type": "Airport", "name": "Ruhlin Heliport", "name_1": "Ruhlin Airport", "wikidata": "Q49750334"}}, {"type": "node", "id": 368963033, "lat": 41.1306134, "lon": -80.7489678, "tags": {"addr:state": "OH", "aeroway": "helipad", "ele": "310", "gnis:county_name": "Mahoning", "gnis:created": "05/01/1990", "gnis:feature_id": "1082241", "gnis:feature_type": "Airport", "name": "Youngstown Development Center Heliport"}}, {"type": "node", "id": 368963046, "lat": 41.4500546, "lon": -81.0500959, "tags": {"addr:state": "OH", "aeroway": "helipad", "ele": "352", "gnis:county_name": "Geauga", "gnis:created": "05/01/1990", "gnis:feature_id": "1082240", "gnis:feature_type": "Airport", "name": "Airwolf Heliport", "wikidata": "Q61676890"}}, {"type": "node", "id": 368963253, "lat": 41.147277, "lon": -81.6604026, "tags": {"addr:state": "OH", "aeroway": "helipad", "ele": "302", "gnis:county_name": "Summit", "gnis:created": "04/01/1991", "gnis:feature_id": "1082449", "gnis:feature_type": "Airport", "name": "Schmeltzer Heliport"}}, {"type": "node", "id": 368963500, "lat": 40.0975634, "lon": -82.6712796, "tags": {"addr:state": "OH", "aeroway": "helipad", "ele": "350", "gnis:county_name": "Licking", "gnis:created": "04/01/1991", "gnis:feature_id": "1082453", "gnis:feature_type": "Airport", "name": "Remington Heliport"}}, {"type": "node", "id": 368964010, "lat": 40.1070144, "lon": -80.9753735, "tags": {"addr:state": "OH", "aeroway": "helipad", "ele": "337", "gnis:county_name": "Belmont", "gnis:created": "04/01/1991", "gnis:feature_id": "1082482", "gnis:feature_type": "Airport", "lit": "no", "name": "Bannock Heliport", "operator": "Ohio River Collieries, Co.", "ref": "2D6", "surface": "concrete", "wikidata": "Q61676568"}}, {"type": "node", "id": 368964288, "lat": 40.2886784, "lon": -80.9831507, "tags": {"addr:state": "OH", "aeroway": "helipad", "ele": "381", "gnis:county_name": "Harrison", "gnis:created": "04/01/1991", "gnis:feature_id": "1082530", "gnis:feature_type": "Airport", "name": "R and F Heliport"}}, {"type": "node", "id": 368964517, "lat": 41.340054, "lon": -81.6101233, "tags": {"addr:state": "OH", "aeroway": "helipad", "ele": "231", "gnis:county_name": "Cuyahoga", "gnis:created": "04/01/1991", "gnis:feature_id": "1082516", "gnis:feature_type": "Airport", "name": "Strattons Heliport"}}, {"type": "node", "id": 368965333, "lat": 41.4481168, "lon": -81.7793228, "tags": {"addr:state": "OH", "aeroway": "helipad", "ele": "230", "faa": "OI50", "gnis:county_name": "Cuyahoga", "gnis:created": "04/01/1991", "gnis:feature_id": "1082590", "gnis:feature_type": "Airport", "lit": "no", "name": "1st District Police Station Heliport", "surface": "concrete", "wikidata": "Q61676656"}}, {"type": "node", "id": 368965427, "lat": 41.1422783, "lon": -81.4667799, "tags": {"addr:state": "OH", "aeroway": "helipad", "ele": "315", "gnis:county_name": "Summit", "gnis:created": "04/01/1991", "gnis:feature_id": "1082634", "gnis:feature_type": "Airport", "name": "ODOT District 4 Summit Co Heliport"}}, {"type": "node", "id": 368965680, "lat": 40.9281073, "lon": -84.0577229, "tags": {"addr:state": "OH", "aeroway": "helipad", "ele": "233", "gnis:county_name": "Putnam", "gnis:created": "04/01/1991", "gnis:feature_id": "1082623", "gnis:feature_type": "Airport", "name": "Macks Heliport", "wikidata": "Q61676695"}}, {"type": "node", "id": 368965748, "lat": 40.6425614, "lon": -81.3553904, "tags": {"addr:state": "OH", "aeroway": "helipad", "ele": "293", "gnis:county_name": "Tuscarawas", "gnis:created": "04/01/1991", "gnis:feature_id": "1082668", "gnis:feature_type": "Airport", "name": "M and M Heliport"}}, {"type": "node", "id": 368965979, "lat": 40.0964515, "lon": -83.135189, "tags": {"addr:state": "OH", "aeroway": "helipad", "ele": "270", "gnis:county_name": "Franklin", "gnis:created": "04/01/1991", "gnis:feature_id": "1082659", "gnis:feature_type": "Airport", "name": "Stouffers Dublin Heliport", "ref": "93OI", "wikidata": "Q61676729"}}, {"type": "node", "id": 368967319, "lat": 40.7781133, "lon": -81.5345657, "tags": {"addr:state": "OH", "aeroway": "helipad", "ele": "301", "gnis:county_name": "Stark", "gnis:created": "04/01/1991", "gnis:feature_id": "1082844", "gnis:feature_type": "Airport", "name": "Midwestern Heliport"}}, {"type": "node", "id": 368967342, "lat": 40.798262, "lon": -81.5283512, "tags": {"addr:state": "OH", "aeroway": "helipad", "ele": "285", "gnis:county_name": "Stark", "gnis:created": "05/01/1990", "gnis:feature_id": "1082238,1082842", "gnis:feature_type": "Airport", "name": "Massillon Municipal Helipad 8", "name_1": "Massillon Municipal Heliport"}}, {"type": "node", "id": 368967359, "lat": 40.8187376, "lon": -81.5237286, "tags": {"addr:state": "OH", "aeroway": "helipad", "ele": "298", "gnis:county_name": "Stark", "gnis:created": "04/01/1991", "gnis:feature_id": "1082843", "gnis:feature_type": "Airport", "name": "Gainey Heliport", "wikidata": "Q61676880"}}, {"type": "node", "id": 368967596, "lat": 41.4292204, "lon": -81.4434492, "tags": {"addr:state": "OH", "aeroway": "helipad", "ele": "352", "gnis:county_name": "Cuyahoga", "gnis:created": "04/01/1991", "gnis:feature_id": "1082871", "gnis:feature_type": "Airport", "name": "Golf Course Heliport"}}, {"type": "node", "id": 368967606, "lat": 41.4400536, "lon": -81.4398381, "tags": {"addr:state": "OH", "aeroway": "helipad", "ele": "327", "gnis:county_name": "Cuyahoga", "gnis:created": "04/01/1991", "gnis:feature_id": "1082870", "gnis:feature_type": "Airport", "name": "Jackson Road Heliport"}}, {"type": "node", "id": 368967834, "lat": 40.8047786, "lon": -82.5112804, "tags": {"addr:state": "OH", "aeroway": "helipad", "ele": "387", "gnis:county_name": "Richland", "gnis:created": "04/01/1991", "gnis:feature_id": "1082826", "gnis:feature_type": "Airport", "name": "Manairco Heliport", "wikidata": "Q61676863"}}, {"type": "node", "id": 368967879, "lat": 40.7731123, "lon": -82.5626713, "tags": {"aeroway": "helipad", "ele": "393", "gnis:county_name": "Richland", "gnis:created": "04/01/1991", "gnis:feature_id": "1082825", "gnis:feature_type": "Airport", "name": "Au Heliport", "wikidata": "Q61676860"}}, {"type": "node", "id": 368968084, "lat": 41.598105, "lon": -83.0851975, "tags": {"addr:state": "OH", "aeroway": "helipad", "ele": "175", "gnis:county_name": "Ottawa", "gnis:created": "04/01/1991", "gnis:feature_id": "1082915", "gnis:feature_type": "Airport", "name": "Davis-Besse Heliport"}}, {"type": "node", "id": 368968115, "lat": 41.2497755, "lon": -82.6651801, "tags": {"addr:state": "OH", "aeroway": "helipad", "ele": "210", "gnis:county_name": "Huron", "gnis:created": "04/01/1991", "gnis:feature_id": "1082914", "gnis:feature_type": "Airport", "name": "Valley View Heliport", "wikidata": "Q61723858"}}, {"type": "node", "id": 368968272, "lat": 41.7067113, "lon": -81.2748254, "tags": {"addr:state": "OH", "aeroway": "helipad", "ele": "201", "gnis:county_name": "Lake", "gnis:created": "04/01/1991", "gnis:feature_id": "1082937", "gnis:feature_type": "Airport", "name": "Associated Enterprises Heliport", "wikidata": "Q61723872"}}, {"type": "node", "id": 368968418, "lat": 40.0608977, "lon": -82.4432108, "tags": {"addr:state": "OH", "aeroway": "helipad", "ele": "257", "gnis:county_name": "Licking", "gnis:created": "04/01/1991", "gnis:feature_id": "1082887", "gnis:feature_type": "Airport", "name": "Licking Memorial Hospital Heliport"}}, {"type": "node", "id": 368968623, "lat": 41.1664454, "lon": -81.2584369, "tags": {"addr:state": "OH", "aeroway": "helipad", "ele": "330", "gnis:county_name": "Portage", "gnis:created": "04/01/1991", "gnis:feature_id": "1082981", "gnis:feature_type": "Airport", "name": "ODOT District 4 Office Heliport"}}, {"type": "node", "id": 368968820, "lat": 40.9822806, "lon": -80.9578674, "tags": {"addr:state": "OH", "aeroway": "helipad", "ele": "330", "gnis:county_name": "Mahoning", "gnis:created": "04/01/1991", "gnis:feature_id": "1082992", "gnis:feature_type": "Airport", "name": "Ponderosa Heliport", "wikidata": "Q61723915"}}, {"type": "node", "id": 368969351, "lat": 40.0481177, "lon": -83.2271369, "tags": {"addr:state": "OH", "aeroway": "helipad", "ele": "286", "gnis:county_name": "Miami", "gnis:created": "04/01/1991", "gnis:feature_id": "1083064", "gnis:feature_type": "Airport", "name": "Miami Valley Heliport", "wikidata": "Q61723960"}}, {"type": "node", "id": 368969487, "lat": 41.6558837, "lon": -83.6466028, "tags": {"addr:state": "OH", "aeroway": "helipad", "ele": "190", "gnis:county_name": "Lucas", "gnis:created": "04/01/1991", "gnis:feature_id": "1083058", "gnis:feature_type": "Airport", "name": "Dana Heliport", "wikidata": "Q61723952"}}, {"type": "node", "id": 368970343, "lat": 41.389214, "lon": -82.4501674, "tags": {"addr:state": "OH", "aeroway": "helipad", "ele": "182", "gnis:county_name": "Erie", "gnis:created": "04/01/1991", "gnis:feature_id": "1083079", "gnis:feature_type": "Airport", "name": "Waterwood Heliport", "wikidata": "Q61723972"}}, {"type": "node", "id": 368990864, "lat": 40.0131292, "lon": -80.3622877, "tags": {"addr:state": "PA", "aeroway": "helipad", "ele": "368", "gnis:county_name": "Lawrence", "gnis:created": "08/30/1990", "gnis:feature_id": "1213724", "gnis:feature_type": "Airport", "name": "Jameson Memorial Hospital Heliport"}}, {"type": "node", "id": 368991294, "lat": 40.416735, "lon": -80.4220098, "tags": {"addr:state": "PA", "aeroway": "helipad", "ele": "364", "gnis:county_name": "Washington", "gnis:created": "08/30/1990", "gnis:feature_id": "1213772", "gnis:feature_type": "Airport", "name": "Bologna Heliport"}}, {"type": "node", "id": 368991420, "lat": 41.6667213, "lon": -80.4164559, "tags": {"addr:state": "PA", "aeroway": "helipad", "ele": "336", "gnis:county_name": "Crawford", "gnis:created": "08/30/1990", "gnis:feature_id": "1213807", "gnis:feature_type": "Airport", "name": "Summers Heliport"}}, {"type": "node", "id": 368991464, "lat": 40.988196, "lon": -80.3458689, "tags": {"addr:state": "PA", "aeroway": "helipad", "ele": "248", "gnis:county_name": "Lawrence", "gnis:created": "08/30/1990", "gnis:feature_id": "1213797", "gnis:feature_type": "Airport", "name": "Saint Francis Hospital Heliport"}}, {"type": "node", "id": 369021845, "lat": 42.9189176, "lon": -83.061602, "tags": {"addr:state": "MI", "aeroway": "helipad", "ele": "262", "gnis:county_name": "Lapeer", "gnis:created": "09/01/1994", "gnis:feature_id": "1623775", "gnis:feature_type": "Airport", "name": "Omans Heliport", "wikidata": "Q61673348"}}, {"type": "node", "id": 369022217, "lat": 42.4719808, "lon": -83.0107549, "tags": {"addr:state": "MI", "aeroway": "helipad", "ele": "190", "faa": "8MI2", "gnis:county_name": "Macomb", "gnis:created": "09/01/1994", "gnis:feature_id": "1623828", "gnis:feature_type": "Airport", "name": "Acme Heliport", "wikidata": "Q61673390"}}, {"type": "node", "id": 369022231, "lat": 42.7383628, "lon": -83.4371642, "tags": {"addr:state": "MI", "aeroway": "helipad", "ele": "297", "gnis:county_name": "Oakland", "gnis:created": "09/01/1994", "gnis:feature_id": "1623838", "gnis:feature_type": "Airport", "name": "Wagners Landing Heliport", "wikidata": "Q61673400"}}, {"type": "node", "id": 369022409, "lat": 43.5508568, "lon": -83.8619179, "tags": {"addr:state": "MI", "aeroway": "helipad", "ele": "181", "gnis:county_name": "Bay", "gnis:created": "09/01/1994", "gnis:feature_id": "1623797", "gnis:feature_type": "Airport", "name": "Harold Miller Heliport", "wikidata": "Q61673365"}}, {"type": "node", "id": 369022429, "lat": 42.3308741, "lon": -85.1786035, "tags": {"addr:state": "MI", "aeroway": "helipad", "ele": "267", "gnis:county_name": "Calhoun", "gnis:created": "09/01/1994", "gnis:feature_id": "1623794", "gnis:feature_type": "Airport", "name": "Bronson Battle Creek Hospital Helistop", "wikidata": "Q35274334"}}, {"type": "node", "id": 369022584, "lat": 43.0494714, "lon": -83.6794009, "tags": {"addr:state": "MI", "aeroway": "helipad", "ele": "228", "gnis:county_name": "Genesee", "gnis:created": "09/01/1994", "gnis:feature_id": "1623898", "gnis:feature_type": "Airport", "name": "Flow Through Terminal Heliport", "wikidata": "Q61673451"}}, {"type": "node", "id": 369022591, "lat": 42.5444795, "lon": -82.9313091, "tags": {"addr:state": "MI", "aeroway": "helipad", "ele": "187", "gnis:county_name": "Macomb", "gnis:created": "09/01/1994", "gnis:feature_id": "1623905", "gnis:feature_type": "Airport", "name": "Grant Pad Heliport", "wikidata": "Q61673456"}}, {"type": "node", "id": 369022674, "lat": 42.3201885, "lon": -83.219644, "tags": {"addr:state": "MI", "aeroway": "helipad", "ele": "183", "gnis:county_name": "Wayne", "gnis:created": "09/01/1994", "gnis:feature_id": "1623857", "gnis:feature_type": "Airport", "name": "Fairlane Plaza Heliport"}}, {"type": "node", "id": 369022904, "lat": 42.6569748, "lon": -83.6499442, "tags": {"aeroway": "helipad", "faa": "3MI6", "gnis:feature_id": "1623956", "name": "Highland Heliport", "wikidata": "Q61673489"}}, {"type": "node", "id": 369022915, "lat": 42.6278087, "lon": -83.6822179, "tags": {"addr:state": "MI", "aeroway": "helipad", "ele": "310", "gnis:county_name": "Livingston", "gnis:created": "09/01/1994", "gnis:feature_id": "1623957", "gnis:feature_type": "Airport", "name": "Ponderosa Heliport", "wikidata": "Q61673490"}}, {"type": "node", "id": 369023106, "lat": 42.9537406, "lon": -85.6224652, "tags": {"addr:state": "MI", "aeroway": "helipad", "ele": "228", "gnis:county_name": "Kent", "gnis:created": "09/01/1994", "gnis:feature_id": "1623924", "gnis:feature_type": "Airport", "name": "Blodgett Memorial Medical Center Heliport", "wikidata": "Q61673466"}}, {"type": "node", "id": 369023114, "lat": 42.9658347, "lon": -85.6743054, "tags": {"addr:state": "MI", "aeroway": "helipad", "ele": "188", "gnis:county_name": "Kent", "gnis:created": "09/01/1994", "gnis:feature_id": "1623925", "gnis:feature_type": "Airport", "name": "Amway Downtown Heliport"}}, {"type": "node", "id": 369023128, "lat": 42.958644, "lon": -84.6402658, "tags": {"addr:state": "MI", "aeroway": "helipad", "ele": "225", "gnis:county_name": "Gladwin", "gnis:created": "09/01/1994", "gnis:feature_id": "1623919", "gnis:feature_type": "Airport", "name": "Vacottage Heliport", "wikidata": "Q61673463"}}, {"type": "node", "id": 369023261, "lat": 44.4155284, "lon": -83.9316185, "tags": {"addr:state": "MI", "aeroway": "helipad", "ele": "286", "gnis:county_name": "Ogemaw", "gnis:created": "09/01/1994", "gnis:feature_id": "1624012", "gnis:feature_type": "Airport", "name": "Junior North Heliport"}}, {"type": "node", "id": 369023276, "lat": 42.703103, "lon": -84.553667, "tags": {"access": "no", "aeroway": "helipad", "faa": "MI34", "gnis:feature_id": "1624004", "name": "Ingham Medical Helistop", "wikidata": "Q35267600"}}, {"type": "node", "id": 369023339, "lat": 42.25106, "lon": -84.391304, "tags": {"addr:state": "MI", "aeroway": "helipad", "ele": "294", "gnis:county_name": "Jackson", "gnis:created": "09/01/1994", "gnis:feature_id": "1623983", "gnis:feature_type": "Airport", "name": "Allegiance Health", "wikidata": "Q61673511"}}, {"type": "node", "id": 369023351, "lat": 41.8622701, "lon": -84.3596692, "tags": {"addr:state": "MI", "aeroway": "helipad", "ele": "284", "gnis:county_name": "Lenawee", "gnis:created": "09/01/1994", "gnis:feature_id": "1623971", "gnis:feature_type": "Airport", "name": "Thorn Hospital Heliport"}}, {"type": "node", "id": 369023382, "lat": 42.3468683, "lon": -83.4547247, "tags": {"addr:state": "MI", "aeroway": "helipad", "ele": "205", "gnis:county_name": "Wayne", "gnis:created": "09/01/1994", "gnis:feature_id": "1624110", "gnis:feature_type": "Airport", "name": "Executive Heliport (MI79)"}}, {"type": "node", "id": 369023413, "lat": 42.6598313, "lon": -83.1548978, "tags": {"addr:state": "MI", "aeroway": "helipad", "ele": "236", "gnis:county_name": "Oakland", "gnis:created": "09/01/1994", "gnis:feature_id": "1624119", "gnis:feature_type": "Airport", "name": "McPhail Corporation Heliport", "wikidata": "Q61673629"}}, {"type": "node", "id": 369023504, "lat": 42.480591, "lon": -83.2474296, "tags": {"addr:state": "MI", "aeroway": "helipad", "ele": "202", "gnis:county_name": "Oakland", "gnis:created": "09/01/1994", "gnis:feature_id": "1624158", "gnis:feature_type": "Airport", "name": "Bendix Heliport", "wikidata": "Q61673646"}}, {"type": "node", "id": 369023521, "lat": 43.5922491, "lon": -84.2241546, "tags": {"addr:state": "MI", "aeroway": "helipad", "ele": "186", "gnis:county_name": "Midland", "gnis:created": "09/01/1994", "gnis:feature_id": "1624043", "gnis:feature_type": "Airport", "name": "Dow Division Heliport"}}, {"type": "node", "id": 369023524, "lat": 42.5350484, "lon": -83.6777574, "tags": {"addr:state": "MI", "aeroway": "helipad", "ele": "293", "gnis:county_name": "Livingston", "gnis:created": "09/01/1994", "gnis:feature_id": "1624046", "gnis:feature_type": "Airport", "name": "Nitz Heliport"}}, {"type": "node", "id": 369023592, "lat": 42.4500436, "lon": -83.4699226, "tags": {"addr:state": "MI", "aeroway": "helipad", "ele": "255", "gnis:county_name": "Oakland", "gnis:created": "09/01/1994", "gnis:feature_id": "1624078", "gnis:feature_type": "Airport", "name": "Guardian Industries Heliport", "wikidata": "Q61711703"}}, {"type": "node", "id": 369023647, "lat": 42.5728256, "lon": -83.3907345, "tags": {"addr:state": "MI", "aeroway": "helipad", "ele": "297", "gnis:county_name": "Oakland", "gnis:created": "09/01/1994", "gnis:feature_id": "1624088", "gnis:feature_type": "Airport", "name": "Adams Heliport", "wikidata": "Q61673598"}}, {"type": "node", "id": 369023813, "lat": 41.7903271, "lon": -85.8386078, "tags": {"addr:state": "MI", "aeroway": "helipad", "ele": "242", "gnis:county_name": "Cass", "gnis:created": "09/01/1994", "gnis:feature_id": "1624186", "gnis:feature_type": "Airport", "name": "Baldwin Lake Heliport", "wikidata": "Q61673676"}}, {"type": "node", "id": 369023814, "lat": 42.660727, "lon": -82.9959542, "tags": {"addr:state": "MI", "aeroway": "helipad", "ele": "190", "gnis:county_name": "Macomb", "gnis:created": "09/01/1994", "gnis:feature_id": "1624187", "gnis:feature_type": "Airport", "name": "Jott Heliport", "wikidata": "Q61673677"}}, {"type": "node", "id": 369023880, "lat": 43.0069728, "lon": -82.601033, "tags": {"aeroway": "helipad", "faa": "4MI5", "gnis:feature_id": "1624328", "name": "BPS Heliport", "wikidata": "Q61673632"}}, {"type": "node", "id": 369051420, "lat": 41.6749145, "lon": -87.750415, "tags": {"addr:state": "IL", "aeroway": "helipad", "ele": "189", "gnis:county_name": "Cook", "gnis:created": "09/01/1992", "gnis:feature_id": "427011", "gnis:feature_type": "Airport", "name": "Alsip Fire Department Heliport", "wikidata": "Q61667439"}}, {"type": "node", "id": 369051954, "lat": 42.0691349, "lon": -88.1424152, "tags": {"addr:state": "IL", "aeroway": "helipad", "ele": "253", "gnis:county_name": "Cook", "gnis:created": "09/01/1992", "gnis:feature_id": "427042", "gnis:feature_type": "Airport", "name": "Rose Number 2 Heliport"}}, {"type": "node", "id": 369051966, "lat": 41.9997496, "lon": -88.2053531, "tags": {"addr:state": "IL", "aeroway": "helipad", "ele": "238", "gnis:county_name": "Cook", "gnis:created": "09/01/1992", "gnis:feature_id": "427046", "gnis:feature_type": "Airport", "name": "Urso Heliport", "wikidata": "Q61667458"}}, {"type": "node", "id": 369052020, "lat": 41.8625307, "lon": -89.2212086, "tags": {"addr:state": "IL", "aeroway": "helipad", "ele": "244", "gnis:county_name": "Lee", "gnis:created": "09/01/1992", "gnis:feature_id": "427027", "gnis:feature_type": "Airport", "name": "Swords Heliport"}}, {"type": "node", "id": 369052163, "lat": 42.2636322, "lon": -88.8098221, "tags": {"addr:state": "IL", "aeroway": "helipad", "ele": "232", "gnis:county_name": "Boone", "gnis:created": "09/01/1992", "gnis:feature_id": "427056", "gnis:feature_type": "Airport", "name": "Green Giant-Dillon Farm Heliport"}}, {"type": "node", "id": 369052170, "lat": 41.8805865, "lon": -87.8675608, "tags": {"addr:state": "IL", "aeroway": "helipad", "ele": "196", "gnis:county_name": "Cook", "gnis:created": "09/01/1992", "gnis:feature_id": "427055", "gnis:feature_type": "Airport", "name": "Sauerman Heliport"}}, {"type": "node", "id": 369052386, "lat": 42.4219626, "lon": -88.7306574, "tags": {"addr:state": "IL", "aeroway": "helipad", "ele": "281", "gnis:county_name": "Boone", "gnis:created": "09/01/1992", "gnis:feature_id": "427136", "gnis:feature_type": "Airport", "name": "Munch Heliport", "wikidata": "Q61667525"}}, {"type": "node", "id": 369052439, "lat": 40.0933646, "lon": -88.2417161, "tags": {"addr:state": "IL", "aeroway": "helipad", "ele": "232", "gnis:county_name": "Champaign", "gnis:created": "09/01/1992", "gnis:feature_id": "427128", "gnis:feature_type": "Airport", "name": "University of Illinois Heliport"}}, {"type": "node", "id": 369052450, "lat": 41.4489199, "lon": -88.1439483, "tags": {"addr:state": "IL", "aeroway": "helipad", "ele": "181", "gnis:county_name": "Will", "gnis:created": "09/01/1992", "gnis:feature_id": "427132", "gnis:feature_type": "Airport", "name": "M G T Channahon Illinois Heliport"}}, {"type": "node", "id": 369053007, "lat": 42.2125239, "lon": -88.2523052, "tags": {"addr:state": "IL", "aeroway": "helipad", "ele": "253", "fixme": "local check: does not look like a heliport from satellite.", "gnis:county_name": "Henry", "gnis:created": "09/01/1992", "gnis:feature_id": "427119", "gnis:feature_type": "Airport", "name": "Cary Fire Department Heliport"}}, {"type": "node", "id": 369053162, "lat": 41.8028101, "lon": -87.7661662, "tags": {"addr:city": "Chicago", "addr:postcode": "60638", "addr:state": "IL", "addr:street": "South Major Avenue", "aeroway": "helipad", "ele": "182", "gnis:county_name": "Cook", "gnis:created": "09/01/1992", "gnis:feature_id": "427155", "gnis:feature_type": "Airport", "name": "Rose Packing Company Heliport"}}, {"type": "node", "id": 369053287, "lat": 40.1317775, "lon": -87.5347259, "tags": {"addr:state": "IL", "aeroway": "helipad", "ele": "194", "faa": "7IS4", "gnis:county_name": "Vermilion", "gnis:created": "09/01/1992", "gnis:feature_id": "427202", "gnis:feature_type": "Airport", "lit": "no", "name": "Danville Correctional Center Heliport", "surface": "concrete", "wikidata": "Q61667571"}}, {"type": "node", "id": 369053333, "lat": 42.220154, "lon": -88.2830097, "tags": {"addr:state": "IL", "aeroway": "helipad", "ele": "273", "gnis:county_name": "Henry", "gnis:created": "09/01/1992", "gnis:feature_id": "427193", "gnis:feature_type": "Airport", "name": "Crystal Lake Holiday Inn Heliport", "wikidata": "Q61667563"}}, {"type": "node", "id": 369053532, "lat": 41.7916968, "lon": -88.054231, "tags": {"addr:state": "IL", "aeroway": "helipad", "ele": "220", "gnis:county_name": "DuPage", "gnis:created": "09/01/1992", "gnis:feature_id": "427229", "gnis:feature_type": "Airport", "name": "Global Fire Protection Heliport"}}, {"type": "node", "id": 369053542, "lat": 41.8647543, "lon": -89.5028828, "tags": {"addr:state": "IL", "aeroway": "helipad", "ele": "228", "gnis:county_name": "Lee", "gnis:created": "09/01/1992", "gnis:feature_id": "427223", "gnis:feature_type": "Airport", "name": "Gearhart-Hollow Heliport"}}, {"type": "node", "id": 369053679, "lat": 42.4033539, "lon": -88.1875857, "tags": {"addr:state": "IL", "aeroway": "helipad", "ele": "225", "gnis:county_name": "Lake", "gnis:created": "09/01/1992", "gnis:feature_id": "427291", "gnis:feature_type": "Airport", "name": "Arrow Heliport", "wikidata": "Q61667648"}}, {"type": "node", "id": 369053757, "lat": 41.9414195, "lon": -87.8595067, "tags": {"addr:state": "IL", "aeroway": "helipad", "ele": "193", "gnis:county_name": "Cook", "gnis:created": "09/01/1992", "gnis:feature_id": "427295", "gnis:feature_type": "Airport", "name": "B and L Heliport"}}, {"type": "node", "id": 369053837, "lat": 42.0199359, "lon": -88.2812508, "tags": {"addr:state": "IL", "aeroway": "helipad", "ele": "226", "gnis:county_name": "Kane", "gnis:created": "09/01/1992", "gnis:feature_id": "427250", "gnis:feature_type": "Airport", "name": "Illinois Department of Transportation Heliport"}}, {"type": "node", "id": 369053899, "lat": 41.9241963, "lon": -87.9633988, "tags": {"addr:state": "IL", "aeroway": "helipad", "ele": "215", "gnis:county_name": "DuPage", "gnis:created": "09/01/1992", "gnis:feature_id": "427257", "gnis:feature_type": "Airport", "name": "Patten Industries Heliport", "wikidata": "Q61667629"}}, {"type": "node", "id": 369054104, "lat": 42.198294, "lon": -87.8270238, "tags": {"addr:state": "IL", "aeroway": "helipad", "ele": "196", "gnis:county_name": "Lake", "gnis:created": "09/01/1992", "gnis:feature_id": "427374", "gnis:feature_type": "Airport", "name": "Gieser Heliport"}}, {"type": "node", "id": 369054189, "lat": 42.0995619, "lon": -88.3692497, "tags": {"addr:state": "IL", "aeroway": "helipad", "ele": "271", "gnis:county_name": "Kane", "gnis:created": "09/01/1992", "gnis:feature_id": "427321", "gnis:feature_type": "Airport", "name": "Olivers Heliport"}}, {"type": "node", "id": 369054465, "lat": 41.5094783, "lon": -89.2553646, "tags": {"addr:state": "IL", "aeroway": "helipad", "ele": "244", "gnis:county_name": "Bureau", "gnis:created": "09/01/1992", "gnis:feature_id": "427434", "gnis:feature_type": "Airport", "name": "Ivan E Bauer Heliport"}}, {"type": "node", "id": 369054485, "lat": 42.1986355, "lon": -88.1189673, "tags": {"addr:state": "IL", "aeroway": "helipad", "ele": "262", "gnis:county_name": "Lake", "gnis:created": "09/01/1992", "gnis:feature_id": "427432", "gnis:feature_type": "Airport", "name": "Honey Lake Heliport"}}, {"type": "node", "id": 369054630, "lat": 41.5169753, "lon": -88.0900586, "tags": {"addr:state": "IL", "aeroway": "helipad", "ele": "165", "gnis:county_name": "Will", "gnis:created": "09/01/1992", "gnis:feature_id": "427400", "gnis:feature_type": "Airport", "name": "Pielet-Joliet Heliport"}}, {"type": "node", "id": 369054902, "lat": 41.6721766, "lon": -88.006358, "tags": {"addr:state": "IL", "aeroway": "helipad", "ele": "187", "gnis:county_name": "Cook", "gnis:created": "09/01/1992", "gnis:feature_id": "427449", "gnis:feature_type": "Airport", "name": "Lemont Fire Department Heliport"}}, {"type": "node", "id": 369054910, "lat": 41.7083643, "lon": -87.9806152, "tags": {"addr:state": "IL", "aeroway": "helipad", "ele": "220", "gnis:county_name": "DuPage", "gnis:created": "09/01/1992", "gnis:feature_id": "427448", "gnis:feature_type": "Airport", "name": "Argonne Heliport"}}, {"type": "node", "id": 369055099, "lat": 41.5166994, "lon": -87.8833851, "tags": {"addr:state": "IL", "aeroway": "helipad", "ele": "202", "gnis:county_name": "Will", "gnis:created": "09/01/1992", "gnis:feature_id": "427553", "gnis:feature_type": "Airport", "name": "Richards Heliport"}}, {"type": "node", "id": 369055115, "lat": 41.7169739, "lon": -88.3592383, "tags": {"addr:state": "IL", "aeroway": "helipad", "ele": "201", "gnis:county_name": "Kendall", "gnis:created": "09/01/1992", "gnis:feature_id": "427565", "gnis:feature_type": "Airport", "name": "Caterpillar Aurora Heliport", "wikidata": "Q74843163"}}, {"type": "node", "id": 369055845, "lat": 40.6239266, "lon": -89.373146, "tags": {"addr:state": "IL", "aeroway": "helipad", "ele": "231", "gnis:county_name": "Tazewell", "gnis:created": "09/01/1992", "gnis:feature_id": "427572", "gnis:feature_type": "Airport", "name": "Lindstrom Heliport"}}, {"type": "node", "id": 369056265, "lat": 41.631975, "lon": -88.9789743, "tags": {"addr:state": "IL", "aeroway": "helipad", "ele": "231", "gnis:county_name": "Lee", "gnis:created": "09/01/1992", "gnis:feature_id": "427653", "gnis:feature_type": "Airport", "name": "Illinois Copter Service Heliport"}}, {"type": "node", "id": 369056331, "lat": 42.167803, "lon": -88.0264636, "tags": {"addr:state": "IL", "aeroway": "helipad", "ele": "226", "gnis:county_name": "Lake", "gnis:created": "09/01/1992", "gnis:feature_id": "427642", "gnis:feature_type": "Airport", "name": "Rotor Swing Heliport"}}, {"type": "node", "id": 369056391, "lat": 42.2994205, "lon": -89.0705666, "tags": {"addr:state": "IL", "aeroway": "helipad", "ele": "226", "gnis:county_name": "Winnebago", "gnis:created": "09/01/1992", "gnis:feature_id": "427757", "gnis:feature_type": "Airport", "name": "Ingersoll Heliport", "wikidata": "Q74843413"}}, {"type": "node", "id": 369056462, "lat": 42.3022415, "lon": -89.0817733, "tags": {"addr:state": "IL", "aeroway": "helipad", "ele": "225", "gnis:county_name": "Winnebago", "gnis:created": "09/01/1992", "gnis:feature_id": "427753", "gnis:feature_type": "Airport", "name": "Atwood Heliport"}}, {"type": "node", "id": 369056467, "lat": 42.2708533, "lon": -89.0956619, "tags": {"addr:state": "IL", "aeroway": "helipad", "ele": "219", "gnis:county_name": "Winnebago", "gnis:created": "09/01/1992", "gnis:feature_id": "427754", "gnis:feature_type": "Airport", "name": "Stewart Heliport"}}, {"type": "node", "id": 369056519, "lat": 41.6486456, "lon": -87.6239354, "tags": {"addr:state": "IL", "aeroway": "helipad", "ele": "183", "gnis:county_name": "Cook", "gnis:created": "09/01/1992", "gnis:feature_id": "427732", "gnis:feature_type": "Airport", "name": "Waste Management Chemical Lab Heliport"}}, {"type": "node", "id": 369056772, "lat": 41.1055927, "lon": -89.8389939, "tags": {"addr:state": "IL", "aeroway": "helipad", "ele": "227", "gnis:county_name": "Stark", "gnis:created": "09/01/1992", "gnis:feature_id": "427871", "gnis:feature_type": "Airport", "name": "Webster Heliport", "wikidata": "Q74843585"}}, {"type": "node", "id": 369056821, "lat": 41.7833653, "lon": -87.8197786, "tags": {"addr:state": "IL", "aeroway": "helipad", "ele": "181", "gnis:county_name": "Cook", "gnis:created": "09/01/1992", "gnis:feature_id": "427860", "gnis:feature_type": "Airport", "name": "Pielet Summit Heliport"}}, {"type": "node", "id": 369056949, "lat": 42.0522497, "lon": -88.0189601, "tags": {"addr:state": "IL", "aeroway": "helipad", "ele": "213", "gnis:county_name": "Cook", "gnis:created": "09/01/1992", "gnis:feature_id": "427766", "gnis:feature_type": "Airport", "name": "Gould Center Heliport"}}, {"type": "node", "id": 369056952, "lat": 42.0586385, "lon": -88.0175714, "tags": {"addr:state": "IL", "aeroway": "helipad", "ele": "214", "gnis:county_name": "Cook", "gnis:created": "09/01/1992", "gnis:feature_id": "427767", "gnis:feature_type": "Airport", "name": "Steel Supply Heliport", "wikidata": "Q74843439"}}, {"type": "node", "id": 369057132, "lat": 40.0978102, "lon": -88.4206131, "tags": {"addr:state": "IL", "aeroway": "helipad", "ele": "215", "gnis:county_name": "Champaign", "gnis:created": "09/01/1992", "gnis:feature_id": "427799", "gnis:feature_type": "Airport", "name": "Igoe Heliport", "wikidata": "Q74843466"}}, {"type": "node", "id": 369057808, "lat": 41.9125285, "lon": -88.1589602, "tags": {"addr:state": "IL", "aeroway": "helipad", "ele": "241", "gnis:county_name": "DuPage", "gnis:created": "09/01/1992", "gnis:feature_id": "427912", "gnis:feature_type": "Airport", "name": "Van Kampen Heliport"}}, {"type": "node", "id": 369057859, "lat": 41.7494349, "lon": -87.9354189, "tags": {"addr:state": "IL", "aeroway": "helipad", "ele": "215", "gnis:county_name": "DuPage", "gnis:created": "09/01/1992", "gnis:feature_id": "427917", "gnis:feature_type": "Airport", "name": "Midwest Heliport"}}, {"type": "node", "id": 475505695, "lat": 40.660181, "lon": -89.6813935, "tags": {"aeroway": "helipad"}}, {"type": "node", "id": 567251605, "lat": 40.9662074, "lon": -85.2907746, "tags": {"access": "private", "aeroway": "helipad", "ele": "255", "faa": "25II", "name": "General Motors Heliport", "operator": "General Motors Corp", "wikidata": "Q61668404"}}, {"type": "node", "id": 887040143, "lat": 48.373921, "lon": -89.3104589, "tags": {"aeroway": "helipad", "source": "CanVec 6.0 - NRCan"}}, {"type": "node", "id": 888987838, "lat": 48.3778892, "lon": -89.3318404, "tags": {"aeroway": "helipad", "source": "CanVec 6.0 - NRCan"}}, {"type": "node", "id": 1042133717, "lat": 42.6817017, "lon": -82.7490997, "tags": {"aeroway": "helipad", "name": "Bayview Heliport", "source": "ourairports.com", "wikidata": "Q61673576"}}, {"type": "node", "id": 1042133808, "lat": 41.5468166, "lon": -81.2247973, "tags": {"aeroway": "helipad", "name": "Bass Heliport", "source": "ourairports.com", "wikidata": "Q61676635"}}, {"type": "node", "id": 1042133815, "lat": 41.3148702, "lon": -81.6709049, "tags": {"aeroway": "helipad", "name": "Medical Center South Heliport", "source": "ourairports.com"}}, {"type": "node", "id": 1042133844, "lat": 40.2683699, "lon": -86.5096826, "tags": {"aeroway": "helipad", "ele": "265", "faa": "68II", "name": "Clinton County Fairgrounds Heliport", "source": "AirNav.com", "surface": "concrete", "wikidata": "Q61668559"}}, {"type": "node", "id": 1042133979, "lat": 40.1791992, "lon": -80.2173004, "tags": {"aeroway": "helipad", "name": "Beau Street Heliport", "source": "ourairports.com", "wikidata": "Q61712818"}}, {"type": "node", "id": 1042133991, "lat": 41.4473, "lon": -81.2757034, "tags": {"aeroway": "helipad", "name": "Craighead Heliport", "source": "ourairports.com", "wikidata": "Q61723859"}}, {"type": "node", "id": 1042133992, "lat": 40.1624985, "lon": -83.0541992, "tags": {"aeroway": "helipad", "name": "Connor Heliport", "source": "ourairports.com", "wikidata": "Q61723901"}}, {"type": "node", "id": 1042133997, "lat": 41.5972378, "lon": -80.170924, "tags": {"addr:city": "Meadville", "addr:housenumber": "11528", "addr:postcode": "16335", "addr:state": "PA", "addr:street": "Airport Road", "aeroway": "helipad", "name": "Port Meadville Heliport", "phone": "814-336-8809", "source": "ourairports.com", "wikidata": "Q61712438"}}, {"type": "node", "id": 1042134132, "lat": 49.0159085, "lon": -88.2777269, "tags": {"aeroway": "helipad", "source": "ourairports.com"}}, {"type": "node", "id": 1042134153, "lat": 43.4528527, "lon": -80.5036847, "tags": {"aeroway": "helipad", "name": "Kitchener-Waterloo (Grand River Hospital) Heliport", "source": "ourairports.com"}}, {"type": "node", "id": 1042134155, "lat": 46.5045112, "lon": -84.3246242, "tags": {"aeroway": "helipad", "name": "Sault Ste. Marie Heliport", "source": "ourairports.com"}}, {"type": "node", "id": 1042134158, "lat": 45.9786763, "lon": -81.9265819, "tags": {"aeroway": "helipad", "source": "ourairports.com"}}, {"type": "node", "id": 1042134194, "lat": 41.810168, "lon": -88.1682442, "tags": {"aeroway": "helipad", "name": "Cornerstone Heliport", "source": "ourairports.com", "wikidata": "Q74843623"}}, {"type": "node", "id": 1042134204, "lat": 42.4037273, "lon": -82.1933457, "tags": {"aeroway": "helipad"}}, {"type": "node", "id": 1042134217, "lat": 42.959075, "lon": -81.2255694, "tags": {"aeroway": "helipad", "name": "London (Victoria Hospital) Heliport", "source": "ourairports.com"}}, {"type": "node", "id": 1042134248, "lat": 42.9868704, "lon": -82.4291344, "tags": {"aeroway": "helipad", "name": "Port Huron Hospital Heliport", "source": "ourairports.com"}}, {"type": "node", "id": 1042134831, "lat": 40.4808998, "lon": -86.1580963, "tags": {"aeroway": "helipad", "name": "Howard County Jail Heliport", "source": "ourairports.com"}}, {"type": "node", "id": 1042135199, "lat": 41.1783, "lon": -81.526806, "tags": {"aeroway": "helipad", "name": "Creekside Ridge Heliport", "source": "ourairports.com", "wikidata": "Q61676704"}}, {"type": "node", "id": 1042135205, "lat": 41.390536, "lon": -81.288803, "tags": {"aeroway": "helipad", "name": "Fuller Heliport", "source": "ourairports.com", "wikidata": "Q61676634"}}, {"type": "node", "id": 1042135279, "lat": 40.2469551, "lon": -80.191031, "tags": {"aeroway": "helipad", "name": "Allegheny Hospitals Canonsburg Heliport", "source": "ourairports.com", "wikidata": "Q61712135"}}, {"type": "node", "id": 1042140256, "lat": 41.8728164, "lon": -89.4839213, "tags": {"aeroway": "helipad", "faa": "78IL", "lit": "yes", "name": "Dixon Correctional Center Heliport", "source": "ourairports.com", "surface": "concrete", "wikidata": "Q61667591"}}, {"type": "node", "id": 1042140262, "lat": 40.7514, "lon": -86.981102, "tags": {"aeroway": "helipad", "name": "Harrier Heliport", "source": "ourairports.com", "wikidata": "Q61668936"}}, {"type": "node", "id": 1042142393, "lat": 42.5209007, "lon": -88.5767975, "tags": {"aeroway": "helipad", "name": "Big Foot Farms Heliport", "source": "ourairports.com", "wikidata": "Q61726670"}}, {"type": "node", "id": 1042142525, "lat": 41.7016983, "lon": -86.2494965, "tags": {"aeroway": "helipad", "name": "Wndu Heliport", "source": "ourairports.com"}}, {"type": "node", "id": 1042142534, "lat": 41.7158012, "lon": -89.334198, "tags": {"aeroway": "helipad", "name": "Amboy Fire Protection District Heliport", "source": "ourairports.com"}}, {"type": "node", "id": 1042142544, "lat": 42.2985992, "lon": -89.2425003, "tags": {"aeroway": "helipad", "name": "Sills-Anderson Heliport", "source": "ourairports.com", "wikidata": "Q74843660"}}, {"type": "node", "id": 1042142545, "lat": 41.9125995, "lon": -87.9378255, "tags": {"aeroway": "helipad", "source": "ourairports.com"}}, {"type": "node", "id": 1042142603, "lat": 41.1458015, "lon": -81.5186005, "tags": {"aeroway": "helipad", "name": "Karam Heliport", "source": "ourairports.com", "wikidata": "Q61676705"}}, {"type": "node", "id": 1042143243, "lat": 41.3699989, "lon": -80.0342026, "tags": {"aeroway": "helipad", "name": "Dekalb Memorial Hospital Heliport", "source": "ourairports.com"}}, {"type": "node", "id": 1042143244, "lat": 42.4316817, "lon": -89.3273921, "tags": {"aeroway": "helipad", "name": "Durand Ambulance Service Heliport", "source": "ourairports.com", "wikidata": "Q61667604"}}, {"type": "node", "id": 1042143263, "lat": 42.3316994, "lon": -85.2966995, "tags": {"aeroway": "helipad", "name": "Custer Main Heliport", "source": "ourairports.com", "wikidata": "Q61673363"}}, {"type": "node", "id": 1042143314, "lat": 40.6088479, "lon": -80.0322856, "tags": {"aeroway": "helipad", "name": "Zokaites Heliport", "source": "ourairports.com", "wikidata": "Q61712840"}}, {"type": "node", "id": 1042145063, "lat": 45.7381811, "lon": -82.1655355, "tags": {"aeroway": "helipad", "source": "ourairports.com"}}, {"type": "node", "id": 1042145081, "lat": 44.1406638, "lon": -81.0291255, "tags": {"aeroway": "helipad", "source": "ourairports.com"}}, {"type": "node", "id": 1042145240, "lat": 42.8472951, "lon": -80.3202886, "tags": {"aeroway": "helipad", "name": "Simcoe (Norfolk General Hospital) Heliport", "source": "ourairports.com"}}, {"type": "node", "id": 1042145366, "lat": 48.423321, "lon": -89.2697793, "tags": {"aeroway": "helipad", "name": "Thunder Bay (Health Science Centre) Heliport"}}, {"type": "node", "id": 1042147193, "lat": 40.4880981, "lon": -86.8518982, "tags": {"aeroway": "helipad", "name": "Wolfelt Heliport", "source": "ourairports.com", "wikidata": "Q61668689"}}, {"type": "node", "id": 1042147194, "lat": 40.5064011, "lon": -86.8628006, "tags": {"aeroway": "helipad", "faa": "II00", "name": "Dammon Heliport", "surface": "grass", "wikidata": "Q61668440"}}, {"type": "node", "id": 1042147203, "lat": 40.1721201, "lon": -88.8298658, "tags": {"aeroway": "helipad", "name": "Clinton Power Station Heliport", "source": "ourairports.com", "wikidata": "Q61667546"}}, {"type": "node", "id": 1042147213, "lat": 41.3883018, "lon": -87.2138977, "tags": {"aeroway": "helipad", "name": "Carlson Farms Heliport", "source": "ourairports.com"}}, {"type": "node", "id": 1042147224, "lat": 41.4632864, "lon": -87.3239697, "tags": {"aeroway": "helipad", "name": "Nipsco Southlake Complex Heliport", "source": "ourairports.com", "wikidata": "Q61668759"}}, {"type": "node", "id": 1042147235, "lat": 40.7514, "lon": -85.9175034, "tags": {"aeroway": "helipad", "name": "Heck Heliport", "source": "ourairports.com"}}, {"type": "node", "id": 1042147241, "lat": 41.7416992, "lon": -86.5836029, "tags": {"aeroway": "helipad", "name": "Layden Heliport", "source": "ourairports.com", "wikidata": "Q61668852"}}, {"type": "node", "id": 1042147245, "lat": 40.1003667, "lon": -87.5748155, "tags": {"aeroway": "helipad", "name": "Welch Heliport", "source": "ourairports.com", "wikidata": "Q61667575"}}, {"type": "node", "id": 1042147255, "lat": 40.4799995, "lon": -89.021698, "tags": {"aeroway": "helipad", "name": "Stark Heliport", "source": "ourairports.com", "wikidata": "Q61667481"}}, {"type": "node", "id": 1042147266, "lat": 41.6786003, "lon": -87.7624969, "tags": {"aeroway": "helipad", "name": "Landis Plastics Heliport", "source": "ourairports.com"}}, {"type": "node", "id": 1042147296, "lat": 42.3582993, "lon": -87.8874969, "tags": {"aeroway": "helipad", "name": "Nordic Heliport", "source": "ourairports.com", "wikidata": "Q61667690"}}, {"type": "node", "id": 1042147299, "lat": 41.3851013, "lon": -87.7202988, "tags": {"aeroway": "helipad", "name": "Kaiser Heliport", "source": "ourairports.com", "wikidata": "Q74843156"}}, {"type": "node", "id": 1042147305, "lat": 41.4797579, "lon": -88.058395, "tags": {"aeroway": "helipad", "name": "Chicagoland Speedway Heliport", "source": "ourairports.com", "wikidata": "Q61667748"}}, {"type": "node", "id": 1042147455, "lat": 41.7334784, "lon": -84.8587826, "tags": {"aeroway": "helipad", "name": "Clear Lake Heliport", "source": "ourairports.com", "wikidata": "Q61668488"}}, {"type": "node", "id": 1042147463, "lat": 41.6404636, "lon": -86.0295133, "tags": {"access": "private", "aeroway": "helipad", "faa": "IN75", "name": "Norwood Heliport", "operator": "Wendell & Peggy Norwood", "source": "ourairports.com", "wikidata": "Q61668534"}}, {"type": "node", "id": 1042147493, "lat": 41.612372, "lon": -87.6704758, "tags": {"aeroway": "helipad", "faa": "IS17", "lit": "yes", "name": "Harvey Police Department Heliport", "source": "ourairports.com", "surface": "asphalt", "wikidata": "Q61667706"}}, {"type": "node", "id": 1042147503, "lat": 41.1632996, "lon": -88.8349991, "tags": {"aeroway": "helipad", "name": "St Mary's Hospital - Streator Heliport", "source": "ourairports.com"}}, {"type": "node", "id": 1042147513, "lat": 42.3039666, "lon": -89.3605813, "tags": {"aeroway": "helipad", "name": "Pecatonica Fire Protection District Heliport", "source": "ourairports.com", "wikidata": "Q74843322"}}, {"type": "node", "id": 1042147963, "lat": 41.5003014, "lon": -87.3414001, "tags": {"aeroway": "helipad", "name": "Brown and Lambrecht Heliport", "source": "ourairports.com"}}, {"type": "node", "id": 1042149604, "lat": 42.2526016, "lon": -84.0074005, "tags": {"aeroway": "helipad", "name": "White O'Morn Heliport", "source": "ourairports.com", "wikidata": "Q61673396"}}, {"type": "node", "id": 1042149611, "lat": 42.6110393, "lon": -83.8146226, "tags": {"aeroway": "helipad", "faa": "MI36", "name": "Johnston Field", "wikidata": "Q61673496"}}, {"type": "node", "id": 1042149614, "lat": 41.7935982, "lon": -83.5381012, "tags": {"aeroway": "helipad", "faa": "MI54", "name": "Helifarm Heliport"}}, {"type": "node", "id": 1042149622, "lat": 42.7929783, "lon": -83.0259259, "tags": {"aeroway": "helipad", "faa": "MI57", "name": "Eagle Heliport", "wikidata": "Q61673630"}}, {"type": "node", "id": 1042149624, "lat": 42.6010017, "lon": -83.3942032, "tags": {"aeroway": "helipad", "name": "Cass Heliport", "source": "ourairports.com", "wikidata": "Q61673693"}}, {"type": "node", "id": 1042149630, "lat": 42.0587098, "lon": -84.2400306, "tags": {"aeroway": "helipad", "name": "Michigan International Speedway Heliport", "source": "ourairports.com", "wikidata": "Q61673377"}}, {"type": "node", "id": 1042149634, "lat": 42.5134395, "lon": -83.3577706, "tags": {"aeroway": "helipad", "name": "Express Heliport", "source": "ourairports.com", "wikidata": "Q61673446"}}, {"type": "node", "id": 1042150862, "lat": 41.2841988, "lon": -82.9702988, "tags": {"aeroway": "helipad", "name": "Tesar Heliport", "source": "ourairports.com", "wikidata": "Q61676666"}}, {"type": "node", "id": 1042150881, "lat": 41.2905998, "lon": -81.6838989, "tags": {"aeroway": "helipad", "name": "T & A Land Development Heliport", "source": "ourairports.com", "wikidata": "Q61676598"}}, {"type": "node", "id": 1042153375, "lat": 44.2691994, "lon": -88.2697983, "tags": {"aeroway": "helipad", "name": "Kaukauna Community Hospital Heliport", "source": "ourairports.com", "wikidata": "Q61726450"}}, {"type": "node", "id": 1042153400, "lat": 42.6488991, "lon": -88.1867981, "tags": {"aeroway": "helipad", "name": "Leach Farms Heliport", "source": "ourairports.com", "wikidata": "Q61726300"}}, {"type": "node", "id": 1325245932, "lat": 42.0788065, "lon": -89.2829523, "tags": {"aeroway": "helipad"}}, {"type": "node", "id": 1325958242, "lat": 42.6127383, "lon": -89.043637, "tags": {"aeroway": "helipad"}}, {"type": "node", "id": 1337244182, "lat": 41.8884654, "lon": -88.2444996, "tags": {"aeroway": "helipad"}}, {"type": "node", "id": 1379551534, "lat": 41.479364, "lon": -88.0591033, "tags": {"aeroway": "helipad"}}, {"type": "node", "id": 1379551541, "lat": 41.479571, "lon": -88.0592293, "tags": {"aeroway": "helipad"}}, {"type": "node", "id": 1379551551, "lat": 41.4797699, "lon": -88.0593661, "tags": {"aeroway": "helipad"}}, {"type": "node", "id": 1386008097, "lat": 44.7452273, "lon": -85.5812984, "tags": {"aeroway": "helipad"}}, {"type": "node", "id": 1607161325, "lat": 44.095382, "lon": -87.6755008, "tags": {"access": "private", "addr:state": "WI", "aeroway": "helipad", "ele": "195", "faa": "WI96", "gnis:county_name": "Manitowoc", "gnis:created": "09/01/1992", "gnis:feature_id": "1582060", "gnis:feature_type": "Airport", "name": "Holy Family Memorial Medical Center Heliport", "wikidata": "Q61726477"}}, {"type": "node", "id": 1799962562, "lat": 41.8496498, "lon": -87.9270133, "tags": {"aeroway": "helipad"}}, {"type": "node", "id": 1812083101, "lat": 41.6180737, "lon": -87.4207468, "tags": {"aeroway": "helipad"}}, {"type": "node", "id": 1831722789, "lat": 40.0844431, "lon": -83.0714996, "tags": {"aeroway": "helipad"}}, {"type": "node", "id": 1935786667, "lat": 42.3077598, "lon": -84.0143615, "tags": {"aeroway": "helipad"}}, {"type": "node", "id": 1975950983, "lat": 41.0237588, "lon": -81.9386633, "tags": {"aeroway": "helipad"}}, {"type": "node", "id": 1982390985, "lat": 42.2408173, "lon": -84.7648935, "tags": {"aeroway": "helipad"}}, {"type": "node", "id": 2001602433, "lat": 42.9914508, "lon": -82.3051797, "tags": {"aeroway": "helipad", "source": "Bing"}}, {"type": "node", "id": 2072434776, "lat": 49.709811, "lon": -83.693274, "tags": {"aeroway": "helipad"}}, {"type": "node", "id": 2072434781, "lat": 49.7096375, "lon": -83.6934511, "tags": {"aeroway": "helipad"}}, {"type": "node", "id": 2083716164, "lat": 42.1159724, "lon": -83.2147139, "tags": {"aeroway": "helipad"}}, {"type": "node", "id": 2184954325, "lat": 40.5235789, "lon": -80.6293053, "tags": {"aeroway": "helipad", "surface": "asphalt"}}, {"type": "node", "id": 2329533808, "lat": 42.8164724, "lon": -89.6367183, "tags": {"aeroway": "helipad"}}, {"type": "node", "id": 2417261037, "lat": 40.6768671, "lon": -81.1970313, "tags": {"aeroway": "helipad", "name": "Helipad"}}, {"type": "node", "id": 2493203566, "lat": 42.0348297, "lon": -83.4749932, "tags": {"aeroway": "helipad"}}, {"type": "node", "id": 2500153381, "lat": 46.4118382, "lon": -81.0252293, "tags": {"aeroway": "helipad", "source": "NRCan-CanVec-10.0"}}, {"type": "node", "id": 2502325457, "lat": 46.423265, "lon": -80.9513743, "tags": {"aeroway": "helipad", "source": "NRCan-CanVec-10.0"}}, {"type": "node", "id": 2536884478, "lat": 46.6249397, "lon": -80.769865, "tags": {"aeroway": "helipad", "source": "NRCan-CanVec-10.0"}}, {"type": "node", "id": 2648996419, "lat": 46.3849981, "lon": -82.6623529, "tags": {"aeroway": "helipad", "source": "NRCan-CanVec-10.0"}}, {"type": "node", "id": 2709441734, "lat": 46.5340755, "lon": -84.2331648, "tags": {"aeroway": "helipad", "source": "NRCan-CanVec-10.0"}}, {"type": "node", "id": 2931741989, "lat": 47.4426727, "lon": -82.3298358, "tags": {"aeroway": "helipad", "source": "NRCan-CanVec-10.0"}}, {"type": "node", "id": 2941283692, "lat": 40.5267076, "lon": -80.1833656, "tags": {"aeroway": "helipad", "designation": "Helipad", "name": "Valley Ambulance Landing Zone", "source": "BING"}}, {"type": "node", "id": 2952793891, "lat": 47.2962004, "lon": -82.0999379, "tags": {"aeroway": "helipad", "source": "NRCan-CanVec-10.0"}}, {"type": "node", "id": 2977390671, "lat": 41.3148666, "lon": -82.6111235, "tags": {"aeroway": "helipad"}}, {"type": "node", "id": 3032770257, "lat": 48.5274076, "lon": -81.3724402, "tags": {"aeroway": "helipad", "source": "NRCan-CanVec-10.0"}}, {"type": "node", "id": 3326432307, "lat": 41.4255297, "lon": -81.3688236, "tags": {"aeroway": "helipad", "name": "Cleveland Clinic Chagrin Falls Helipad"}}, {"type": "node", "id": 3340082028, "lat": 43.0148298, "lon": -83.7320667, "tags": {"aeroway": "helipad"}}, {"type": "node", "id": 3372763660, "lat": 40.9946646, "lon": -80.6588202, "tags": {"aeroway": "helipad"}}, {"type": "node", "id": 3384070486, "lat": 40.5259695, "lon": -80.6280771, "tags": {"aeroway": "helipad"}}, {"type": "node", "id": 3409216933, "lat": 43.6046896, "lon": -83.182426, "tags": {"aeroway": "helipad"}}, {"type": "node", "id": 3496391758, "lat": 40.054277, "lon": -80.7229338, "tags": {"aeroway": "helipad", "faa": "2WV6", "lit": "yes", "name": "West Virginia State Police Heliport", "surface": "concrete", "wikidata": "Q61726818"}}, {"type": "node", "id": 3760213029, "lat": 43.3965517, "lon": -87.8764522, "tags": {"access": "private", "aeroway": "helipad"}}, {"type": "node", "id": 3932984611, "lat": 43.7484534, "lon": -85.8580614, "tags": {"aeroway": "helipad"}}, {"type": "node", "id": 4000066510, "lat": 44.5067752, "lon": -89.1348689, "tags": {"aeroway": "helipad"}}, {"type": "node", "id": 4144550380, "lat": 43.9782395, "lon": -88.9403058, "tags": {"aeroway": "helipad"}}, {"type": "node", "id": 4191861487, "lat": 44.6747254, "lon": -80.9202743, "tags": {"aeroway": "helipad", "highway": "turning_circle"}}, {"type": "node", "id": 4405182348, "lat": 41.4634059, "lon": -82.0243417, "tags": {"aeroway": "helipad"}}, {"type": "node", "id": 4431577865, "lat": 41.6183839, "lon": -87.4211642, "tags": {"aeroway": "helipad"}}, {"type": "node", "id": 4431577866, "lat": 41.6177648, "lon": -87.4203219, "tags": {"aeroway": "helipad"}}, {"type": "node", "id": 4455999762, "lat": 41.627413, "lon": -87.1391351, "tags": {"aeroway": "helipad"}}, {"type": "node", "id": 4472036689, "lat": 44.2758619, "lon": -83.5116116, "tags": {"aeroway": "helipad"}}, {"type": "node", "id": 4493459708, "lat": 42.593315, "lon": -83.4999537, "tags": {"aeroway": "helipad"}}, {"type": "node", "id": 4636661968, "lat": 41.8051026, "lon": -88.052483, "tags": {"aeroway": "helipad"}}, {"type": "node", "id": 4757884005, "lat": 40.3809062, "lon": -80.7043013, "tags": {"aeroway": "helipad", "name": "Airc Helistop 1901"}}, {"type": "node", "id": 4892671786, "lat": 43.2818986, "lon": -89.7207257, "tags": {"aeroway": "helipad"}}, {"type": "node", "id": 5035477221, "lat": 40.0107101, "lon": -85.9218755, "tags": {"aeroway": "helipad"}}, {"type": "node", "id": 5035477222, "lat": 40.0106711, "lon": -85.9218246, "tags": {"aeroway": "helipad"}}, {"type": "node", "id": 5035477223, "lat": 40.010632, "lon": -85.921775, "tags": {"aeroway": "helipad"}}, {"type": "node", "id": 5427967830, "lat": 43.9860884, "lon": -88.5735855, "tags": {"aeroway": "helipad"}}, {"type": "node", "id": 5630675141, "lat": 47.1395675, "lon": -88.5882139, "tags": {"aeroway": "helipad", "surface": "asphalt"}}, {"type": "node", "id": 5837305597, "lat": 40.2809166, "lon": -83.1127217, "tags": {"aeroway": "helipad"}}, {"type": "node", "id": 5837305598, "lat": 40.2807832, "lon": -83.1115747, "tags": {"aeroway": "helipad"}}, {"type": "node", "id": 6961284818, "lat": 41.9481097, "lon": -89.3591761, "tags": {"aeroway": "helipad", "description": "For Camp Lowden medical emergencies.", "source": "2019 Camp Lowden emergency information."}}, {"type": "node", "id": 7045128576, "lat": 40.4958933, "lon": -80.2213368, "tags": {"aeroway": "helipad"}}, {"type": "node", "id": 7136765578, "lat": 41.6793819, "lon": -85.993903, "tags": {"aeroway": "helipad"}}, {"type": "node", "id": 7393324331, "lat": 42.6887415, "lon": -89.0332506, "tags": {"aeroway": "helipad"}}, {"type": "node", "id": 7785747870, "lat": 41.8187477, "lon": -88.0076772, "tags": {"aeroway": "helipad", "name": "Good Samaritan Hospital Helipad"}}, {"type": "node", "id": 7814861371, "lat": 43.0016945, "lon": -87.8871806, "tags": {"aeroway": "helipad", "name": "U.S. Coast Guard - Sector Lake Michigan"}}, {"type": "node", "id": 7826112632, "lat": 44.7452745, "lon": -85.5802528, "tags": {"aeroway": "helipad"}}, {"type": "node", "id": 7826112633, "lat": 44.7452708, "lon": -85.5798293, "tags": {"aeroway": "helipad"}}, {"type": "node", "id": 7826112634, "lat": 44.7452727, "lon": -85.5794312, "tags": {"aeroway": "helipad"}}, {"type": "node", "id": 7833792072, "lat": 42.424555, "lon": -84.5784361, "tags": {"aeroway": "helipad", "lit": "no", "name": "Gorilla Heliport", "ref": "11J", "surface": "grass"}}, {"type": "node", "id": 7846632247, "lat": 45.8555721, "lon": -84.7031023, "tags": {"aeroway": "helipad", "name": "U.S. Coast Guard - Station St. Ignace"}}, {"type": "node", "id": 7861743118, "lat": 42.6260932, "lon": -82.8447162, "tags": {"aeroway": "helipad", "name": "USCG"}}, {"type": "node", "id": 7861743119, "lat": 42.6258627, "lon": -82.8447248, "tags": {"aeroway": "helipad", "name": "USCG"}}, {"type": "node", "id": 7861743120, "lat": 42.6261453, "lon": -82.8438343, "tags": {"aeroway": "helipad", "name": "USCG"}}, {"type": "node", "id": 7861743121, "lat": 42.625929, "lon": -82.8438386, "tags": {"aeroway": "helipad", "name": "USCG"}}, {"type": "node", "id": 7861743122, "lat": 42.6257048, "lon": -82.8438386, "tags": {"aeroway": "helipad", "name": "USCG"}}, {"type": "node", "id": 7861743123, "lat": 42.6258579, "lon": -82.8443492, "tags": {"aeroway": "helipad", "name": "USCG"}}, {"type": "node", "id": 8194779797, "lat": 41.3189588, "lon": -81.6475984, "tags": {"aeroway": "helipad"}}, {"type": "node", "id": 8251072643, "lat": 42.7125272, "lon": -82.5887232, "tags": {"addr:city": "Marine City", "addr:housenumber": "6455", "addr:postcode": "48039", "addr:state": "MI", "addr:street": "Starville Road", "aeroway": "helipad", "faa": "20MI", "lit": "no", "name": "Hawks Landing Heliport", "surface": "grass", "wikidata": "Q61673542"}}, {"type": "node", "id": 8251072644, "lat": 42.6901804, "lon": -82.5617548, "tags": {"addr:city": "Marine City", "addr:housenumber": "6360", "addr:postcode": "48039", "addr:state": "MI", "addr:street": "Broadbridge Road", "aeroway": "helipad", "faa": "59MI", "lit": "no", "name": "Janski Heliport", "surface": "concrete", "wikidata": "Q61673543"}}, {"type": "node", "id": 8256402923, "lat": 41.8586804, "lon": -87.6278462, "tags": {"aeroway": "helipad", "faa": "IL69", "lit": "yes", "name": "First Area Police Headquarters Heliport", "operator": "Chicago Police", "surface": "concrete", "wikidata": "Q61667533"}}, {"type": "node", "id": 8904873744, "lat": 41.4959395, "lon": -81.6747812, "tags": {"aeroway": "helipad"}}, {"type": "node", "id": 9195998078, "lat": 48.7187519, "lon": -86.3746081, "tags": {"access": "private", "aeroway": "helipad", "lit": "yes", "surface": "asphalt"}}, {"type": "node", "id": 9364465426, "lat": 41.1339639, "lon": -81.3505076, "tags": {"aeroway": "helipad"}}, {"type": "node", "id": 9366319248, "lat": 41.184915, "lon": -85.0978661, "tags": {"aeroway": "helipad", "surface": "asphalt"}}, {"type": "node", "id": 9749174368, "lat": 41.0398471, "lon": -81.4672815, "tags": {"aeroway": "helipad", "name": "Akron Children's Hospital - Air Bear Helibase", "operator": "Akron Children's Hospital"}}, {"type": "node", "id": 10155377926, "lat": 41.6316994, "lon": -87.0871303, "tags": {"aeroway": "helipad"}}, {"type": "node", "id": 10166284744, "lat": 45.3438791, "lon": -80.0441397, "tags": {"aeroway": "helipad"}}, {"type": "node", "id": 10186873054, "lat": 40.269044, "lon": -86.5115595, "tags": {"aeroway": "helipad"}}, {"type": "node", "id": 10542888342, "lat": 42.9752924, "lon": -82.3885478, "tags": {"aeroway": "helipad", "lit": "yes", "name": "Blue Water Health Sarnia Helipad", "operator": "Ministry of Health", "surface": "asphalt"}}, {"type": "node", "id": 11134808239, "lat": 41.1097598, "lon": -85.2221341, "tags": {"aeroway": "helipad"}}, {"type": "node", "id": 11242669955, "lat": 42.2181805, "lon": -88.285471, "tags": {"aeroway": "helipad"}}, {"type": "node", "id": 11263417342, "lat": 41.6339361, "lon": -84.9938945, "tags": {"aeroway": "helipad"}}, {"type": "node", "id": 11276482430, "lat": 41.7909256, "lon": -87.6057809, "tags": {"aeroway": "helipad", "name": "The University of Chicago Medicine Helipad"}}, {"type": "way", "id": 28257632, "center": {"lat": 41.97752, "lon": -87.8844611}, "nodes": [310334876, 310334877, 310334878, 5711634707, 5711634705, 310334880, 310334876], "tags": {"aeroway": "helipad"}}, {"type": "way", "id": 63907075, "center": {"lat": 40.7534761, "lon": -89.5987862}, "nodes": [789138673, 789122296, 789141283, 369056124, 789121018, 789138673], "tags": {"aeroway": "helipad", "faa": "2IS1", "gnis:feature_id": "427669", "name": "UnityPoint Health - Proctor Heliport", "old_name": "Proctor Community Hospital Heliport", "surface": "concrete", "wikidata": "Q74843335"}}, {"type": "way", "id": 79636352, "center": {"lat": 45.8477595, "lon": -84.7246849}, "nodes": [929267457, 929267321, 929267295, 929267447, 929267457], "tags": {"aeroway": "helipad", "source": "yahoo_wms"}}, {"type": "way", "id": 83912102, "center": {"lat": 42.5884551, "lon": -82.8996639}, "nodes": [976663821, 976663822, 976663823, 976663824, 976663821], "tags": {"aeroway": "helipad"}}, {"type": "way", "id": 93676056, "center": {"lat": 41.9774038, "lon": -87.8844557}, "nodes": [1087230515, 310335047, 9463243374, 9463243377, 5711634712, 310335046, 1087230626, 4164173095, 1087230813, 1087230895, 1087230515], "tags": {"aeroway": "heliport", "barrier": "fence"}}, {"type": "way", "id": 94245461, "center": {"lat": 42.2639807, "lon": -83.6536908}, "nodes": [1095245623, 1095245597, 1095245556, 1095245499, 1095245612, 1095245564, 1095245623], "tags": {"aeroway": "helipad", "name": "Heliport"}}, {"type": "way", "id": 121194131, "center": {"lat": 42.0530107, "lon": -88.1401354}, "nodes": [5320634134, 5320634133, 5320634132, 5320634131, 5320634134], "tags": {"aeroway": "helipad", "faa": "IL03", "name": "Saint Alexius Medical Center Helipad", "ref": "H1", "rooftop": "yes"}}, {"type": "way", "id": 124329465, "center": {"lat": 40.4950705, "lon": -80.0107785}, "nodes": [1384159320, 1384159303, 1384159298, 1384159302, 1384159320], "tags": {"aeroway": "helipad", "name": "Wpxi-Tv Evergreen Road Heliport", "ref": "PA63", "source": "ourairports.com", "wikidata": "Q61712654"}}, {"type": "way", "id": 133215381, "center": {"lat": 42.9590683, "lon": -81.2255665}, "nodes": [1465963007, 1465964417, 1465963223, 1465963886, 1465964077, 1465963421, 1465963639, 1465964377, 1465963167, 1465963988, 1465964179, 1465963531, 1465963795, 1465963007], "tags": {"aeroway": "helipad"}}, {"type": "way", "id": 145467901, "center": {"lat": 41.1744695, "lon": -85.1079017}, "nodes": [1042143254, 1588754896, 1588754894, 1588754892, 1042143254], "tags": {"access": "private", "aeroway": "helipad", "ele": "252", "name": "Dupont Hospital Heliport", "operator": "Dupont Hospital", "ref": "9IN5", "source": "AirNav.com", "wikidata": "Q61668548"}}, {"type": "way", "id": 157587854, "center": {"lat": 45.385549, "lon": -86.9231509}, "nodes": [1698295661, 1698295662, 1698295642, 1698295639, 1698295661], "tags": {"aeroway": "helipad", "source": "Bing"}}, {"type": "way", "id": 163886347, "center": {"lat": 44.0264326, "lon": -88.5949247}, "nodes": [1755577247, 1755577243, 1755577221, 1755577212, 1755577219, 1755577240, 1755577222, 1755577211, 1755577246, 1755577216, 1755577251, 1755577217, 1755577249, 1755577236, 1755577238, 1755577250, 1755577224, 1755577248, 1755577214, 1755577245, 1755577235, 1755577241, 9349357569, 1755577247], "tags": {"aeroway": "helipad", "name": "Aurora Medical Center Heliport", "surface": "paved"}}, {"type": "way", "id": 164017671, "center": {"lat": 44.0139775, "lon": -88.5996703}, "nodes": [1756791627, 1756791180, 1756791490, 1756791259, 5325973823, 1756791627], "tags": {"aeroway": "helipad", "surface": "concrete"}}, {"type": "way", "id": 167146780, "center": {"lat": 43.0670275, "lon": -88.4672038}, "nodes": [1785506130, 3394769671, 3394769678, 3394769691, 3394769698, 3394769699, 3394769697, 3394769690, 1785506133, 3394769669, 3394769664, 3394769656, 3394769649, 3394769648, 3394769650, 3394769657, 1785506130], "tags": {"aeroway": "helipad", "faa": "WI39", "name": "Aurora Summit Medical Center Heliport", "surface": "concrete", "wikidata": "Q61726543"}}, {"type": "way", "id": 167146784, "center": {"lat": 43.099812, "lon": -88.4877738}, "nodes": [1785506201, 1785506199, 1785506200, 1785506202, 1785506201], "tags": {"aeroway": "helipad"}}, {"type": "way", "id": 171738765, "center": {"lat": 40.8125373, "lon": -82.5124556}, "nodes": [1827250990, 1827250993, 1827250996, 1827250999, 1827250990], "tags": {"aeroway": "helipad", "source": "Bing"}}, {"type": "way", "id": 175131807, "center": {"lat": 46.187189, "lon": -82.9223256}, "nodes": [1857775452, 1857775583, 1857775607, 1857775769, 1857775491, 1857775570, 1857775572, 1857775577, 1857775414, 1857775535, 1857775412, 1857775515, 1857775464, 1857775567, 1857775725, 1857775761, 1857775378, 1857775772, 1857775452], "tags": {"aeroway": "helipad"}}, {"type": "way", "id": 175679927, "center": {"lat": 44.4992652, "lon": -80.2039266}, "nodes": [1862490151, 1862490132, 1862490131, 1862490121, 1862490140, 1862490162, 1862490178, 1862490130, 1862490125, 1862490144, 1862490160, 1862490175, 1862490161, 1862490172, 1862490166, 1862490163, 1862490165, 1862490142, 1862490151], "tags": {"aeroway": "helipad", "name": "Collingwood (General and Marine Hospital) Heliport", "source": "ourairports.com"}}, {"type": "way", "id": 176039832, "center": {"lat": 44.7472509, "lon": -81.1101052}, "nodes": [1866026403, 1866026427, 1866026392, 1866026423, 1866026452, 1866026445, 1866026407, 1866026405, 1866026448, 1866026413, 1866026391, 1866026387, 1866026447, 1866026401, 1866026414, 1866026393, 1866026410, 1866026403], "tags": {"aeroway": "helipad"}}, {"type": "way", "id": 179540670, "center": {"lat": 43.9199482, "lon": -80.0753998}, "nodes": [1899089324, 1899089250, 1899089626, 1899089507, 1899089324], "tags": {"aeroway": "helipad", "surface": "asphalt"}}, {"type": "way", "id": 182657757, "center": {"lat": 41.3766083, "lon": -83.6667173}, "nodes": [1930177874, 1930177873, 1930177838, 1930177837, 1930177874], "tags": {"access": "emergency", "aeroway": "helipad", "operator": "Wood County Hospital"}}, {"type": "way", "id": 186109128, "center": {"lat": 41.8610557, "lon": -87.8364988}, "nodes": [1968127627, 1968127662, 1968127624, 1968127673, 1968127570, 1968127627], "tags": {"aeroway": "helipad", "faa": "0IL1", "gnis:feature_id": "427086", "name": "Loyola University Medical Center Heliport", "surface": "concrete", "wikidata": "Q61667490"}}, {"type": "way", "id": 188412747, "center": {"lat": 48.7688368, "lon": -80.6845124}, "nodes": [1990392323, 1990392357, 1990392362, 1990392325, 1990392351, 1990392311, 1990392339, 1990392360, 1990392378, 1990392318, 1990392343, 1990392315, 1990392353, 1990392372, 1990392345, 1990392380, 1990392365, 1990392323], "tags": {"aeroway": "helipad"}}, {"type": "way", "id": 189453403, "center": {"lat": 49.2722394, "lon": -81.61148}, "nodes": [2000684892, 2000684976, 2000684970, 2000684963, 2000684935, 2000684928, 2000684972, 2000684969, 2000684979, 2000684930, 2000684876, 2000684966, 2000684947, 2000684906, 2000684941, 2000684912, 2000684871, 2000684892], "tags": {"aeroway": "helipad"}}, {"type": "way", "id": 193249192, "center": {"lat": 42.3067604, "lon": -87.853896}, "nodes": [2037688106, 2037688107, 2037688105, 2037688104, 2037688106], "tags": {"aeroway": "helipad"}}, {"type": "way", "id": 195186919, "center": {"lat": 42.5150444, "lon": -83.1941025}, "nodes": [2056630342, 5110990933, 2056630301, 2056630354, 2056630342], "tags": {"aeroway": "helipad", "emergency": "yes", "name": "William Beaumont Hospital Heliport", "surface": "concrete", "wikidata": "Q16903457"}}, {"type": "way", "id": 197436366, "center": {"lat": 41.456862, "lon": -86.1583677}, "nodes": [2076751004, 2076751006, 2076750996, 2104811264, 2076750994, 2076751004], "tags": {"aeroway": "helipad", "faa": "8IN8", "name": "Bremen Community Hospital Heliport", "source": "ourairports.com", "surface": "concrete", "wikidata": "Q61668457"}}, {"type": "way", "id": 206881453, "center": {"lat": 48.5385495, "lon": -80.4709118}, "nodes": [2169352571, 2169352687, 2169352665, 2169352589, 2169352777, 2169352583, 2169352771, 2169352763, 2169352582, 2169352574, 2169352654, 2169352663, 2169352613, 2169352791, 2169352658, 2169352689, 2169352608, 2169352603, 2169352588, 2169352571], "tags": {"aeroway": "helipad"}}, {"type": "way", "id": 209477764, "center": {"lat": 41.3935233, "lon": -87.3654482}, "nodes": [2196914139, 2196914135, 2196914128, 2196914130, 2196914140, 2196914139], "tags": {"aeroway": "helipad", "faa": "2IN8", "surface": "asphalt"}}, {"type": "way", "id": 213502620, "center": {"lat": 46.4813863, "lon": -81.0462498}, "nodes": [2231847171, 2231847172, 2231847169, 2231847173, 2231847171], "tags": {"aeroway": "helipad"}}, {"type": "way", "id": 221377305, "center": {"lat": 44.759457, "lon": -85.6445401}, "nodes": [369023809, 2304034846, 2304034945, 2304034875, 369023809], "tags": {"aeroway": "helipad", "faa": "22MI", "gnis:feature_id": "1624183", "name": "Munson Medical Center Heliport", "wikidata": "Q61673672"}}, {"type": "way", "id": 224191945, "center": {"lat": 41.5236445, "lon": -87.7097271}, "nodes": [369056379, 2330160433, 2330160073, 2330160269, 369056379], "tags": {"aeroway": "helipad", "faa": "IS30", "gnis:feature_id": "427633", "name": "Franciscan Saint James Health - Olympia Fields Heliport", "surface": "concrete", "wikidata": "Q74843277"}}, {"type": "way", "id": 226187925, "center": {"lat": 41.8370364, "lon": -87.9430258}, "nodes": [1799710211, 2350427440, 2350427425, 2350427426, 1799710211], "tags": {"aeroway": "helipad", "name": "McDonald's Corporation Helipad"}}, {"type": "way", "id": 227936657, "center": {"lat": 43.1739901, "lon": -85.2696831}, "nodes": [2365702916, 2365703070, 2365702938, 2365702998, 2365702916], "tags": {"aeroway": "helipad"}}, {"type": "way", "id": 228425202, "center": {"lat": 46.4480363, "lon": -81.0816559}, "nodes": [2371082829, 2371082824, 2371082831, 2371082821, 2371082823, 2371082826, 2371082836, 2371082834, 2371082835, 2371082830, 2371082827, 2371082832, 2371082822, 2371082825, 2371082833, 2371082838, 2371082828, 2371082837, 2371082829], "tags": {"aeroway": "helipad"}}, {"type": "way", "id": 231343508, "center": {"lat": 41.9486699, "lon": -87.6935938}, "nodes": [369052356, 2397341584, 2397341546, 2397341676, 369052356], "tags": {"addr:state": "IL", "aeroway": "helipad", "ele": "180", "gnis:county_name": "Cook", "gnis:created": "09/01/1992", "gnis:feature_id": "427150", "gnis:feature_type": "Airport", "name": "WGN Heliport"}}, {"type": "way", "id": 231758210, "center": {"lat": 41.0177074, "lon": -83.6512695}, "nodes": [2400922482, 2400922484, 2400922486, 2400922487, 2400922489, 2400922491, 2400922493, 2400922495, 2400922482], "tags": {"access": "emergency", "aeroway": "helipad", "faa": "89OH", "name": "Blanchard Valley Regional Health Center Heliport", "rooftop": "yes", "surface": "concrete", "wikidata": "Q61676749"}}, {"type": "way", "id": 231976514, "center": {"lat": 48.486834, "lon": -81.3134855}, "nodes": [2402975337, 2402975339, 2402975341, 2402975335, 2402975343, 2402975346, 2402975348, 2402975350, 2402975352, 2402975354, 2402975357, 2402975359, 2402975337], "tags": {"aeroway": "helipad", "name": "Timmins and District Hospital"}}, {"type": "way", "id": 239267109, "center": {"lat": 41.177397, "lon": -81.2500779}, "nodes": [2470673303, 2470673304, 2470673305, 2470673306, 2470673307, 2470673303], "tags": {"access": "emergency", "aeroway": "heliport", "faa": "OI86", "gnis:feature_id": "1082980", "name": "UH Portage Medical Center Heliport", "old_name": "Robinson Memorial Hospital Heliport", "surface": "concrete"}}, {"type": "way", "id": 240288270, "center": {"lat": 46.4318124, "lon": -81.0946141}, "nodes": [2480250479, 2480250477, 2480250478, 2480250475, 2480250479], "tags": {"aeroway": "helipad"}}, {"type": "way", "id": 242659441, "center": {"lat": 46.5029874, "lon": -84.3200943}, "nodes": [2501190333, 2501190309, 2501190067, 2501189816, 2501189870, 2501189778, 2501190147, 2501189815, 2501190004, 2501189770, 2501190326, 2501189956, 2501190307, 2501190154, 2501189831, 2501189868, 2501190425, 2501190333], "tags": {"abandoned": "yes", "aeroway": "helipad"}}, {"type": "way", "id": 243804671, "center": {"lat": 49.4263541, "lon": -82.4266293}, "nodes": [2511632794, 2511632877, 2511632874, 2511632834, 2511632856, 2511632867, 2511632739, 2511632776, 2511632800, 2511632829, 2511632721, 2511632835, 2511632838, 2511632787, 2511632775, 2511632805, 2511632769, 2511632794], "tags": {"aeroway": "helipad"}}, {"type": "way", "id": 243879914, "center": {"lat": 42.4170244, "lon": -87.8648203}, "nodes": [2512430247, 2512430118, 2512430257, 2512430119, 2512430247], "tags": {"aeroway": "helipad"}}, {"type": "way", "id": 252742205, "center": {"lat": 40.6662238, "lon": -80.1443321}, "nodes": [9301588446, 9301588447, 2587757439, 2587757441, 2825641494, 2587757443, 2825641495, 2587757445, 2587757447, 2587757449, 9301588445, 2587757451, 2587757453, 2587757455, 2587757457, 2587757459, 2587757461, 2587757462, 2825641487, 9301588446], "tags": {"aeroway": "helipad", "surface": "concrete"}}, {"type": "way", "id": 255867144, "center": {"lat": 48.1525381, "lon": -80.0144241}, "nodes": [2615829638, 2615829640, 2615829643, 2615829645, 2615829638], "tags": {"aeroway": "helipad"}}, {"type": "way", "id": 257993707, "center": {"lat": 42.2678755, "lon": -89.0079093}, "nodes": [369056386, 2634305955, 2634305956, 2634305957, 369056386], "tags": {"addr:city": "Rockford", "addr:country": "US", "addr:state": "IL", "aeroway": "helipad", "gnis:feature_id": "427756", "name": "OSF St. Anthony Auxiliary Landing Pad", "surface": "concrete"}}, {"type": "way", "id": 259219094, "center": {"lat": 43.0514101, "lon": -86.2300628}, "nodes": [2645692622, 2645692624, 2645692626, 2645692628, 2645692622], "tags": {"aeroway": "helipad", "wikidata": "Q61673464"}}, {"type": "way", "id": 259257166, "center": {"lat": 41.9475863, "lon": -83.3177767}, "nodes": [2646124792, 2646124793, 2646124794, 2646124795, 2646124792], "tags": {"aeroway": "helipad"}}, {"type": "way", "id": 261422104, "center": {"lat": 42.2864409, "lon": -85.5805666}, "nodes": [2670374388, 2670374390, 2670374392, 2670374394, 2670374388], "tags": {"aeroway": "helipad", "faa": "9MI9", "gnis:feature_id": "1623990", "name": "Bronson Methodist Hospital Heliport", "surface": "concrete", "wikidata": "Q61673514"}}, {"type": "way", "id": 261554765, "center": {"lat": 42.3084437, "lon": -85.5605823}, "nodes": [2671535365, 2671535366, 2671535367, 6970549911, 6970549912, 6970629073, 2671535368, 2671535365], "tags": {"aeroway": "helipad", "name": "Borgess Medical Center Heliport", "wikidata": "Q61673513"}}, {"type": "way", "id": 262403245, "center": {"lat": 41.923894, "lon": -83.3888085}, "nodes": [2680707073, 2680707075, 2680707077, 2680707079, 2680707073], "tags": {"aeroway": "helipad"}}, {"type": "way", "id": 263349385, "center": {"lat": 41.2887081, "lon": -82.8823576}, "nodes": [2689695339, 2689695340, 2689695341, 2689695342, 2689695343, 2689695345, 2689695326, 2689695327, 2689695330, 2689695331, 2689695332, 2689695333, 2689695334, 2689695335, 2689695336, 2689695337, 2689695338, 2689695328, 2689695329, 2689695339], "tags": {"access": "emergency", "aeroway": "helipad", "faa": "4OH9", "name": "Bellevue Hospital Heliport", "surface": "concrete", "wikidata": "Q61676573"}}, {"type": "way", "id": 263405889, "center": {"lat": 42.392202, "lon": -83.4050395}, "nodes": [2690166869, 2690166870, 2690166871, 2690166872, 2690166873, 2690166874, 3086927728, 2690166875, 2690166857, 2690166858, 2690166861, 2690166862, 2690166863, 2690166864, 2690166865, 2690166866, 2690166867, 2690166868, 2690166859, 2690166860, 2690166869], "tags": {"aeroway": "helipad", "faa": "2MI2", "name": "Saint Mary Mercy Hospital Heliport"}}, {"type": "way", "id": 266915694, "center": {"lat": 42.4472411, "lon": -85.6549718}, "nodes": [2724112785, 2724112786, 2724112787, 2724112788, 2724112785], "tags": {"aeroway": "helipad", "wikidata": "Q61673614"}}, {"type": "way", "id": 270447202, "center": {"lat": 42.4862324, "lon": -83.5200792}, "nodes": [2754647452, 2754647453, 2754647454, 2754647457, 2754647452], "tags": {"aeroway": "helipad", "name": "Providence Hospital Heliport", "wikidata": "Q61711704"}}, {"type": "way", "id": 275803377, "center": {"lat": 45.3416717, "lon": -80.0164108}, "nodes": [2804731989, 2804731990, 2804731991, 2804731992, 2804731993, 2804731994, 2804731995, 2804731977, 2804731978, 2804731981, 2804731982, 2804731983, 2804731984, 2804731985, 2804731986, 2804731987, 2804731988, 2804731979, 2804731980, 2804731989], "tags": {"aeroway": "helipad", "name": "Parry Sound Medical Heliport"}}, {"type": "way", "id": 278231199, "center": {"lat": 43.6947504, "lon": -85.4739838}, "nodes": [2826417724, 2826417725, 2826417726, 2826417727, 2826417724], "tags": {"addr:state": "MI", "aeroway": "helipad", "ele": "277", "gnis:county_name": "Mecosta", "gnis:created": "09/01/1994", "gnis:feature_id": "1623806", "gnis:feature_type": "airport", "name": "Mecosta County General Hospital Heliport", "wikidata": "Q61673373"}}, {"type": "way", "id": 282394588, "center": {"lat": 43.0414008, "lon": -88.0229773}, "nodes": [2863090149, 2867466650, 2863088290, 368887912, 2863090172, 2863088261, 2863090149], "tags": {"aeroway": "helipad", "faa": "2WI3", "gnis:feature_id": "1582082", "name": "Milwaukee County Medical Complex Heliport", "rooftop": "yes", "wikidata": "Q61726686"}}, {"type": "way", "id": 285473968, "center": {"lat": 41.0642716, "lon": -85.1598465}, "nodes": [2891506120, 2891506121, 2891506122, 2891506123, 2891506120], "tags": {"aeroway": "helipad", "ele": "239", "name": "Fort Wayne-District Operations Heliport", "ref": "5II7", "wikidata": "Q61668549"}}, {"type": "way", "id": 285474759, "center": {"lat": 41.096542, "lon": -85.1106446}, "nodes": [2891510944, 2891510945, 2891510946, 2891510947, 2891510944], "tags": {"access": "private", "aeroway": "helipad", "ele": "249", "name": "Parkview Memorial Hospital Heliport", "operator": "Parkview Memorial Hospital", "ref": "1II7", "wikidata": "Q61668550"}}, {"type": "way", "id": 285482099, "center": {"lat": 41.0395855, "lon": -85.2486799}, "nodes": [2891570438, 2891570439, 2891570440, 2891570441, 2891570438], "tags": {"access": "private", "aeroway": "helipad", "faa": "64II", "name": "The Lutheran Hospital of Indiana Heliport", "operator": "Lutheran Hospital of Indiana", "reference": "H1", "surface": "asphalt"}}, {"type": "way", "id": 285482101, "center": {"lat": 41.0395813, "lon": -85.2477861}, "nodes": [2891570444, 2891570445, 2891570446, 2891570447, 2891570444], "tags": {"access": "private", "aeroway": "helipad", "faa": "64II", "name": "The Lutheran Hospital of Indiana Heliport", "operator": "Lutheran Hospital of Indiana", "ref": "H2", "surface": "asphalt"}}, {"type": "way", "id": 286065152, "center": {"lat": 41.0203715, "lon": -84.0689428}, "nodes": [2897009991, 2897009992, 2897009993, 2899148282, 2897009994, 2897009991], "tags": {"aeroway": "helipad"}}, {"type": "way", "id": 286848463, "center": {"lat": 40.3965476, "lon": -80.1580664}, "nodes": [2905269552, 2905269553, 2905269554, 2905269555, 2905269552], "tags": {"aeroway": "helipad", "area": "yes", "name": "Oakdale Army Heliport", "operator": "US Army", "ref": "16PN", "source:name": "ourairports.com", "source:ref": "ourairports.com", "surface": "asphalt", "wikidata": "Q49748846"}}, {"type": "way", "id": 286853092, "center": {"lat": 40.3784344, "lon": -80.0653664}, "nodes": [2905312284, 5333660396, 2905312285, 5333660395, 2905312286, 5333660394, 2905312287, 2905312288, 5333660393, 2905312289, 2905312298, 2905312290, 5333660392, 2905312291, 2905312292, 2905312293, 5333660391, 2905312294, 2905312295, 2905312296, 2905312297, 5333660397, 2905312284], "tags": {"aeroway": "helipad", "faa": "PN26", "maxrotordiameter": "43'", "maxweight": "none", "name": "Saint Clair Hospital Heliport", "surface": "concrete", "wikidata": "Q61712647"}}, {"type": "way", "id": 287420201, "center": {"lat": 42.0477822, "lon": -88.0526522}, "nodes": [2910206731, 2910206736, 2910206730, 2910206728, 2910206725, 2910206729, 2910206731], "tags": {"aeroway": "helipad", "lit": "yes", "ref": "H1", "surface": "concrete"}}, {"type": "way", "id": 287681186, "center": {"lat": 41.6255685, "lon": -81.4336711}, "nodes": [2912512072, 5317816103, 5317816104, 2912511966, 2912511968, 5317816101, 2912512073, 5317816102, 2912512072], "tags": {"aeroway": "helipad"}}, {"type": "way", "id": 287921169, "center": {"lat": 43.0412587, "lon": -88.0301415}, "nodes": [2914793873, 2914798745, 2914798703, 2914793836, 2914793873], "tags": {"aeroway": "helipad", "name": "Children's Hospital of Wisconsin Helipad"}}, {"type": "way", "id": 290537380, "center": {"lat": 41.7952997, "lon": -85.4065691}, "nodes": [2940578869, 2940578870, 2940578871, 2940579152, 2940578872, 2940578869], "tags": {"aeroway": "helipad", "wikidata": "Q61673661"}}, {"type": "way", "id": 296333005, "center": {"lat": 41.6404621, "lon": -86.0295523}, "nodes": [3001229462, 3001229463, 3001229464, 3001229465, 3001229462], "tags": {"aeroway": "helipad", "name": "H1", "surface": "concrete"}}, {"type": "way", "id": 298738117, "center": {"lat": 44.2790083, "lon": -88.393079}, "nodes": [3026581064, 3026581065, 3026581066, 3026581067, 3026581064], "tags": {"aeroway": "helipad", "surface": "concrete"}}, {"type": "way", "id": 300160384, "center": {"lat": 40.15256, "lon": -87.3074467}, "nodes": [3042574739, 3042574740, 3042574741, 3042574742, 3042574739], "tags": {"access": "private", "aeroway": "helipad", "ele": "201", "name": "Rice Private Heliport", "operator": "William E. Rice", "ref": "2II9", "wikidata": "Q61668505"}}, {"type": "way", "id": 304563230, "center": {"lat": 42.3908546, "lon": -86.2610697}, "nodes": [3091162369, 3091162370, 3091162371, 3091162372, 3091162369], "tags": {"aeroway": "helipad", "source": "Bing"}}, {"type": "way", "id": 305927803, "center": {"lat": 41.1012491, "lon": -80.7810424}, "nodes": [3106253388, 3106253391, 3106253394, 3106253397, 3106253399, 3106253402, 3106253407, 3106253411, 3106253413, 3106253415, 3106253416, 3106253414, 3106253412, 3106253409, 3106253403, 3106253400, 3106253398, 3106253396, 3106253392, 3106253389, 3106253387, 3106253388], "tags": {"aeroway": "helipad", "area": "yes"}}, {"type": "way", "id": 313439839, "center": {"lat": 41.5077712, "lon": -81.1889507}, "nodes": [3194181198, 3195050664, 3195050662, 3195050687, 3194181199, 3194181200, 3194181201, 3194181198], "tags": {"aeroway": "helipad"}}, {"type": "way", "id": 317029284, "center": {"lat": 41.5190195, "lon": -81.4357055}, "nodes": [1042150890, 3232473054, 3232473053, 3232473052, 1042150890], "tags": {"aeroway": "helipad", "faa": "OI83", "name": "Hillcrest Hospital Heliport", "rooftop": "yes", "surface": "asphalt", "wikidata": "Q61676885"}}, {"type": "way", "id": 317029285, "center": {"lat": 41.5212255, "lon": -81.435725}, "nodes": [3232474177, 3232474176, 3232474172, 3232474174, 3232474177], "tags": {"aeroway": "helipad"}}, {"type": "way", "id": 318667798, "center": {"lat": 42.8913093, "lon": -83.6418628}, "nodes": [3250376797, 3250376798, 3250376799, 3250376800, 3250376797], "tags": {"aeroway": "helipad"}}, {"type": "way", "id": 320262613, "center": {"lat": 41.5793324, "lon": -88.0894964}, "nodes": [3267633096, 3267633097, 3267633089, 3267633088, 3267633096], "tags": {"aeroway": "helipad", "source": "Bing"}}, {"type": "way", "id": 321697973, "center": {"lat": 42.1848272, "lon": -86.2505375}, "nodes": [3284623362, 3284623363, 3284623364, 3284623365, 3284623362], "tags": {"aeroway": "helipad", "wikidata": "Q61673688"}}, {"type": "way", "id": 322782405, "center": {"lat": 42.0017345, "lon": -83.9380157}, "nodes": [3295704142, 3295704143, 3295704144, 3295704145, 3295704146, 3295704147, 3295704148, 3295704130, 3295704131, 3295704135, 3295704136, 3295704137, 3295704138, 3295704139, 3295704140, 3295704141, 3295704132, 3295704133, 3295704134, 3295704142], "tags": {"aeroway": "helipad", "wikidata": "Q61673664"}}, {"type": "way", "id": 323067257, "center": {"lat": 43.7264924, "lon": -85.5108029}, "nodes": [3298697900, 3298697901, 3298697902, 3298697903, 3298697900], "tags": {"aeroway": "helipad"}}, {"type": "way", "id": 324616996, "center": {"lat": 43.9824486, "lon": -83.9696891}, "nodes": [3313285331, 3313285312, 3313285311, 3313285330, 3313285331], "tags": {"aeroway": "helipad"}}, {"type": "way", "id": 325068422, "center": {"lat": 44.2494701, "lon": -88.4037145}, "nodes": [3317448504, 3317448505, 3317448506, 3317448507, 3317448504], "tags": {"aeroway": "helipad"}}, {"type": "way", "id": 326762644, "center": {"lat": 43.9579405, "lon": -86.428246}, "nodes": [5407758470, 5407758471, 5407758472, 5407758473, 5407758474, 5407758475, 5407758476, 3334274249, 3334274251, 5407758462, 5407758463, 5407758464, 5407758465, 5407758466, 5407758467, 5407758468, 5407758469, 3334274253, 3334274250, 5407758470], "tags": {"aeroway": "helipad", "name": "Spectrum Health Ludington"}}, {"type": "way", "id": 327208272, "center": {"lat": 42.6161238, "lon": -83.9420474}, "nodes": [3339392848, 3339392850, 3339392851, 3339392849, 3339392848], "tags": {"aeroway": "helipad"}}, {"type": "way", "id": 327329371, "center": {"lat": 42.6452441, "lon": -85.3030193}, "nodes": [3340708711, 3340708714, 3340708715, 3340708712, 3340708711], "tags": {"aeroway": "helipad"}}, {"type": "way", "id": 327482442, "center": {"lat": 42.6806116, "lon": -83.1503253}, "nodes": [3342733315, 3342733317, 3342733319, 3342733321, 3342733323, 3342733325, 3342733327, 3342733329, 9546092083, 3342733330, 3342733328, 3342733326, 3342733324, 3342733322, 3342733320, 3342733318, 3342733316, 3342733315], "tags": {"aeroway": "helipad"}}, {"type": "way", "id": 327519281, "center": {"lat": 42.418058, "lon": -83.1826089}, "nodes": [3343073802, 3343073803, 3343073798, 3343073797, 3343073802], "tags": {"aeroway": "helipad"}}, {"type": "way", "id": 327520554, "center": {"lat": 42.6154341, "lon": -82.961743}, "nodes": [369022736, 3343094695, 3343094697, 3343094696, 369022736], "tags": {"aeroway": "helipad", "gnis:feature_id": "1623841"}}, {"type": "way", "id": 327576755, "center": {"lat": 42.4463861, "lon": -83.3228468}, "nodes": [3343866759, 3343866761, 3343866762, 3343866760, 3343866759], "tags": {"aeroway": "helipad", "emergency": "yes"}}, {"type": "way", "id": 328642511, "center": {"lat": 42.4581368, "lon": -83.2036499}, "nodes": [3354579295, 3354579293, 3354576791, 3354576789, 3354576788, 3354576790, 3354576792, 3354579294, 3354579296, 3354579298, 3354579300, 3354579302, 3354579303, 3354579301, 3354579299, 3354579297, 3354579295], "tags": {"aeroway": "helipad"}}, {"type": "way", "id": 328718580, "center": {"lat": 40.456286, "lon": -80.0041724}, "nodes": [3355474073, 5333473712, 3355474078, 3355474079, 5333473713, 3355474074, 5333473707, 3355474080, 5333473708, 3355474081, 3355474075, 3355474082, 3355474083, 5333473709, 3355474076, 3355474077, 5333473710, 3355474084, 5333473711, 3355474073], "tags": {"aeroway": "helipad", "faa": "42PN", "name": "Allegheny General Hospital Helipad", "surface": "concrete", "wikidata": "Q61712641"}}, {"type": "way", "id": 328735387, "center": {"lat": 42.4201013, "lon": -82.916745}, "nodes": [3128685251, 3355636190, 3355636189, 3355636187, 3128685251], "tags": {"aeroway": "helipad"}}, {"type": "way", "id": 328899201, "center": {"lat": 45.9310979, "lon": -89.2618201}, "nodes": [3357197545, 3357197546, 3357197547, 3357197548, 3357197545], "tags": {"aeroway": "helipad"}}, {"type": "way", "id": 330136941, "center": {"lat": 40.1136903, "lon": -82.9438093}, "nodes": [3370960436, 3370960437, 3370960438, 3370960439, 3370960436], "tags": {"aeroway": "helipad", "faa": "OI97", "name": "Saint Ann's Heliport", "surface": "asphalt", "wikidata": "Q61723995"}}, {"type": "way", "id": 333932103, "center": {"lat": 46.2476533, "lon": -81.7804376}, "nodes": [3409808878, 3409808879, 3409808881, 3409808883, 3409808885, 3409808887, 3409808890, 3409808892, 3409808894, 3409808893, 3409808891, 3409808888, 3409808886, 3409808884, 3409808882, 3409808880, 3409808878], "tags": {"aeroway": "helipad"}}, {"type": "way", "id": 334858347, "center": {"lat": 42.3591313, "lon": -87.865688}, "nodes": [3419775284, 3419775285, 3419775286, 3419775287, 3419775288, 3419775289, 3419775290, 3419775291, 3419775273, 3419775274, 3419775277, 3419775278, 3419775279, 3419775280, 3419775281, 3419775282, 3419775283, 3419775275, 369057760, 3419775276, 3419775284], "tags": {"aeroway": "helipad", "faa": "7LL1", "gnis:feature_id": "427904", "name": "Vista Medical Center West Heliport", "old_name": "Saint Therese Medical Center Heliport", "surface": "concrete", "wikidata": "Q74843635"}}, {"type": "way", "id": 339474408, "center": {"lat": 40.753212, "lon": -82.5283142}, "nodes": [368967824, 3466757400, 3466757401, 3466757396, 368967824], "tags": {"access": "emergency", "aeroway": "helipad", "gnis:feature_id": "1082827", "name": "OhioHealth Mansfield Hospital Heliport"}}, {"type": "way", "id": 345799839, "center": {"lat": 41.6361414, "lon": -82.829906}, "nodes": [3524525170, 3524525171, 3524525172, 3524525173, 3524525174, 3524525175, 3524525170], "tags": {"aeroway": "helipad"}}, {"type": "way", "id": 345801400, "center": {"lat": 41.4368463, "lon": -82.2357784}, "nodes": [3524558194, 3524558195, 3524558196, 3524558197, 3524558198, 3524558199, 3524558200, 3524558201, 3524558202, 3524558203, 3524558194], "tags": {"addr:state": "OH", "aeroway": "helipad", "ele": "183", "gnis:county_name": "Lorain", "gnis:created": "05/01/1990", "gnis:feature_id": "1082235", "gnis:feature_type": "Airport", "name": "Lorain Community Hospital Heliport"}}, {"type": "way", "id": 346024100, "center": {"lat": 41.6368054, "lon": -82.829303}, "nodes": [3526252060, 3526252061, 3526252062, 3526252063, 3526252060], "tags": {"aeroway": "helipad", "area": "yes"}}, {"type": "way", "id": 349215575, "center": {"lat": 41.1033283, "lon": -83.2172307}, "nodes": [3551324410, 3551324411, 3551324412, 3551358208, 3551324413, 3551324410], "tags": {"aeroway": "helipad"}}, {"type": "way", "id": 349671566, "center": {"lat": 41.5019928, "lon": -81.6206753}, "nodes": [3555181545, 3555181546, 3555181547, 3555181548, 3555181545], "tags": {"access": "emergency", "aeroway": "helipad"}}, {"type": "way", "id": 352078054, "center": {"lat": 42.276057, "lon": -88.4026371}, "nodes": [3578515659, 3578515660, 3578515661, 3578515662, 3578515659], "tags": {"aeroway": "helipad", "faa": "IL42", "name": "Centegra Hospital-Woodstock Heliport", "old_name": "Memorial Medical Center - Woodstock Heliport", "surface": "concrete", "wikidata": "Q74843671"}}, {"type": "way", "id": 353088145, "center": {"lat": 41.7949654, "lon": -81.145178}, "nodes": [3588777469, 3588777470, 3588777471, 3588777475, 3588777472, 3588777469], "tags": {"addr:state": "OH", "aeroway": "helipad", "area": "yes", "ele": "42", "gnis:county_name": "Lake", "gnis:created": "04/01/1991", "gnis:feature_id": "1082938", "gnis:feature_type": "Airport", "name": "Perry Nuclear Power Plant Heliport"}}, {"type": "way", "id": 354079043, "center": {"lat": 40.6476672, "lon": -83.5956446}, "nodes": [3598562377, 3598562378, 3598562379, 3598562380, 3598562377], "tags": {"aeroway": "helipad", "surface": "concrete"}}, {"type": "way", "id": 355695982, "center": {"lat": 40.3987992, "lon": -82.4489878}, "nodes": [3612602952, 3612602953, 3612602956, 3612602954, 3612602955, 3612602952], "tags": {"aeroway": "helipad", "faa": "OH04", "name": "Knox Community Hospital Heliport", "surface": "concrete", "wikidata": "Q61723823"}}, {"type": "way", "id": 356094647, "center": {"lat": 42.3777029, "lon": -87.8334077}, "nodes": [3615870814, 3615870815, 3615870816, 3615870817, 3615870818, 3615870819, 3615870820, 3615870821, 3615870822, 3615870823, 3615870824, 3615870806, 3615870809, 3615870810, 3615870811, 3615870812, 369057756, 3615870813, 3615870807, 3615870808, 3615870814], "tags": {"aeroway": "helipad", "faa": "7LL2", "gnis:feature_id": "427905", "name": "Vista Medical Center East Heliport", "old_name": "Victory Memorial Hospital Off Heliport", "surface": "concrete"}}, {"type": "way", "id": 356982248, "center": {"lat": 48.5347429, "lon": -88.9396576}, "nodes": [3623807044, 3623807042, 3623807040, 3623807034, 3623807039, 3623807041, 3623807043, 3623807045, 3623807047, 3623807048, 3623807046, 3623807044], "tags": {"aeroway": "helipad"}}, {"type": "way", "id": 361437003, "center": {"lat": 40.1118297, "lon": -82.9823589}, "nodes": [3659115730, 3659115731, 3659115732, 3659115733, 3659129786, 3659115730], "tags": {"addr:state": "OH", "aeroway": "helipad", "ele": "280", "gnis:county_name": "Franklin", "gnis:created": "04/01/1991", "gnis:feature_id": "1082611", "gnis:feature_type": "Airport", "name": "Worthington Industries Heliport"}}, {"type": "way", "id": 363451135, "center": {"lat": 43.2059661, "lon": -86.2074305}, "nodes": [3676173305, 3676173306, 3676173307, 3676173308, 3676173309, 3676173291, 3676173292, 3676173293, 3676173294, 3676173300, 3676173301, 3676173302, 3676173303, 3676173304, 3676173295, 11115690731, 3676173296, 3676173297, 3676173298, 3676173299, 3676173305], "tags": {"aeroway": "helipad"}}, {"type": "way", "id": 363464818, "center": {"lat": 40.133141, "lon": -85.6944346}, "nodes": [368386990, 3676301702, 3676301703, 3676301699, 368386990], "tags": {"access": "private", "aeroway": "helipad", "faa": "01IN", "gnis:feature_id": "449091", "name": "Community Hospital Heliport", "surface": "asphalt", "wikidata": "Q61668410"}}, {"type": "way", "id": 364279687, "center": {"lat": 41.5561044, "lon": -83.6820895}, "nodes": [3683291180, 3683291157, 3683291158, 3683291181, 3683291180], "tags": {"aeroway": "helipad", "faa": "3OI8", "gnis:feature_id": "1082846", "name": "Saint Luke's Hospital Heliport", "surface": "concrete", "wikidata": "Q61723804"}}, {"type": "way", "id": 365230406, "center": {"lat": 41.9154561, "lon": -88.1087438}, "nodes": [3692724917, 3692724918, 3692724919, 3692724920, 3692724917], "tags": {"aeroway": "helipad"}}, {"type": "way", "id": 368876835, "center": {"lat": 41.680916, "lon": -88.0863298}, "nodes": [3727148105, 3727148104, 369052132, 3727148102, 3727148103, 3727148105], "tags": {"aeroway": "helipad", "faa": "45IS", "gnis:feature_id": "427078", "name": "Adventist Bolingbrook Hospital Heliport", "surface": "concrete", "wikidata": "Q61667485"}}, {"type": "way", "id": 371480337, "center": {"lat": 44.8894502, "lon": -89.5790519}, "nodes": [3750459722, 3750459432, 3750459476, 3750459475, 3750459722], "tags": {"aeroway": "helipad", "area": "yes"}}, {"type": "way", "id": 372506487, "center": {"lat": 41.3989675, "lon": -82.2240834}, "nodes": [3760628071, 3760628072, 3760628073, 3760628074, 3760628075, 3760628076, 3760628077, 3760628078, 3760628060, 3760628061, 3760628064, 3760628065, 3760628066, 3760628067, 3760628068, 3760628069, 3760628070, 3760628062, 3760628063, 3760628071], "tags": {"aeroway": "helipad"}}, {"type": "way", "id": 374973188, "center": {"lat": 41.179784, "lon": -83.4151787}, "nodes": [3783550475, 3783550476, 3783550477, 3783550478, 3783550475], "tags": {"addr:state": "OH", "aeroway": "helipad", "area": "yes", "ele": "230", "gnis:county_name": "Seneca", "gnis:created": "04/01/1991", "gnis:feature_id": "1082689", "gnis:feature_type": "Airport", "name": "Autolite Heliport", "wikidata": "Q61676757"}}, {"type": "way", "id": 376634162, "center": {"lat": 41.4514513, "lon": -81.4940995}, "nodes": [3800371186, 3800371187, 3800371188, 3800371189, 3800371186], "tags": {"aeroway": "helipad", "source": "Bing 2019", "surface": "asphalt"}}, {"type": "way", "id": 378833362, "center": {"lat": 41.5447944, "lon": -83.6440419}, "nodes": [3822004778, 3822004779, 3822004780, 3822004781, 3822004778], "tags": {"aeroway": "helipad", "faa": "3OI5", "gnis:feature_id": "1082952", "name": "Welded Heliport", "surface": "concrete", "wikidata": "Q61723886"}}, {"type": "way", "id": 378847931, "center": {"lat": 42.7314384, "lon": -87.8277815}, "nodes": [368888011, 3822145295, 3822145294, 3822145293, 368888011], "tags": {"aeroway": "helipad", "gnis:feature_id": "1582169", "name": "Saint Marys Medical Center Heliport", "wikidata": "Q61726587"}}, {"type": "way", "id": 379137038, "center": {"lat": 41.2982025, "lon": -84.377349}, "nodes": [3824921760, 3824921774, 3824921769, 3824921454, 3824921760], "tags": {"aeroway": "helipad", "faa": "12OA", "name": "Defiance Regional Medical Center Heliport", "wikidata": "Q61676714"}}, {"type": "way", "id": 379236492, "center": {"lat": 40.0313038, "lon": -83.0361601}, "nodes": [3825610389, 3825610390, 3825610388, 3825610387, 3825610389], "tags": {"addr:state": "OH", "aeroway": "helipad", "ele": "232", "gnis:county_name": "Franklin", "name": "Riverside Methodist Hospital Heliport", "wikidata": "Q61676692"}}, {"type": "way", "id": 383231309, "center": {"lat": 41.5884615, "lon": -83.8160003}, "nodes": [3864497251, 3864497252, 3864497253, 3864497254, 3864497255, 3864497256, 3864498757, 3864497239, 3864497240, 3864497243, 3864497244, 3864497245, 3864497246, 3864497247, 3864497248, 3864497249, 3864497250, 3864497241, 3864497242, 3864497251], "tags": {"aeroway": "helipad"}}, {"type": "way", "id": 383231310, "center": {"lat": 41.5883442, "lon": -83.8175939}, "nodes": [3864498770, 3864498771, 3864498772, 3864498773, 3864498774, 3864498775, 3864498776, 3864498758, 3864498759, 3864498762, 3864498763, 3864498764, 3864498765, 3864498766, 3864498767, 3864498768, 3864498769, 3864498760, 3864498761, 3864498770], "tags": {"aeroway": "helipad"}}, {"type": "way", "id": 385588298, "center": {"lat": 43.1055458, "lon": -80.7544166}, "nodes": [3889262198, 3889262194, 3889262191, 3889262187, 3889262184, 3889262176, 3889262172, 3889262168, 3889262165, 3889262166, 3889262169, 3889262173, 3889262177, 3889262185, 3889262188, 3889262192, 3889262197, 3889262198], "tags": {"aeroway": "helipad"}}, {"type": "way", "id": 385887996, "center": {"lat": 43.1999504, "lon": -88.6956337}, "nodes": [3892257704, 3892257705, 3892257695, 3892257708, 3892257704], "tags": {"aeroway": "helipad", "source": "Esri 2018", "surface": "concrete"}}, {"type": "way", "id": 387396394, "center": {"lat": 43.878631, "lon": -85.5198555}, "nodes": [3906956276, 3906956278, 3906956277, 3906956275, 3906956276], "tags": {"aeroway": "helipad", "faa": "33MI", "name": "Spectrum Health Reed City Hospital Helipad", "surface": "concrete", "wikidata": "Q61673625"}}, {"type": "way", "id": 387410691, "center": {"lat": 40.6140888, "lon": -83.1083233}, "nodes": [3907092511, 3907092512, 3907092513, 3907092514, 3907092511], "tags": {"addr:state": "OH", "aeroway": "helipad", "area": "yes", "ele": "298", "gnis:county_name": "Marion", "gnis:created": "04/01/1991", "gnis:feature_id": "1082836", "gnis:feature_type": "Airport", "name": "Sheriffs Heliport"}}, {"type": "way", "id": 387437899, "center": {"lat": 41.1634521, "lon": -83.424374}, "nodes": [3907342573, 3907342574, 3907342575, 3907342576, 3907342573], "tags": {"aeroway": "helipad", "faa": "99OI", "gnis:feature_id": "1082688", "name": "Fostoria Community Hospital Heliport", "surface": "asphalt", "wikidata": "Q61676759"}}, {"type": "way", "id": 387635213, "center": {"lat": 41.3898911, "lon": -81.4448874}, "nodes": [3908889128, 3908889129, 3908889130, 3908889131, 3908889128], "tags": {"aeroway": "helipad", "area": "yes", "name": "St. Luke's Solon Emergency Center Heliport", "source": "ourairports.com"}}, {"type": "way", "id": 388118605, "center": {"lat": 41.5059636, "lon": -82.9309471}, "nodes": [3913195326, 3913195327, 3913195328, 3913195329, 3913195326], "tags": {"access": "emergency", "addr:state": "OH", "aeroway": "helipad", "faa": "2OH1", "gnis:feature_id": "1082969", "name": "Magruder Memorial Heliport", "surface": "concrete", "wikidata": "Q61723897"}}, {"type": "way", "id": 388527448, "center": {"lat": 40.7302598, "lon": -82.8020141}, "nodes": [3917180174, 3917180175, 3917180176, 3917180177, 3917180174], "tags": {"aeroway": "helipad", "faa": "01OI", "name": "Galion Community Hospital Heliport", "surface": "concrete", "wikidata": "Q61676765"}}, {"type": "way", "id": 388816383, "center": {"lat": 41.6594389, "lon": -88.469561}, "nodes": [3919937301, 3919937302, 3919937303, 3919937304, 3919937301], "tags": {"aeroway": "helipad", "name": "Rush Copley Helipad"}},