{"version": 0.6, "generator": "Overpass API 0.7.61.5 4133829e", "osm3s": {"timestamp_osm_base": "2023-10-31T20:38:15Z", "copyright": "The data included in this document is from www.openstreetmap.org. The data is made available under ODbL."}, "elements": [{"type": "node", "id": 178442659, "lat": 41.8402538, "lon": -72.7950228, "tags": {"aeroway": "helipad", "highway": "turning_circle"}}, {"type": "node", "id": 249403179, "lat": 43.8645335, "lon": -79.3674085, "tags": {"aeroway": "helipad", "created_by": "Potlatch 0.7b", "name": "North Pad"}}, {"type": "node", "id": 277485169, "lat": 43.3404539, "lon": -79.8330436, "tags": {"aeroway": "helipad"}}, {"type": "node", "id": 278027249, "lat": 43.2971249, "lon": -79.8014501, "tags": {"aeroway": "helipad"}}, {"type": "node", "id": 368382376, "lat": 44.4817627, "lon": -73.0962238, "tags": {"addr:country": "US", "addr:state": "VT", "aeroway": "helipad", "ele": "107", "faa": "VT51", "gnis:county_name": "Chittenden", "gnis:created": "08/01/1994", "gnis:feature_id": "1461926", "gnis:feature_type": "Airport", "lit": "no", "name": "Essex Junction Heliport", "old_name": "IBM Heliport", "operator": "IBM", "surface": "concrete", "wikidata": "Q61725671"}}, {"type": "node", "id": 368382378, "lat": 44.7778278, "lon": -71.7533937, "tags": {"addr:state": "VT", "aeroway": "helipad", "ele": "355", "faa": "VT40", "gnis:county_name": "Essex", "gnis:created": "08/01/1994", "gnis:feature_id": "1461928", "gnis:feature_type": "Airport", "lit": "no", "name": "Wenlock Crossing Heliport", "operator": "Vermont Electric Power Company, Inc.", "surface": "gravel", "wikidata": "Q61725672"}}, {"type": "node", "id": 368382422, "lat": 44.4384897, "lon": -73.0743665, "tags": {"aeroway": "helipad", "gnis:feature_id": "1461977", "name": "Williston Armory Heliport"}}, {"type": "node", "id": 368382680, "lat": 41.5764902, "lon": -71.4595022, "tags": {"addr:state": "RI", "aeroway": "helipad", "ele": "15", "gnis:county_name": "Washington", "gnis:created": "08/27/2002", "gnis:feature_id": "1219021", "gnis:feature_type": "Airport", "name": "North Kingstown Emergency Operations Pad", "wikidata": "Q49748779"}}, {"type": "node", "id": 368383023, "lat": 42.8469039, "lon": -71.2184081, "tags": {"aeroway": "helipad", "ele": "58", "gnis:county_name": "Rockingham", "gnis:created": "08/01/1994", "gnis:feature_id": "873388", "gnis:feature_type": "Airport", "name": "Chopper One Heliport", "wikidata": "Q61675416"}}, {"type": "node", "id": 368383025, "lat": 43.4174553, "lon": -71.6424622, "tags": {"addr:state": "NH", "aeroway": "helipad", "ele": "110", "gnis:county_name": "Merrimack", "gnis:created": "08/01/1994", "gnis:feature_id": "873395", "gnis:feature_type": "Airport", "name": "D W Heliport", "wikidata": "Q61675433"}}, {"type": "node", "id": 368383032, "lat": 43.2111924, "lon": -71.5061821, "tags": {"addr:state": "NH", "aeroway": "helipad", "ele": "105", "gnis:county_name": "Merrimack", "gnis:created": "08/01/1994", "gnis:feature_id": "873386", "gnis:feature_type": "Airport", "name": "Canterbury Heliport"}}, {"type": "node", "id": 368383041, "lat": 42.7986958, "lon": -71.9823018, "tags": {"addr:state": "NH", "aeroway": "helipad", "ele": "341", "fixme": "concrete...somewhere...", "gnis:county_name": "Cheshire", "gnis:created": "08/01/1994", "gnis:feature_id": "873407", "gnis:feature_type": "Airport", "name": "Millipore Heliport", "wikidata": "Q61675461"}}, {"type": "node", "id": 368383052, "lat": 42.7358539, "lon": -71.4795804, "tags": {"aeroway": "helipad", "faa": "NH42", "name": "Boston ARTCC Heliport (Restricted)", "wikidata": "Q61675506"}}, {"type": "node", "id": 368383056, "lat": 43.6261678, "lon": -71.558624, "tags": {"addr:state": "NH", "aeroway": "helipad", "ele": "166", "fixme": "cant see it...", "gnis:county_name": "Belknap", "gnis:created": "08/01/1994", "gnis:feature_id": "873420", "gnis:feature_type": "Airport", "name": "Smiling Jack Heliport", "wikidata": "Q61675494"}}, {"type": "node", "id": 368383077, "lat": 43.5431723, "lon": -72.352275, "tags": {"addr:state": "NH", "aeroway": "helipad", "ele": "165", "gnis:county_name": "Sullivan", "gnis:created": "08/01/1994", "gnis:feature_id": "873434", "gnis:feature_type": "Airport", "name": "Air-Wood Heliport", "wikidata": "Q61675536"}}, {"type": "node", "id": 368383078, "lat": 43.1960615, "lon": -71.4768937, "tags": {"addr:state": "NH", "aeroway": "helipad", "ele": "108", "faa": "NH33", "gnis:feature_id": "873433", "name": "Brigham Heliport", "wikidata": "Q61675531"}}, {"type": "node", "id": 368383088, "lat": 43.5576866, "lon": -71.1905696, "tags": {"addr:state": "NH", "aeroway": "helipad", "ele": "164", "gnis:county_name": "Carroll", "gnis:created": "08/01/1994", "gnis:feature_id": "873455", "gnis:feature_type": "Airport", "name": "Springfield Point Heliport"}}, {"type": "node", "id": 368383090, "lat": 42.8257914, "lon": -71.7405412, "tags": {"addr:state": "NH", "aeroway": "helipad", "ele": "249", "gnis:county_name": "Hillsborough", "gnis:created": "08/01/1994", "gnis:feature_id": "873453", "gnis:feature_type": "Airport", "name": "Shanklin Heliport", "wikidata": "Q61675562"}}, {"type": "node", "id": 368389669, "lat": 41.4259514, "lon": -73.4032993, "tags": {"addr:state": "CT", "aeroway": "helipad", "ele": "136", "gnis:county_name": "Fairfield", "gnis:created": "09/01/1994", "gnis:feature_id": "213011", "gnis:feature_type": "Airport", "name": "BIP Heliport"}}, {"type": "node", "id": 368389673, "lat": 41.9403088, "lon": -72.6059363, "tags": {"FAA:LFSN": "02810.51*H", "addr:state": "CT", "aeroway": "helipad", "ele": "36", "faa": "CT23", "gnis:feature_id": "213044", "lit": "no", "name": "Della Heliport", "start_date": "1988-08", "surface": "grass", "wikidata": "Q61671632"}}, {"type": "node", "id": 368389674, "lat": 41.9813126, "lon": -72.5833709, "tags": {"addr:state": "CT", "aeroway": "helipad", "ele": "36", "gnis:county_name": "Hartford", "gnis:created": "09/01/1994", "gnis:feature_id": "213043", "gnis:feature_type": "Airport", "name": "Digital Heliport"}}, {"type": "node", "id": 368389708, "lat": 41.4335232, "lon": -72.3946032, "tags": {"FAA:LFSN": "02804.01*H", "addr:city": "East Haddam", "addr:housenumber": "60", "addr:postcode": "06423", "addr:state": "CT", "addr:street": "Clark Hill Road", "aeroway": "helipad", "ele": "85", "gnis:feature_id": "213035", "lit": "no", "name": "Sanford Heliport", "ref": "CT86", "start_date": "1993", "surface": "grass", "wikidata": "Q61671623"}}, {"type": "node", "id": 368389714, "lat": 41.943429, "lon": -72.7091765, "tags": {"FAA:LFSN": "02803.86*H", "addr:city": "East Granby", "addr:housenumber": "22", "addr:postcode": "06026", "addr:state": "CT", "addr:street": "Russell Road", "aeroway": "helipad", "ele": "51", "gnis:feature_id": "213033", "lit": "yes", "name": "Marks Heliport", "ref": "CT50", "start_date": "1993", "surface": "concrete", "wikidata": "Q61671621"}}, {"type": "node", "id": 368389762, "lat": 41.7648222, "lon": -72.6814819, "tags": {"addr:state": "CT", "aeroway": "helipad", "ele": "23", "gnis:county_name": "Hartford", "gnis:created": "09/01/1994", "gnis:feature_id": "213062", "gnis:feature_type": "Airport", "name": "State Emergency Heliport"}}, {"type": "node", "id": 368389784, "lat": 41.6475167, "lon": -72.6634605, "tags": {"addr:state": "CT", "aeroway": "helipad", "ele": "64", "gnis:county_name": "Hartford", "gnis:created": "09/01/1994", "gnis:feature_id": "213109", "gnis:feature_type": "Airport", "name": "Corporate Ridge Heliport"}}, {"type": "node", "id": 368389786, "lat": 41.6584327, "lon": -72.6470368, "tags": {"FAA:LFSN": "02887.1*H", "aeroway": "helipad", "faa": "CT28", "gnis:feature_id": "213108", "lit": "no", "name": "Veterans Home and Hospital Heliport", "operator": "CT Dept. of Veterans Affairs", "start_date": "1975-08", "surface": "grass", "wikidata": "Q61671683"}}, {"type": "node", "id": 368389814, "lat": 41.0994826, "lon": -73.4190429, "tags": {"addr:state": "CT", "aeroway": "helipad", "ele": "1", "gnis:county_name": "Fairfield", "gnis:created": "09/01/1994", "gnis:feature_id": "213096", "gnis:feature_type": "Airport", "lit": "no", "name": "50 Washington Street Heliport", "ref": "CT56", "surface": "concrete", "wikidata": "Q61671673"}}, {"type": "node", "id": 368389816, "lat": 41.3666329, "lon": -72.8780328, "tags": {"addr:state": "CT", "aeroway": "helipad", "ele": "2", "gnis:county_name": "New Haven", "gnis:created": "09/01/1994", "gnis:feature_id": "213093", "gnis:feature_type": "Airport", "name": "North Haven Heliport"}}, {"type": "node", "id": 368389838, "lat": 41.2906648, "lon": -72.3782473, "tags": {"addr:state": "CT", "aeroway": "helipad", "ele": "12", "gnis:county_name": "Middlesex", "gnis:created": "09/01/1994", "gnis:feature_id": "213100", "gnis:feature_type": "Airport", "name": "Old Saybrook Police Heliport"}}, {"type": "node", "id": 368389893, "lat": 41.0541992, "lon": -73.5520775, "tags": {"addr:state": "CT", "aeroway": "helipad", "gnis:feature_id": "213123", "name": "Stamford Hospital Heliport"}}, {"type": "node", "id": 368389900, "lat": 41.4389862, "lon": -72.8373223, "tags": {"addr:state": "CT", "aeroway": "helipad", "ele": "19", "gnis:county_name": "New Haven", "gnis:created": "09/01/1994", "gnis:feature_id": "213134", "gnis:feature_type": "Airport", "name": "American Cyanamid Company Heliport"}}, {"type": "node", "id": 368389912, "lat": 41.4814863, "lon": -72.8053768, "tags": {"addr:state": "CT", "aeroway": "helipad", "ele": "45", "gnis:county_name": "New Haven", "gnis:created": "09/01/1994", "gnis:feature_id": "213132", "gnis:feature_type": "Airport", "name": "Clark Heliport"}}, {"type": "node", "id": 368395649, "lat": 40.3667759, "lon": -74.8496169, "tags": {"addr:state": "NJ", "aeroway": "helipad", "ele": "97", "gnis:county_name": "Mercer", "gnis:created": "09/08/1979", "gnis:feature_id": "882348", "gnis:feature_type": "Airport", "name": "Ksayian", "wikidata": "Q35271959"}}, {"type": "node", "id": 368395664, "lat": 40.8334385, "lon": -74.6829396, "tags": {"addr:state": "NJ", "aeroway": "helipad", "ele": "206", "gnis:county_name": "Morris", "gnis:created": "09/08/1979", "gnis:feature_id": "882340", "gnis:feature_type": "Airport", "historic": "yes", "name": "Flanders Valley Airport", "wikidata": "Q35256392"}}, {"type": "node", "id": 368395668, "lat": 40.4692662, "lon": -74.385166, "tags": {"addr:state": "NJ", "aeroway": "helipad", "ele": "1", "gnis:county_name": "Middlesex", "gnis:created": "09/08/1979", "gnis:feature_id": "882338", "gnis:feature_type": "Airport", "name": "East Brunswick", "wikidata": "Q34964297"}}, {"type": "node", "id": 368395686, "lat": 40.711217, "lon": -74.128761, "tags": {"addr:state": "NJ", "aeroway": "helipad", "ele": "4", "fixme": "The location data from Wikidata is not correct - this is currently shown inside a wastewater treatment complex", "gnis:county_name": "Essex", "gnis:created": "09/08/1979", "gnis:feature_id": "882365", "gnis:feature_type": "Airport", "name": "Terminal Newark One Helistop", "wikidata": "Q34963271"}}, {"type": "node", "id": 368395698, "lat": 40.3959448, "lon": -74.4412673, "tags": {"addr:state": "NJ", "aeroway": "helipad", "ele": "33", "gnis:county_name": "Middlesex", "gnis:created": "09/08/1979", "gnis:feature_id": "882357", "gnis:feature_type": "Airport", "name": "Zigfield"}}, {"type": "node", "id": 368395706, "lat": 40.0279124, "lon": -74.0635076, "tags": {"addr:state": "NJ", "aeroway": "helipad", "ele": "0", "gnis:county_name": "Ocean", "gnis:created": "09/08/1979", "gnis:feature_id": "882353", "gnis:feature_type": "Airport", "name": "Mantoloking", "wikidata": "Q35277472"}}, {"type": "node", "id": 368395716, "lat": 40.7001059, "lon": -74.299597, "tags": {"addr:state": "NJ", "aeroway": "helipad", "ele": "30", "gnis:county_name": "Union", "gnis:created": "09/08/1979", "gnis:feature_id": "882391", "gnis:feature_type": "Airport", "name": "Union County", "wikidata": "Q35314245"}}, {"type": "node", "id": 368395722, "lat": 40.5810562, "lon": -74.3318517, "tags": {"addr:state": "NJ", "aeroway": "helipad", "ele": "34", "gnis:county_name": "Middlesex", "gnis:created": "09/08/1979", "gnis:feature_id": "882396", "gnis:feature_type": "Airport", "name": "Sutton-Metro Park", "wikidata": "Q35308507"}}, {"type": "node", "id": 368395726, "lat": 40.8667699, "lon": -74.3162661, "tags": {"addr:state": "NJ", "aeroway": "helipad", "ele": "50", "gnis:county_name": "Essex", "gnis:created": "09/08/1979", "gnis:feature_id": "882394", "gnis:feature_type": "Airport", "name": "Rapport", "wikidata": "Q34962096"}}, {"type": "node", "id": 368395746, "lat": 40.5517709, "lon": -74.4748811, "tags": {"addr:state": "NJ", "aeroway": "helipad", "ele": "19", "gnis:county_name": "Middlesex", "gnis:created": "09/08/1979", "gnis:feature_id": "882372", "gnis:feature_type": "Airport", "name": "Purolator Helistop", "wikidata": "Q35291227"}}, {"type": "node", "id": 368395748, "lat": 40.7334386, "lon": -74.5162716, "tags": {"addr:state": "NJ", "aeroway": "helipad", "ele": "83", "gnis:county_name": "Morris", "gnis:created": "09/08/1979", "gnis:feature_id": "882368", "gnis:feature_type": "Airport", "name": "Still Pond", "wikidata": "Q35306972"}}, {"type": "node", "id": 368395757, "lat": 40.1084545, "lon": -74.099592, "tags": {"addr:state": "NJ", "aeroway": "helipad", "ele": "11", "gnis:county_name": "Ocean", "gnis:created": "09/08/1979", "gnis:feature_id": "882374", "gnis:feature_type": "Airport", "name": "Whisman", "wikidata": "Q34963968"}}, {"type": "node", "id": 368395770, "lat": 40.6537154, "lon": -74.68655, "tags": {"addr:state": "NJ", "aeroway": "helipad", "ele": "30", "gnis:county_name": "Somerset", "gnis:created": "09/08/1979", "gnis:feature_id": "882385", "gnis:feature_type": "Airport", "name": "High Time Farm Helistop", "wikidata": "Q35264988"}}, {"type": "node", "id": 368395771, "lat": 40.4598322, "lon": -74.4348324, "tags": {"addr:state": "NJ", "aeroway": "helipad", "ele": "8", "gnis:county_name": "Middlesex", "gnis:created": "09/08/1979", "gnis:feature_id": "882386", "gnis:feature_type": "Airport", "name": "South Plainfield OMS Helistop"}}, {"type": "node", "id": 368395783, "lat": 40.5483844, "lon": -74.3409522, "tags": {"addr:state": "NJ", "aeroway": "helipad", "ele": "26", "gnis:county_name": "Middlesex", "gnis:created": "08/01/1994", "gnis:feature_id": "884532", "gnis:feature_type": "Airport", "name": "Alexanders-Menlo Park Heliport", "wikidata": "Q61675731"}}, {"type": "node", "id": 368395787, "lat": 40.2564973, "lon": -74.7982198, "tags": {"addr:state": "NJ", "aeroway": "helipad", "ele": "38", "gnis:county_name": "Mercer", "gnis:created": "09/08/1979", "gnis:feature_id": "884536", "gnis:feature_type": "Airport", "name": "Department of Transportation"}}, {"type": "node", "id": 368395795, "lat": 40.3006357, "lon": -74.025718, "tags": {"addr:state": "NJ", "aeroway": "helipad", "ele": "6", "gnis:county_name": "Monmouth", "gnis:created": "09/08/1979", "gnis:feature_id": "882609", "gnis:feature_type": "Airport", "name": "E A I Landing Strip", "wikidata": "Q35253533"}}, {"type": "node", "id": 368395808, "lat": 40.7248795, "lon": -74.5347033, "tags": {"addr:state": "NJ", "aeroway": "helipad", "alt_name": "AT and T Helistop", "ele": "91", "gnis:county_name": "Somerset", "gnis:created": "08/01/1994", "gnis:feature_id": "884656", "gnis:feature_type": "Airport", "name": "Verizon", "note": "re: fixme... yes, this is one of Verizon's office buildings", "wikidata": "Q34956724"}}, {"type": "node", "id": 368395816, "lat": 40.750209, "lon": -75.0677917, "tags": {"addr:state": "NJ", "aeroway": "helipad", "ele": "329", "gnis:county_name": "Warren", "gnis:created": "08/01/1994", "gnis:feature_id": "884664", "gnis:feature_type": "Airport", "name": "Johnson Farms Airport"}}, {"type": "node", "id": 368395818, "lat": 40.4234795, "lon": -74.0981312, "tags": {"addr:state": "NJ", "aeroway": "helipad", "ele": "3", "gnis:county_name": "Monmouth", "gnis:created": "08/01/1994", "gnis:feature_id": "884662", "gnis:feature_type": "Airport", "name": "Werner Heliport", "wikidata": "Q61675588"}}, {"type": "node", "id": 368395821, "lat": 40.6535206, "lon": -74.6967234, "tags": {"addr:state": "NJ", "aeroway": "helipad", "ele": "60", "gnis:county_name": "Somerset", "gnis:created": "08/01/1994", "gnis:feature_id": "884659", "gnis:feature_type": "Airport", "name": "Lamington House Heliport", "wikidata": "Q61675586"}}, {"type": "node", "id": 368395822, "lat": 40.6723258, "lon": -74.6934951, "tags": {"addr:state": "NJ", "aeroway": "helipad", "ele": "76", "gnis:county_name": "Somerset", "gnis:created": "08/01/1994", "gnis:feature_id": "884658", "gnis:feature_type": "Airport", "name": "The Farm Heliport", "wikidata": "Q61675587"}}, {"type": "node", "id": 368395824, "lat": 40.9878807, "lon": -74.7246159, "tags": {"addr:state": "NJ", "aeroway": "helipad", "ele": "254", "gnis:county_name": "Sussex", "gnis:created": "08/01/1994", "gnis:feature_id": "884641", "gnis:feature_type": "Airport", "name": "Westby Heliport"}}, {"type": "node", "id": 368395882, "lat": 40.1006689, "lon": -74.5654386, "tags": {"addr:state": "NJ", "aeroway": "helipad", "ele": "46", "gnis:county_name": "Burlington", "gnis:created": "08/01/1994", "gnis:feature_id": "884644", "gnis:feature_type": "Airport", "name": "Arneytown Veterans Cemetery Heliport"}}, {"type": "node", "id": 368395885, "lat": 40.6387184, "lon": -74.8676734, "tags": {"addr:state": "NJ", "aeroway": "helipad", "ele": "123", "gnis:county_name": "Hunterdon", "gnis:created": "08/01/1994", "gnis:feature_id": "884643", "gnis:feature_type": "Airport", "name": "Exxon Research and Engineering Company Heliport"}}, {"type": "node", "id": 368395896, "lat": 40.7373226, "lon": -75.0454527, "tags": {"addr:state": "NJ", "aeroway": "helipad", "ele": "110", "gnis:county_name": "Warren", "gnis:created": "08/01/1994", "gnis:feature_id": "884685", "gnis:feature_type": "Airport", "name": "View Finder Balloonport"}}, {"type": "node", "id": 368395897, "lat": 40.5737195, "lon": -74.6671076, "tags": {"addr:state": "NJ", "aeroway": "helipad", "ele": "42", "gnis:county_name": "Somerset", "gnis:created": "08/01/1994", "gnis:feature_id": "884684", "gnis:feature_type": "Airport", "name": "RCA Somerville Heliport"}}, {"type": "node", "id": 368395901, "lat": 40.0634553, "lon": -74.4407008, "tags": {"addr:state": "NJ", "aeroway": "helipad", "ele": "42", "gnis:county_name": "Ocean", "gnis:created": "08/01/1994", "gnis:feature_id": "884696", "gnis:feature_type": "Airport", "name": "Colliers Mills Heliport", "wikidata": "Q61675624"}}, {"type": "node", "id": 368395912, "lat": 40.97232, "lon": -74.9396183, "tags": {"addr:state": "NJ", "aeroway": "helipad", "ele": "156", "gnis:county_name": "Warren", "gnis:created": "08/01/1994", "gnis:feature_id": "884670", "gnis:feature_type": "Airport", "name": "McDonoughs Heliport"}}, {"type": "node", "id": 368395924, "lat": 40.9698219, "lon": -74.9568417, "tags": {"addr:state": "NJ", "aeroway": "helipad", "ele": "151", "gnis:county_name": "Warren", "gnis:created": "08/01/1994", "gnis:feature_id": "884668", "gnis:feature_type": "Airport", "name": "Darst Heliport", "wikidata": "Q61675592"}}, {"type": "node", "id": 368395951, "lat": 40.5406647, "lon": -74.5059896, "tags": {"addr:state": "NJ", "aeroway": "helipad", "ele": "12", "gnis:county_name": "Middlesex", "gnis:created": "08/01/1994", "gnis:feature_id": "884675", "gnis:feature_type": "Airport", "name": "RBH Heliport"}}, {"type": "node", "id": 368395955, "lat": 41.1542643, "lon": -74.7126712, "tags": {"addr:state": "NJ", "aeroway": "helipad", "ele": "198", "gnis:county_name": "Sussex", "gnis:created": "08/01/1994", "gnis:feature_id": "884676", "gnis:feature_type": "Airport", "name": "Tamarack Flyers Heliport", "wikidata": "Q61675599"}}, {"type": "node", "id": 368395963, "lat": 40.2896656, "lon": -74.0941197, "tags": {"addr:state": "NJ", "aeroway": "helipad", "ele": "23", "gnis:county_name": "Monmouth", "gnis:created": "08/01/1994", "gnis:feature_id": "884724", "gnis:feature_type": "Airport", "name": "Mosquito Commission Headquarters Heliport"}}, {"type": "node", "id": 368395971, "lat": 40.7739912, "lon": -74.2087647, "tags": {"addr:state": "NJ", "aeroway": "helipad", "ele": "48", "gnis:county_name": "Essex", "gnis:created": "08/01/1994", "gnis:feature_id": "884722", "gnis:feature_type": "Airport", "name": "Martens Stadium Heliport", "wikidata": "Q61675637"}}, {"type": "node", "id": 368395973, "lat": 40.7598507, "lon": -74.201169, "tags": {"addr:state": "NJ", "aeroway": "helipad", "ele": "43", "gnis:county_name": "Essex", "gnis:created": "08/01/1994", "gnis:feature_id": "884723", "gnis:feature_type": "Airport", "name": "Oval Park Heliport"}}, {"type": "node", "id": 368395975, "lat": 40.6751075, "lon": -74.2448749, "tags": {"addr:state": "NJ", "aeroway": "helipad", "ele": "18", "gnis:county_name": "Union", "gnis:created": "08/01/1994", "gnis:feature_id": "884729", "gnis:feature_type": "Airport", "name": "Liberty Hall Heliport", "wikidata": "Q61675641"}}, {"type": "node", "id": 368395979, "lat": 40.0203906, "lon": -74.9601722, "tags": {"addr:state": "NJ", "aeroway": "helipad", "ele": "11", "gnis:county_name": "Burlington", "gnis:created": "08/01/1994", "gnis:feature_id": "884717", "gnis:feature_type": "Airport", "name": "MacMillan Helistop", "wikidata": "Q35276936"}}, {"type": "node", "id": 368395980, "lat": 40.3709408, "lon": -74.5009901, "tags": {"addr:state": "NJ", "aeroway": "helipad", "ele": "33", "gnis:county_name": "Middlesex", "gnis:created": "08/01/1994", "gnis:feature_id": "884714", "gnis:feature_type": "Airport", "name": "Unisys Heliport"}}, {"type": "node", "id": 368395982, "lat": 40.7828795, "lon": -74.2176461, "tags": {"addr:state": "NJ", "aeroway": "helipad", "ele": "45", "gnis:county_name": "Essex", "gnis:created": "08/01/1994", "gnis:feature_id": "884720", "gnis:feature_type": "Airport", "name": "Soverel Park Heliport", "wikidata": "Q61675638"}}, {"type": "node", "id": 368395983, "lat": 40.7521973, "lon": -74.2170415, "tags": {"aeroway": "helipad", "faa": "NJ37", "gnis:feature_id": "884721", "name": "Elmwood Park Heliport", "wikidata": "Q61675636"}}, {"type": "node", "id": 368395985, "lat": 40.9610584, "lon": -74.527218, "tags": {"addr:state": "NJ", "aeroway": "helipad", "ele": "262", "gnis:county_name": "Morris", "gnis:created": "08/01/1994", "gnis:feature_id": "884719", "gnis:feature_type": "Airport", "name": "Army Research and Development Center - Picatinny Arsenal Heliport"}}, {"type": "node", "id": 368395986, "lat": 40.3045552, "lon": -74.1073632, "tags": {"addr:state": "NJ", "aeroway": "helipad", "ele": "20", "gnis:county_name": "Monmouth", "gnis:created": "08/01/1994", "gnis:feature_id": "884709", "gnis:feature_type": "Airport", "name": "Due Process Stables Heliport", "wikidata": "Q61675631"}}, {"type": "node", "id": 368395989, "lat": 40.6381591, "lon": -74.9751763, "tags": {"addr:state": "NJ", "aeroway": "helipad", "ele": "110", "gnis:county_name": "Hunterdon", "gnis:created": "08/01/1994", "gnis:feature_id": "884706", "gnis:feature_type": "Airport", "name": "Coach and Paddock Heliport"}}, {"type": "node", "id": 368395992, "lat": 40.2952975, "lon": -74.1902968, "tags": {"addr:state": "NJ", "aeroway": "helipad", "ele": "24", "gnis:county_name": "Monmouth", "gnis:created": "08/01/1994", "gnis:feature_id": "884711", "gnis:feature_type": "Airport", "name": "Colts Neck Police Heliport"}}, {"type": "node", "id": 368395993, "lat": 40.3173349, "lon": -74.1590329, "tags": {"addr:state": "NJ", "aeroway": "helipad", "ele": "26", "gnis:county_name": "Monmouth", "gnis:created": "08/01/1994", "gnis:feature_id": "884710", "gnis:feature_type": "Airport", "name": "Elmport Heliport"}}, {"type": "node", "id": 368395998, "lat": 40.8887499, "lon": -74.1631026, "tags": {"addr:state": "NJ", "aeroway": "helipad", "ele": "42", "gnis:county_name": "Passaic", "gnis:created": "08/01/1994", "gnis:feature_id": "884705", "gnis:feature_type": "Airport", "name": "Metropolitan Electric Heliport", "wikidata": "Q61675629"}}, {"type": "node", "id": 368396005, "lat": 40.2381579, "lon": -74.3185333, "tags": {"addr:state": "NJ", "aeroway": "helipad", "ele": "55", "gnis:county_name": "Monmouth", "gnis:created": "08/01/1994", "gnis:feature_id": "884756", "gnis:feature_type": "Airport", "name": "New Jersey Bell CDC 11 Heliport"}}, {"type": "node", "id": 368396014, "lat": 40.3169863, "lon": -74.03811, "tags": {"addr:state": "NJ", "aeroway": "helipad", "disused": "yes", "ele": "5", "gnis:county_name": "Monmouth", "gnis:created": "08/01/1994", "gnis:feature_id": "884748", "gnis:feature_type": "Airport", "name": "Greely Helipad", "operator": "US Army", "ref": "NJ55", "surface": "asphalt", "wikidata": "Q61675663"}}, {"type": "node", "id": 368396016, "lat": 40.5367738, "lon": -74.5218293, "tags": {"addr:state": "NJ", "aeroway": "helipad", "ele": "19", "gnis:county_name": "Somerset", "gnis:created": "08/01/1994", "gnis:feature_id": "884750", "gnis:feature_type": "Airport", "name": "Atrium at Somerset Heliport", "wikidata": "Q61675664"}}, {"type": "node", "id": 368396017, "lat": 40.8723243, "lon": -74.529608, "tags": {"addr:state": "NJ", "aeroway": "helipad", "ele": "180", "gnis:county_name": "Morris", "gnis:created": "08/01/1994", "gnis:feature_id": "884751", "gnis:feature_type": "Airport", "name": "Philips Lighting Company Heliport"}}, {"type": "node", "id": 368396019, "lat": 40.2795429, "lon": -74.3287941, "tags": {"addr:state": "NJ", "aeroway": "helipad", "ele": "30", "gnis:county_name": "Monmouth", "gnis:created": "08/01/1994", "gnis:feature_id": "884753", "gnis:feature_type": "Airport", "name": "Manalapan Township-Village Green Heliport", "wikidata": "Q61675671"}}, {"type": "node", "id": 368396020, "lat": 40.4655369, "lon": -74.8269485, "tags": {"addr:state": "NJ", "aeroway": "helipad", "ele": "50", "gnis:county_name": "Hunterdon", "gnis:created": "08/01/1994", "gnis:feature_id": "884739", "gnis:feature_type": "Airport", "name": "O'Dwyer Airport"}}, {"type": "node", "id": 368396032, "lat": 40.172066, "lon": -74.1787756, "tags": {"addr:state": "NJ", "aeroway": "helipad", "ele": "28", "faa": "63NJ", "gnis:county_name": "Monmouth", "gnis:created": "08/01/1994", "gnis:feature_id": "884735", "gnis:feature_type": "Airport", "lit": "no", "name": "Howell Township Police Heliport", "surface": "grass", "wikidata": "Q61675653"}}, {"type": "node", "id": 368396033, "lat": 40.2084471, "lon": -74.174036, "tags": {"addr:state": "NJ", "aeroway": "helipad", "ele": "25", "gnis:county_name": "Monmouth", "gnis:created": "08/01/1994", "gnis:feature_id": "884734", "gnis:feature_type": "Airport", "name": "George Harms Const Heliport", "wikidata": "Q61675651"}}, {"type": "node", "id": 368396034, "lat": 40.5557397, "lon": -74.574929, "tags": {"addr:state": "NJ", "aeroway": "helipad", "ele": "12", "gnis:county_name": "Somerset", "gnis:created": "08/01/1994", "gnis:feature_id": "884737", "gnis:feature_type": "Airport", "historic": "yes", "name": "National Starch and Chemical Company Heliport"}}, {"type": "node", "id": 368396035, "lat": 40.1867842, "lon": -74.1501453, "tags": {"addr:state": "NJ", "aeroway": "helipad", "ele": "18", "gnis:county_name": "Monmouth", "gnis:created": "08/01/1994", "gnis:feature_id": "884736", "gnis:feature_type": "Airport", "name": "Cruz Farm Heliport", "wikidata": "Q61675650"}}, {"type": "node", "id": 368396044, "lat": 40.8960333, "lon": -75.004524, "tags": {"addr:state": "NJ", "aeroway": "helipad", "ele": "185", "gnis:county_name": "Warren", "gnis:created": "08/01/1994", "gnis:feature_id": "884784", "gnis:feature_type": "Airport", "name": "High Meadow Farms Airport"}}, {"type": "node", "id": 368396045, "lat": 40.39115, "lon": -74.7787243, "tags": {"addr:state": "NJ", "aeroway": "helipad", "ele": "118", "gnis:county_name": "Mercer", "gnis:created": "08/01/1994", "gnis:feature_id": "884785", "gnis:feature_type": "Airport", "name": "Hillside Farm Heliport", "wikidata": "Q61675700"}}, {"type": "node", "id": 368396048, "lat": 40.262138, "lon": -74.5181163, "tags": {"addr:state": "NJ", "aeroway": "helipad", "ele": "31", "gnis:county_name": "Mercer", "gnis:created": "08/01/1994", "gnis:feature_id": "884780", "gnis:feature_type": "Airport", "name": "Peddie School Heliport", "wikidata": "Q61675694"}}, {"type": "node", "id": 368396049, "lat": 40.1000875, "lon": -74.3170817, "tags": {"addr:state": "NJ", "aeroway": "helipad", "ele": "33", "gnis:county_name": "Ocean", "gnis:created": "08/01/1994", "gnis:feature_id": "884781", "gnis:feature_type": "Airport", "name": "Holmansville Heliport", "wikidata": "Q61675695"}}, {"type": "node", "id": 368396060, "lat": 40.8639938, "lon": -74.9185039, "tags": {"addr:state": "NJ", "aeroway": "helipad", "ele": "165", "gnis:county_name": "Warren", "gnis:created": "08/01/1994", "gnis:feature_id": "884769", "gnis:feature_type": "Airport", "name": "Pio Costa Sand and Gravel Heliport", "wikidata": "Q61675648"}}, {"type": "node", "id": 368396063, "lat": 40.8750543, "lon": -74.0356583, "tags": {"addr:state": "NJ", "aeroway": "helipad", "ele": "1", "gnis:county_name": "Bergen", "gnis:created": "08/01/1994", "gnis:feature_id": "884766", "gnis:feature_type": "Airport", "name": "Creamer Heliport", "wikidata": "Q61675682"}}, {"type": "node", "id": 368396075, "lat": 41.1041771, "lon": -74.1635934, "tags": {"addr:state": "NJ", "aeroway": "helipad", "ele": "86", "gnis:county_name": "Bergen", "gnis:created": "08/01/1994", "gnis:feature_id": "884820", "gnis:feature_type": "Airport", "name": "International Crossroads Heliport"}}, {"type": "node", "id": 368396077, "lat": 40.8464902, "lon": -74.8034992, "tags": {"addr:state": "NJ", "aeroway": "helipad", "ele": "188", "gnis:county_name": "Morris", "gnis:created": "08/01/1994", "gnis:feature_id": "884814", "gnis:feature_type": "Airport", "name": "WRNJ Heliport", "wikidata": "Q61675722"}}, {"type": "node", "id": 368396082, "lat": 40.7773119, "lon": -74.3579156, "tags": {"addr:state": "NJ", "aeroway": "helipad", "ele": "59", "gnis:county_name": "Essex", "gnis:created": "08/01/1994", "gnis:feature_id": "884811", "gnis:feature_type": "Airport", "name": "Newark Academy Heliport"}}, {"type": "node", "id": 368396089, "lat": 40.8839908, "lon": -74.0679236, "tags": {"addr:state": "NJ", "aeroway": "helipad", "ele": "11", "gnis:county_name": "Bergen", "gnis:created": "08/01/1994", "gnis:feature_id": "884813", "gnis:feature_type": "Airport", "name": "Penske 2 Heliport"}}, {"type": "node", "id": 368396132, "lat": 40.6362202, "lon": -74.2337608, "tags": {"addr:state": "NJ", "aeroway": "helipad", "ele": "5", "gnis:county_name": "Union", "gnis:created": "08/01/1994", "gnis:feature_id": "884806", "gnis:feature_type": "Airport", "name": "Bayway Refinery Heliport", "wikidata": "Q61675718"}}, {"type": "node", "id": 368396136, "lat": 40.32195, "lon": -74.7024736, "tags": {"addr:state": "NJ", "aeroway": "helipad", "ele": "47", "gnis:county_name": "Mercer", "gnis:created": "08/01/1994", "gnis:feature_id": "884802", "gnis:feature_type": "Airport", "name": "Bristol-Myers Squibb Heliport"}}, {"type": "node", "id": 368396144, "lat": 40.6501097, "lon": -74.082372, "tags": {"addr:state": "NJ", "aeroway": "helipad", "ele": "0", "gnis:county_name": "Hudson", "gnis:created": "08/01/1994", "gnis:feature_id": "884794", "gnis:feature_type": "Airport", "name": "Caven Point USAR Center Heliport", "note": "error, heliport misplaced in middle of bay instead of on land"}}, {"type": "node", "id": 368396145, "lat": 40.7360609, "lon": -74.0975866, "tags": {"addr:state": "NJ", "aeroway": "helipad", "ele": "0", "gnis:county_name": "Hudson", "gnis:created": "08/01/1994", "gnis:feature_id": "884797", "gnis:feature_type": "Airport", "name": "Kearny Helistop", "wikidata": "Q34960490"}}, {"type": "node", "id": 368396146, "lat": 40.4265537, "lon": -74.1396851, "tags": {"addr:state": "NJ", "aeroway": "helipad", "ele": "9", "faa": "78NJ", "gnis:county_name": "Monmouth", "gnis:created": "08/01/1994", "gnis:feature_id": "884796", "gnis:feature_type": "Airport", "lit": "no", "name": "Hazlet Township Police Heliport", "surface": "grass", "wikidata": "Q61675709"}}, {"type": "node", "id": 368396149, "lat": 41.0542652, "lon": -74.4296442, "tags": {"addr:state": "NJ", "aeroway": "helipad", "ele": "269", "gnis:county_name": "Passaic", "gnis:created": "08/01/1994", "gnis:feature_id": "884863", "gnis:feature_type": "Airport", "name": "Idylease Helistop", "wikidata": "Q34960171"}}, {"type": "node", "id": 368396152, "lat": 40.5148057, "lon": -74.4670673, "tags": {"addr:state": "NJ", "aeroway": "helipad", "ele": "26", "gnis:county_name": "Middlesex", "gnis:created": "08/01/1994", "gnis:feature_id": "884862", "gnis:feature_type": "Airport", "name": "Rutgers Helistop Number 1 Heliport"}}, {"type": "node", "id": 368396154, "lat": 40.4739985, "lon": -74.4834915, "tags": {"addr:state": "NJ", "aeroway": "helipad", "ele": "33", "gnis:county_name": "Middlesex", "gnis:created": "08/01/1994", "gnis:feature_id": "884860", "gnis:feature_type": "Airport", "name": "New Brunswick Gas Distribution Heliport"}}, {"type": "node", "id": 368396168, "lat": 40.4467764, "lon": -74.4932164, "tags": {"addr:state": "NJ", "aeroway": "helipad", "ele": "34", "gnis:county_name": "Middlesex", "gnis:created": "08/01/1994", "gnis:feature_id": "884868", "gnis:feature_type": "Airport", "name": "Webcraft Heliport"}}, {"type": "node", "id": 368396177, "lat": 40.8061719, "lon": -74.9905781, "tags": {"addr:state": "NJ", "aeroway": "helipad", "ele": "148", "gnis:county_name": "Warren", "gnis:created": "08/01/1994", "gnis:feature_id": "884875", "gnis:feature_type": "Airport", "name": "Oti Heliport"}}, {"type": "node", "id": 368396179, "lat": 40.5501023, "lon": -74.4870983, "tags": {"addr:state": "NJ", "aeroway": "helipad", "ele": "23", "gnis:county_name": "Middlesex", "gnis:created": "08/01/1994", "gnis:feature_id": "884890", "gnis:feature_type": "Airport", "name": "Foley Machinery Heliport", "wikidata": "Q61675788"}}, {"type": "node", "id": 368396183, "lat": 40.696488, "lon": -75.1671259, "tags": {"addr:state": "NJ", "aeroway": "helipad", "ele": "110", "fixme": "confirm that this no longer exists", "gnis:county_name": "Warren", "gnis:created": "08/01/1994", "gnis:feature_id": "884887", "gnis:feature_type": "Airport", "name": "Ingersoll-Rand Company Heliport"}}, {"type": "node", "id": 368396184, "lat": 40.7030376, "lon": -75.1781612, "tags": {"addr:state": "NJ", "aeroway": "helipad", "ele": "123", "gnis:county_name": "Warren", "gnis:created": "08/01/1994", "gnis:feature_id": "884886", "gnis:feature_type": "Airport", "name": "Warren Hospital Heliport", "wikidata": "Q61675786"}}, {"type": "node", "id": 368396222, "lat": 40.8412151, "lon": -74.4740543, "tags": {"addr:state": "NJ", "aerodrome:type": "private", "aeroway": "helipad", "alt_name": "Warner Lambert Parking Lot Heliport", "ele": "141", "gnis:county_name": "Morris", "gnis:created": "08/01/1994", "gnis:feature_id": "884834", "gnis:feature_type": "Airport", "name": "Johnson & Johnson"}}, {"type": "node", "id": 368396242, "lat": 40.7528801, "lon": -74.4393256, "tags": {"addr:state": "NJ", "aeroway": "helipad", "ele": "85", "gnis:county_name": "Morris", "gnis:created": "08/01/1994", "gnis:feature_id": "884837", "gnis:feature_type": "Airport", "name": "Ballymere Heliport", "wikidata": "Q61675739"}}, {"type": "node", "id": 368396250, "lat": 40.7364982, "lon": -74.1770502, "tags": {"addr:state": "NJ", "aeroway": "helipad", "ele": "9", "gnis:county_name": "Essex", "gnis:created": "08/01/1994", "gnis:feature_id": "884848", "gnis:feature_type": "Airport", "name": "Saint Benedicts Heliport", "wikidata": "Q61675761"}}, {"type": "node", "id": 368396257, "lat": 40.7020496, "lon": -74.1318134, "tags": {"addr:state": "NJ", "aeroway": "helipad", "ele": "4", "gnis:county_name": "Essex", "gnis:created": "08/01/1994", "gnis:feature_id": "884850", "gnis:feature_type": "Airport", "name": "Chem-Fleur Helistop", "wikidata": "Q35249165"}}, {"type": "node", "id": 368396261, "lat": 40.8964746, "lon": -74.7193105, "tags": {"addr:state": "NJ", "aeroway": "helipad", "ele": "254", "gnis:county_name": "Morris", "gnis:created": "08/01/1994", "gnis:feature_id": "884843", "gnis:feature_type": "Airport", "name": "Trade Zone Heliport", "wikidata": "Q61675745"}}, {"type": "node", "id": 368396263, "lat": 40.4862173, "lon": -74.7351689, "tags": {"addr:state": "NJ", "aeroway": "helipad", "ele": "64", "gnis:county_name": "Somerset", "gnis:created": "08/01/1994", "gnis:feature_id": "884845", "gnis:feature_type": "Airport", "name": "Osterman Heliport", "wikidata": "Q61675747"}}, {"type": "node", "id": 368396267, "lat": 40.4792747, "lon": -74.4340429, "tags": {"addr:state": "NJ", "aeroway": "helipad", "ele": "36", "gnis:county_name": "Middlesex", "gnis:created": "08/01/1994", "gnis:feature_id": "884857", "gnis:feature_type": "Airport", "name": "Rutgers Helistop Sections A and B Heliport"}}, {"type": "node", "id": 368396268, "lat": 40.7399857, "lon": -74.1361049, "tags": {"addr:state": "NJ", "aeroway": "helipad", "ele": "0", "gnis:county_name": "Essex", "gnis:created": "08/01/1994", "gnis:feature_id": "884852", "gnis:feature_type": "Airport", "name": "Albert Guido Memorial Heliport", "wikidata": "Q61675758"}}, {"type": "node", "id": 368396270, "lat": 40.7023284, "lon": -74.1501453, "tags": {"addr:state": "NJ", "aeroway": "helipad", "ele": "4", "gnis:county_name": "Essex", "gnis:created": "08/01/1994", "gnis:feature_id": "884854", "gnis:feature_type": "Airport", "name": "Port Newark Helistop", "wikidata": "Q35290235"}}, {"type": "node", "id": 368396293, "lat": 40.6003726, "lon": -75.7188021, "tags": {"addr:state": "NJ", "aeroway": "helipad", "ele": "226", "gnis:county_name": "Somerset", "gnis:created": "08/01/1994", "gnis:feature_id": "884933", "gnis:feature_type": "Airport", "name": "Mid-State Heliport"}}, {"type": "node", "id": 368396294, "lat": 40.5823283, "lon": -74.6107168, "tags": {"addr:state": "NJ", "aeroway": "helipad", "ele": "32", "gnis:county_name": "Somerset", "gnis:created": "08/01/1994", "gnis:feature_id": "884934", "gnis:feature_type": "Airport", "name": "NUI Heliport", "wikidata": "Q61675822"}}, {"type": "node", "id": 368396297, "lat": 40.5773893, "lon": -74.5943533, "tags": {"addr:state": "NJ", "aeroway": "helipad", "ele": "29", "gnis:county_name": "Somerset", "gnis:created": "08/01/1994", "gnis:feature_id": "884937", "gnis:feature_type": "Airport", "name": "Mack Trucks Helistop", "wikidata": "Q35276892"}}, {"type": "node", "id": 368396298, "lat": 40.6334376, "lon": -74.7323881, "tags": {"addr:state": "NJ", "aeroway": "helipad", "ele": "42", "gnis:county_name": "Hunterdon", "gnis:created": "08/01/1994", "gnis:feature_id": "884938", "gnis:feature_type": "Airport", "name": "Fiddlers Elbow Country Club Heliport", "wikidata": "Q61675820"}}, {"type": "node", "id": 368396299, "lat": 40.5744948, "lon": -74.5649456, "tags": {"addr:state": "NJ", "aeroway": "helipad", "ele": "38", "gnis:county_name": "Somerset", "gnis:created": "08/01/1994", "gnis:feature_id": "884935", "gnis:feature_type": "Airport", "name": "Halls Number 1 Heliport"}}, {"type": "node", "id": 368396301, "lat": 40.554828, "lon": -74.4193202, "tags": {"addr:state": "NJ", "aeroway": "helipad", "ele": "31", "gnis:county_name": "Middlesex", "gnis:created": "08/01/1994", "gnis:feature_id": "884942", "gnis:feature_type": "Airport", "name": "Enzon South Plainfield Heliport"}}, {"type": "node", "id": 368396305, "lat": 41.2912068, "lon": -74.5504456, "tags": {"addr:state": "NJ", "aeroway": "helipad", "ele": "160", "gnis:county_name": "Sussex", "gnis:created": "08/01/1994", "gnis:feature_id": "884946", "gnis:feature_type": "Airport", "name": "Air Tractor Heliport"}}, {"type": "node", "id": 368396307, "lat": 40.6956562, "lon": -75.1318465, "tags": {"addr:state": "NJ", "aeroway": "helipad", "ele": "106", "gnis:county_name": "Warren", "gnis:created": "08/01/1994", "gnis:feature_id": "884944", "gnis:feature_type": "Airport", "name": "Air-List-Ads Airport"}}, {"type": "node", "id": 368396310, "lat": 40.2189729, "lon": -74.0949425, "tags": {"addr:state": "NJ", "aeroway": "helipad", "ele": "27", "gnis:county_name": "Monmouth", "gnis:created": "08/01/1994", "gnis:feature_id": "884949", "gnis:feature_type": "Airport", "name": "Hovtown Heliport", "wikidata": "Q61675830"}}, {"type": "node", "id": 368396312, "lat": 41.2459338, "lon": -74.6462791, "tags": {"addr:state": "NJ", "aeroway": "helipad", "ele": "266", "gnis:county_name": "Sussex", "gnis:created": "08/01/1994", "gnis:feature_id": "884947", "gnis:feature_type": "Airport", "name": "TGP-325 Heliport"}}, {"type": "node", "id": 368396315, "lat": 40.8990225, "lon": -74.2292816, "tags": {"addr:state": "NJ", "aeroway": "helipad", "ele": "70", "gnis:county_name": "Passaic", "gnis:created": "08/01/1994", "gnis:feature_id": "884952", "gnis:feature_type": "Airport", "name": "Troop B Heliport", "wikidata": "Q61675833"}}, {"type": "node", "id": 368396317, "lat": 40.5573258, "lon": -74.4665423, "tags": {"addr:state": "NJ", "aeroway": "helipad", "ele": "24", "gnis:county_name": "Union", "gnis:created": "08/01/1994", "gnis:feature_id": "884891", "gnis:feature_type": "Airport", "name": "Penske Heliport"}}, {"type": "node", "id": 368396322, "lat": 40.6406676, "lon": -74.6638054, "tags": {"addr:state": "NJ", "aeroway": "helipad", "ele": "37", "gnis:county_name": "Somerset", "gnis:created": "08/01/1994", "gnis:feature_id": "884896", "gnis:feature_type": "Airport", "name": "Southdown Heliport", "wikidata": "Q61675792"}}, {"type": "node", "id": 368396325, "lat": 40.3461509, "lon": -74.7172696, "tags": {"addr:state": "NJ", "aeroway": "helipad", "ele": "55", "gnis:county_name": "Mercer", "gnis:created": "08/01/1994", "gnis:feature_id": "884899", "gnis:feature_type": "Airport", "name": "Educational Testing Heliport", "wikidata": "Q61675796"}}, {"type": "node", "id": 368396327, "lat": 40.3651102, "lon": -74.5823782, "tags": {"addr:state": "NJ", "aeroway": "helipad", "ele": "37", "gnis:county_name": "Middlesex", "gnis:created": "08/01/1994", "gnis:feature_id": "884901", "gnis:feature_type": "Airport", "name": "Wyeth-Ayerst Research Heliport", "wikidata": "Q61675800"}}, {"type": "node", "id": 368396328, "lat": 40.3220528, "lon": -74.6473779, "tags": {"addr:state": "NJ", "aeroway": "helipad", "ele": "30", "gnis:county_name": "Mercer", "gnis:created": "08/01/1994", "gnis:feature_id": "884902", "gnis:feature_type": "Airport", "name": "Carnegie Center Heliport", "wikidata": "Q61675794"}}, {"type": "node", "id": 368396329, "lat": 40.331323, "lon": -74.6329767, "tags": {"addr:state": "NJ", "aeroway": "helipad", "ele": "30", "gnis:county_name": "Mercer", "gnis:created": "08/01/1994", "gnis:feature_id": "884903", "gnis:feature_type": "Airport", "name": "RCA Princeton Heliport"}}, {"type": "node", "id": 368396344, "lat": 40.6398354, "lon": -74.7655768, "tags": {"addr:state": "NJ", "aeroway": "helipad", "ele": "52", "gnis:county_name": "Hunterdon", "gnis:created": "08/01/1994", "gnis:feature_id": "884909", "gnis:feature_type": "Airport", "name": "Merck Readington Township Heliport"}}, {"type": "node", "id": 368396345, "lat": 40.8506567, "lon": -74.0138888, "tags": {"addr:state": "NJ", "aeroway": "helipad", "ele": "2", "gnis:county_name": "Bergen", "gnis:created": "08/01/1994", "gnis:feature_id": "884912", "gnis:feature_type": "Airport", "name": "Pfister Helistop", "wikidata": "Q35288696"}}, {"type": "node", "id": 368396353, "lat": 40.8295088, "lon": -74.1209189, "tags": {"addr:state": "NJ", "aeroway": "helipad", "ele": "5", "gnis:county_name": "Bergen", "gnis:created": "08/01/1994", "gnis:feature_id": "884920", "gnis:feature_type": "Airport", "name": "Passaic River Seaplane Base"}}, {"type": "node", "id": 368396370, "lat": 40.7176042, "lon": -74.8915635, "tags": {"addr:state": "NJ", "aeroway": "helipad", "ele": "291", "gnis:county_name": "Hunterdon", "gnis:created": "08/01/1994", "gnis:feature_id": "884989", "gnis:feature_type": "Airport", "name": "Lebanon Township Municipal Building Heliport"}}, {"type": "node", "id": 368396372, "lat": 40.558441, "lon": -74.3157116, "tags": {"addr:state": "NJ", "aeroway": "helipad", "ele": "26", "gnis:county_name": "Middlesex", "gnis:created": "08/01/1994", "gnis:feature_id": "884987", "gnis:feature_type": "Airport", "name": "Ronson Heliport"}}, {"type": "node", "id": 368396405, "lat": 40.6903819, "lon": -74.3073746, "tags": {"addr:state": "NJ", "aeroway": "helipad", "ele": "32", "gnis:county_name": "Union", "gnis:created": "08/01/1994", "gnis:feature_id": "884959", "gnis:feature_type": "Airport", "name": "Ravens Nest Heliport"}}, {"type": "node", "id": 368396419, "lat": 40.2176322, "lon": -74.7419357, "tags": {"aeroway": "helipad", "faa": "10NJ", "gnis:feature_id": "884957", "name": "Saint Francis Medical Center Helistop", "surface": "grass"}}, {"type": "node", "id": 368396422, "lat": 40.0370616, "lon": -74.8426679, "tags": {"addr:state": "NJ", "aeroway": "helipad", "ele": "14", "gnis:county_name": "Burlington", "gnis:created": "08/01/1994", "gnis:feature_id": "884984", "gnis:feature_type": "Airport", "name": "Colgate Palmolive Heliport", "wikidata": "Q61675865"}}, {"type": "node", "id": 368396427, "lat": 40.6334355, "lon": -74.7657239, "tags": {"addr:state": "NJ", "aeroway": "helipad", "ele": "42", "gnis:county_name": "Hunterdon", "gnis:created": "08/01/1994", "gnis:feature_id": "884981", "gnis:feature_type": "Airport", "name": "Garden State Balloonport"}}, {"type": "node", "id": 368396429, "lat": 40.8862108, "lon": -73.9906999, "tags": {"addr:state": "NJ", "aeroway": "helipad", "ele": "2", "gnis:county_name": "Bergen", "gnis:created": "08/01/1994", "gnis:feature_id": "884975", "gnis:feature_type": "Airport", "name": "Graphic Scanning Corporation Heliport"}}, {"type": "node", "id": 368396430, "lat": 40.3006399, "lon": -74.0257179, "tags": {"addr:state": "NJ", "aeroway": "helipad", "ele": "6", "gnis:county_name": "Monmouth", "gnis:created": "08/01/1994", "gnis:feature_id": "884976", "gnis:feature_type": "Airport", "name": "185 Monmouth Parkway Associates Helistop", "wikidata": "Q34630113"}}, {"type": "node", "id": 368396433, "lat": 40.981095, "lon": -74.2529579, "tags": {"addr:city": "Wayne", "addr:housenumber": "1", "addr:postcode": "07470", "addr:state": "NJ", "addr:street": "Geoffrey Way", "aeroway": "helipad", "ele": "117", "gnis:county_name": "Passaic", "gnis:created": "08/01/1994", "gnis:feature_id": "884971", "gnis:feature_type": "Airport", "name": "Wayne Office Helistop", "wikidata": "Q35317907"}}, {"type": "node", "id": 368396434, "lat": 40.7646326, "lon": -74.0226067, "tags": {"addr:state": "NJ", "aeroway": "helipad", "ele": "10", "gnis:county_name": "Hudson", "gnis:created": "08/01/1994", "gnis:feature_id": "884972", "gnis:feature_type": "Airport", "name": "Lincoln Tunnel Heliport", "source": "bing", "wikidata": "Q61675857"}}, {"type": "node", "id": 368985296, "lat": 41.9253804, "lon": -70.8028165, "tags": {"FAA:LFSN": "08806.01*H", "addr:state": "MA", "aeroway": "helipad", "ele": "34", "faa": "MA34", "fixme": "looks like the wrong location...", "gnis:feature_id": "619036", "name": "Moore Dogs Heliport", "start_date": "1989-07", "wikidata": "Q61672796"}}, {"type": "node", "id": 368985297, "lat": 41.9251438, "lon": -70.773048, "tags": {"addr:state": "MA", "aeroway": "helipad", "ele": "40", "gnis:county_name": "Plymouth", "gnis:created": "08/01/1994", "gnis:feature_id": "619035", "gnis:feature_type": "Airport", "name": "Double A Heliport", "wikidata": "Q61672795"}}, {"type": "node", "id": 368985298, "lat": 41.8467698, "lon": -70.7603149, "tags": {"FAA:LFSN": "08806.03*H", "addr:state": "MA", "aeroway": "helipad", "ele": "24", "faa": "9MA8", "gnis:feature_id": "619038", "name": "Wayne West Heliport", "start_date": "1992-12", "wikidata": "Q61672797"}}, {"type": "node", "id": 368985299, "lat": 41.8603809, "lon": -70.7511482, "tags": {"addr:state": "MA", "aeroway": "helipad", "ele": "33", "gnis:county_name": "Plymouth", "gnis:created": "08/01/1994", "gnis:feature_id": "619037", "gnis:feature_type": "Airport", "name": "Sampson Pond Heliport"}}, {"type": "node", "id": 368985310, "lat": 42.1824843, "lon": -72.561202, "tags": {"FAA:LFSN": "08824.02*H", "addr:state": "MA", "aeroway": "helipad", "ele": "73", "faa": "MA47", "gnis:feature_id": "619044", "name": "Chicopee Heliport", "start_date": "1991-12", "wikidata": "Q61672801"}}, {"type": "node", "id": 368985311, "lat": 42.162871, "lon": -72.54981, "tags": {"addr:state": "MA", "aeroway": "helipad", "ele": "61", "gnis:county_name": "Hampden", "gnis:created": "08/01/1994", "gnis:feature_id": "619043", "gnis:feature_type": "Airport", "name": "Dow Jones Heliport"}}, {"type": "node", "id": 368985314, "lat": 42.2181534, "lon": -71.2967232, "tags": {"addr:state": "MA", "aeroway": "helipad", "ele": "89", "gnis:county_name": "Norfolk", "gnis:created": "08/01/1994", "gnis:feature_id": "619048", "gnis:feature_type": "Airport", "name": "Oxbow Corporation Heliport"}}, {"type": "node", "id": 368985320, "lat": 41.6713823, "lon": -70.5645618, "tags": {"FAA:LFSN": "08780.*H", "addr:state": "MA", "aeroway": "helipad", "ele": "42", "faa": "MA29", "gnis:feature_id": "619021", "name": "Camp Edwards Heliport", "start_date": "1973-11", "wikidata": "Q3274316"}}, {"type": "node", "id": 368985322, "lat": 42.4812016, "lon": -71.5472885, "tags": {"addr:state": "MA", "aeroway": "helipad", "ele": "89", "gnis:county_name": "Middlesex", "gnis:created": "08/01/1994", "gnis:feature_id": "619022", "gnis:feature_type": "Airport", "name": "Sheraton Inn Heliport"}}, {"type": "node", "id": 368985324, "lat": 42.4933885, "lon": -71.5432715, "tags": {"FAA:LFSN": "08786.02*H", "addr:state": "MA", "aeroway": "helipad", "ele": "87", "faa": "7MA1", "gnis:feature_id": "619024", "name": "Digital (box 2) heliport", "start_date": "1992-05", "wikidata": "Q61672786"}}, {"type": "node", "id": 368985326, "lat": 42.3292595, "lon": -71.7536817, "tags": {"addr:state": "MA", "aeroway": "helipad", "ele": "158", "gnis:county_name": "Worcester", "gnis:created": "08/01/1994", "gnis:feature_id": "619026", "gnis:feature_type": "Airport", "name": "Digital - Training Heliport"}}, {"type": "node", "id": 368985327, "lat": 42.2348219, "lon": -70.9739361, "tags": {"addr:state": "MA", "aeroway": "helipad", "ele": "15", "gnis:county_name": "Norfolk", "gnis:created": "08/01/1994", "gnis:feature_id": "619027", "gnis:feature_type": "Airport", "name": "Clean Harbors Heliport"}}, {"type": "node", "id": 368985342, "lat": 42.3000939, "lon": -72.4252712, "tags": {"FAA:LFSN": "08752.4*H", "addr:state": "MA", "aeroway": "helipad", "ele": "95", "faa": "MA54", "gnis:feature_id": "619008", "name": "B-Town Heliport", "start_date": "1989-10", "wikidata": "Q61672772"}}, {"type": "node", "id": 368985345, "lat": 42.4359233, "lon": -72.0961897, "tags": {"FAA:LFSN": "08745.01*H", "addr:state": "MA", "aeroway": "helipad", "ele": "281", "faa": "24MA", "gnis:feature_id": "619005", "name": "Barre-Bassett Heliport", "start_date": "1993-02", "wikidata": "Q61672771"}}, {"type": "node", "id": 368985355, "lat": 42.3492644, "lon": -71.043106, "tags": {"addr:state": "MA", "aeroway": "helipad", "ele": "6", "gnis:county_name": "Suffolk", "gnis:created": "08/01/1994", "gnis:feature_id": "619014", "gnis:feature_type": "Airport", "name": "World Trade Center Heliport"}}, {"type": "node", "id": 368985368, "lat": 42.0498172, "lon": -72.6487017, "tags": {"addr:state": "MA", "aeroway": "helipad", "ele": "55", "gnis:county_name": "Hampden", "gnis:created": "08/01/1994", "gnis:feature_id": "618995", "gnis:feature_type": "Airport", "name": "Vergnani Heliport"}}, {"type": "node", "id": 368985374, "lat": 42.0345398, "lon": -72.6314788, "tags": {"FAA:LFSN": "08709.02*H", "addr:state": "MA", "aeroway": "helipad", "ele": "39", "faa": "MA67", "gnis:county_name": "Hampden", "gnis:created": "08/01/1994", "gnis:feature_id": "618994", "gnis:feature_type": "Airport", "name": "TGP Heliport", "start_date": "1989-07", "wikidata": "Q61672764"}}, {"type": "node", "id": 368985376, "lat": 42.6917577, "lon": -71.215059, "tags": {"addr:state": "MA", "aeroway": "helipad", "ele": "29", "gnis:county_name": "Essex", "gnis:created": "08/01/1994", "gnis:feature_id": "619000", "gnis:feature_type": "Airport", "name": "Digital Minuteman Heliport"}}, {"type": "node", "id": 368985391, "lat": 42.191488, "lon": -72.4497642, "tags": {"FAA:LFSN": "09038.*H", "addr:state": "MA", "aeroway": "helipad", "ele": "86", "faa": "4MA7", "gnis:feature_id": "619097", "name": "Ahearn Heliport", "start_date": "1987-08", "wikidata": "Q61672843"}}, {"type": "node", "id": 368985402, "lat": 42.6152175, "lon": -71.3212125, "tags": {"addr:state": "MA", "aeroway": "helipad", "ele": "35", "gnis:county_name": "Middlesex", "gnis:created": "08/01/1994", "gnis:feature_id": "619095", "gnis:feature_type": "Airport", "name": "Avco - Lowell Heliport"}}, {"type": "node", "id": 368985413, "lat": 42.5047838, "lon": -71.7779066, "tags": {"FAA:LFSN": "09017.11*H", "addr:state": "MA", "aeroway": "helipad", "ele": "196", "faa": "17MA", "gnis:feature_id": "619091", "name": "Long Hill Heliport", "start_date": "1992", "wikidata": "Q61672837"}}, {"type": "node", "id": 368985416, "lat": 42.6639113, "lon": -70.8554867, "tags": {"aeroway": "helipad", "faa": "2MA3", "gnis:feature_id": "619086", "name": "Rider Heliport", "surface": "grass", "wikidata": "Q61672833"}}, {"type": "node", "id": 368985424, "lat": 42.691204, "lon": -70.9117188, "tags": {"FAA:LFSN": "08996.02*H", "addr:state": "MA", "aeroway": "helipad", "ele": "20", "faa": "05MA", "gnis:feature_id": "619087", "name": "Bentley Heliport", "start_date": "1992-12", "wikidata": "Q61672832"}}, {"type": "node", "id": 368985441, "lat": 42.1253138, "lon": -70.8425728, "tags": {"FAA:LFSN": "08956.31*H", "addr:state": "MA", "aeroway": "helipad", "ele": "25", "faa": "MA45", "gnis:feature_id": "619074", "name": "Simmons Heliport", "start_date": "1975", "wikidata": "Q61672823"}}, {"type": "node", "id": 368985467, "lat": 41.5531654, "lon": -70.5503064, "tags": {"FAA:LFSN": "08872.*H", "addr:state": "MA", "aeroway": "helipad", "ele": "2", "faa": "5MA2", "gnis:feature_id": "619049", "name": "Fuller House Heliport", "start_date": "1987-10", "wikidata": "Q61672807"}}, {"type": "node", "id": 368985491, "lat": 42.0678721, "lon": -72.7439824, "tags": {"addr:state": "MA", "aeroway": "helipad", "ele": "71", "gnis:county_name": "Hampden", "gnis:created": "08/01/1994", "gnis:feature_id": "619166", "gnis:feature_type": "Airport", "name": "Micron Heliport", "wikidata": "Q61672904"}}, {"type": "node", "id": 368985492, "lat": 42.0334284, "lon": -72.7592609, "tags": {"addr:state": "MA", "aeroway": "helipad", "ele": "69", "gnis:county_name": "Hampden", "gnis:created": "08/01/1994", "gnis:feature_id": "619167", "gnis:feature_type": "Airport", "name": "Congamond Lake Heliport"}}, {"type": "node", "id": 368985499, "lat": 42.2330255, "lon": -71.3585827, "tags": {"addr:state": "MA", "aeroway": "helipad", "designation": "4MA0", "ele": "78", "gnis:county_name": "Middlesex", "gnis:created": "08/01/1994", "gnis:feature_id": "619158", "gnis:feature_type": "Airport", "name": "Burke Heliport", "wikidata": "Q61672897"}}, {"type": "node", "id": 368985501, "lat": 42.2059303, "lon": -71.3783924, "tags": {"addr:state": "MA", "aeroway": "helipad", "ele": "53", "gnis:county_name": "Middlesex", "gnis:created": "08/01/1994", "gnis:feature_id": "619159", "gnis:feature_type": "Airport", "name": "Nason Hill Heliport", "wikidata": "Q61672898"}}, {"type": "node", "id": 368985503, "lat": 42.2739827, "lon": -71.6934331, "tags": {"addr:state": "MA", "aeroway": "helipad", "ele": "164", "gnis:county_name": "Worcester", "gnis:created": "08/01/1994", "gnis:feature_id": "619161", "gnis:feature_type": "Airport", "name": "Shrewsbury Heliport"}}, {"type": "node", "id": 368985506, "lat": 41.9170477, "lon": -70.7089252, "tags": {"addr:state": "MA", "aeroway": "helipad", "ele": "44", "gnis:county_name": "Plymouth", "gnis:created": "08/01/1994", "gnis:feature_id": "619150", "gnis:feature_type": "Airport", "name": "West Pond Heliport", "wikidata": "Q61672888"}}, {"type": "node", "id": 368985513, "lat": 42.4278745, "lon": -70.9839387, "tags": {"addr:state": "MA", "aeroway": "helipad", "ele": "3", "gnis:county_name": "Suffolk", "gnis:created": "08/01/1994", "gnis:feature_id": "619154", "gnis:feature_type": "Airport", "name": "Rent-A-Tool Heliport", "wikidata": "Q61672891"}}, {"type": "node", "id": 368985518, "lat": 41.6274784, "lon": -70.3996637, "tags": {"addr:state": "MA", "aeroway": "helipad", "ele": "0", "gnis:county_name": "Barnstable", "gnis:created": "08/01/1994", "gnis:feature_id": "619139", "gnis:feature_type": "Airport", "name": "North Bay Heliport", "wikidata": "Q61672879"}}, {"type": "node", "id": 368985523, "lat": 42.6906445, "lon": -71.6084026, "tags": {"addr:state": "MA", "aeroway": "helipad", "ele": "71", "gnis:county_name": "Middlesex", "gnis:created": "08/01/1994", "gnis:feature_id": "619144", "gnis:feature_type": "Airport", "name": "The Barn Heliport", "wikidata": "Q61672885"}}, {"type": "node", "id": 368985524, "lat": 41.6381589, "lon": -71.0383747, "tags": {"addr:state": "MA", "aeroway": "helipad", "ele": "27", "gnis:county_name": "Bristol", "gnis:created": "08/01/1994", "gnis:feature_id": "619132", "gnis:feature_type": "Airport", "name": "Richies Heliport", "wikidata": "Q61672878"}}, {"type": "node", "id": 368985535, "lat": 41.2850769, "lon": -70.148788, "tags": {"FAA:LFSN": "09110.1*H", "addr:state": "MA", "aeroway": "helipad", "ele": "20", "faa": "19MA", "gnis:feature_id": "619121", "name": "Waine Heliport", "start_date": "1993", "wikidata": "Q61672865"}}, {"type": "node", "id": 368985540, "lat": 42.1900835, "lon": -71.3563231, "tags": {"FAA:LFSN": "09086.*H", "addr:state": "MA", "aeroway": "helipad", "ele": "38", "faa": "5MA5", "gnis:feature_id": "619116", "name": "Southend Farm Heliport", "start_date": "1987-12", "wikidata": "Q61672864"}}, {"type": "node", "id": 368985541, "lat": 42.1917613, "lon": -71.7689591, "tags": {"FAA:LFSN": "09085.5*H", "addr:state": "MA", "aeroway": "helipad", "ele": "121", "faa": "4MA3", "gnis:feature_id": "619115", "name": "Millbury Savings - West Heliport", "start_date": "1987-05", "wikidata": "Q61672861"}}, {"type": "node", "id": 368985542, "lat": 42.1362079, "lon": -71.4803394, "tags": {"addr:state": "MA", "aeroway": "helipad", "ele": "86", "gnis:county_name": "Worcester", "gnis:created": "08/01/1994", "gnis:feature_id": "619114", "gnis:feature_type": "Airport", "name": "Waters Associates Heliport"}}, {"type": "node", "id": 368985543, "lat": 42.5974988, "lon": -70.9695951, "tags": {"addr:state": "MA", "aeroway": "helipad", "ele": "55", "gnis:county_name": "Essex", "gnis:created": "08/01/1994", "gnis:feature_id": "619113", "gnis:feature_type": "Airport", "name": "Ferncroft Village Heliport", "wikidata": "Q61672859"}}, {"type": "node", "id": 368985547, "lat": 42.1586205, "lon": -71.3888989, "tags": {"aeroway": "helipad", "ele": "42", "fixme": "Obsolete? Davna Fuel started at 1575 Main St in 1974. This is now a self storage.", "gnis:feature_id": "619117", "name": "Davna Corporation Heliport"}}, {"type": "node", "id": 368985580, "lat": 41.7770485, "lon": -70.6875341, "tags": {"addr:state": "MA", "aeroway": "helipad", "ele": "9", "gnis:county_name": "Plymouth", "gnis:created": "08/01/1994", "gnis:feature_id": "619195", "gnis:feature_type": "Airport", "name": "Bangs Heliport", "wikidata": "Q61672926"}}, {"type": "node", "id": 368985593, "lat": 42.5031457, "lon": -71.9078524, "tags": {"addr:state": "MA", "aeroway": "helipad", "ele": "372", "gnis:county_name": "Worcester", "gnis:created": "08/01/1994", "gnis:feature_id": "619205", "gnis:feature_type": "Airport", "name": "Lleia Kyle O'Meara Heliport", "wikidata": "Q61672940"}}, {"type": "node", "id": 368985594, "lat": 42.5552174, "lon": -71.9243321, "tags": {"addr:state": "MA", "aeroway": "helipad", "ele": "340", "gnis:county_name": "Worcester", "gnis:created": "08/01/1994", "gnis:feature_id": "619204", "gnis:feature_type": "Airport", "name": "Digital Heliport"}}, {"type": "node", "id": 368985596, "lat": 42.5431151, "lon": -70.9617315, "tags": {"addr:state": "MA", "aeroway": "helipad", "ele": "28", "gnis:county_name": "Essex", "gnis:created": "08/01/1994", "gnis:feature_id": "619206", "gnis:feature_type": "Airport", "name": "Long Hill Orchard Heliport", "wikidata": "Q61672932"}}, {"type": "node", "id": 368985607, "lat": 42.1759251, "lon": -72.7242594, "tags": {"addr:state": "MA", "aeroway": "helipad", "ele": "82", "gnis:county_name": "Hampden", "gnis:created": "08/01/1994", "gnis:feature_id": "619201", "gnis:feature_type": "Airport", "name": "Digital Heliport", "wikidata": "Q74843835"}}, {"type": "node", "id": 368985616, "lat": 42.2753709, "lon": -71.7981267, "tags": {"addr:state": "MA", "aeroway": "helipad", "ele": "149", "gnis:county_name": "Worcester", "gnis:created": "08/01/1994", "gnis:feature_id": "619221", "gnis:feature_type": "Airport", "name": "Parker Heliport", "wikidata": "Q61672948"}}, {"type": "node", "id": 368985629, "lat": 42.7209135, "lon": -73.2128847, "tags": {"addr:state": "MA", "aeroway": "helipad", "ele": "206", "gnis:county_name": "Berkshire", "gnis:created": "08/01/1994", "gnis:feature_id": "619214", "gnis:feature_type": "Airport", "name": "Sprague Number 1 Heliport"}}, {"type": "node", "id": 368985632, "lat": 42.7195247, "lon": -73.2128846, "tags": {"addr:state": "MA", "aeroway": "helipad", "ele": "205", "gnis:county_name": "Berkshire", "gnis:created": "08/01/1994", "gnis:feature_id": "619215", "gnis:feature_type": "Airport", "name": "Sprague Number 2 Heliport"}}, {"type": "node", "id": 368985636, "lat": 42.1264822, "lon": -72.66898, "tags": {"addr:state": "MA", "aeroway": "helipad", "ele": "70", "gnis:county_name": "Hampden", "gnis:created": "08/01/1994", "gnis:feature_id": "619212", "gnis:feature_type": "Airport", "name": "Bear Hole Heliport", "wikidata": "Q61672933"}}, {"type": "node", "id": 368989205, "lat": 40.0709815, "lon": -74.9336631, "tags": {"addr:state": "PA", "aeroway": "helipad", "ele": "5", "gnis:county_name": "Bucks", "gnis:created": "08/30/1990", "gnis:feature_id": "1193823", "gnis:feature_type": "Airport", "lit": "yes", "name": "Total RF Heliport", "operator": "TRF Real Estate", "ref": "00A", "surface": "asphalt", "wikidata": "Q49751794"}}, {"type": "node", "id": 368989701, "lat": 40.6056527, "lon": -75.4999058, "tags": {"addr:state": "PA", "aeroway": "helipad", "ele": "102", "gnis:county_name": "Lehigh", "gnis:created": "08/30/1990", "gnis:feature_id": "1194043", "gnis:feature_type": "Airport", "name": "Go Helistop", "wikidata": "Q49746502"}}, {"type": "node", "id": 368990247, "lat": 41.5167318, "lon": -77.9705543, "tags": {"addr:state": "PA", "aeroway": "helipad", "ele": "556", "gnis:county_name": "Potter", "gnis:created": "08/30/1990", "gnis:feature_id": "1194248", "gnis:feature_type": "Airport", "name": "Five Points Helistop", "wikidata": "Q49746230"}}, {"type": "node", "id": 368990459, "lat": 40.1212179, "lon": -75.4060192, "tags": {"addr:state": "PA", "aeroway": "helipad", "ele": "71", "gnis:county_name": "Montgomery", "gnis:created": "08/01/1989", "gnis:feature_id": "1205116", "gnis:feature_type": "Airport", "name": "Valley Forge Bicentennial Heliport"}}, {"type": "node", "id": 368990787, "lat": 40.116777, "lon": -74.8579424, "tags": {"addr:state": "PA", "aeroway": "helipad", "ele": "7", "gnis:county_name": "Bucks", "gnis:created": "08/30/1990", "gnis:feature_id": "1213739", "gnis:feature_type": "Airport", "name": "Copter-PNB-Bristol Heliport"}}, {"type": "node", "id": 368990792, "lat": 40.116777, "lon": -74.9162777, "tags": {"addr:state": "PA", "aeroway": "helipad", "ele": "12", "gnis:county_name": "Bucks", "gnis:created": "08/30/1990", "gnis:feature_id": "1213740", "gnis:feature_type": "Airport", "name": "Sons Heliport"}}, {"type": "node", "id": 368990801, "lat": 40.1292768, "lon": -74.8496087, "tags": {"addr:state": "PA", "aeroway": "helipad", "ele": "8", "gnis:county_name": "Bucks", "gnis:created": "08/30/1990", "gnis:feature_id": "1213742", "gnis:feature_type": "Airport", "name": "3-M Heliport"}}, {"type": "node", "id": 368990804, "lat": 40.1417388, "lon": -79.8914366, "tags": {"addr:state": "PA", "aeroway": "helipad", "ele": "237", "gnis:county_name": "Washington", "gnis:created": "08/30/1990", "gnis:feature_id": "1213743", "gnis:feature_type": "Airport", "name": "Lee Norse Number One Heliport"}}, {"type": "node", "id": 368990814, "lat": 40.0459309, "lon": -76.2807912, "tags": {"addr:state": "PA", "aeroway": "helipad", "ele": "93", "gnis:county_name": "Lancaster", "gnis:created": "08/30/1990", "gnis:feature_id": "1213729", "gnis:feature_type": "Airport", "name": "Thomson Heliport"}}, {"type": "node", "id": 368990845, "lat": 40.0875964, "lon": -76.353849, "tags": {"addr:state": "PA", "aeroway": "helipad", "ele": "104", "gnis:county_name": "Lancaster", "gnis:created": "08/30/1990", "gnis:feature_id": "1213736", "gnis:feature_type": "Airport", "name": "Hamilton Bank Heliport"}}, {"type": "node", "id": 368990886, "lat": 40.0334301, "lon": -76.6663553, "tags": {"addr:state": "PA", "aeroway": "helipad", "ele": "119", "gnis:county_name": "York", "gnis:created": "08/30/1990", "gnis:feature_id": "1213728", "gnis:feature_type": "Airport", "name": "York Electro-Panel Heliport"}}, {"type": "node", "id": 368991047, "lat": 40.8548085, "lon": -76.5238435, "tags": {"addr:state": "PA", "aeroway": "helipad", "ele": "342", "gnis:county_name": "Northumberland", "gnis:created": "12/01/1989", "gnis:feature_id": "1212971", "gnis:feature_type": "Airport", "name": "Helfricks Heliport"}}, {"type": "node", "id": 368991230, "lat": 40.2167737, "lon": -75.278787, "tags": {"addr:state": "PA", "aeroway": "helipad", "ele": "109", "gnis:county_name": "Montgomery", "gnis:created": "08/30/1990", "gnis:feature_id": "1213753", "gnis:feature_type": "Airport", "name": "Leeds and Northrup Company Heliport"}}, {"type": "node", "id": 368991237, "lat": 40.2320451, "lon": -75.5304581, "tags": {"addr:state": "PA", "aeroway": "helipad", "ele": "89", "gnis:county_name": "Montgomery", "gnis:created": "08/30/1990", "gnis:feature_id": "1213755", "gnis:feature_type": "Airport", "name": "Crouse Company Heliport"}}, {"type": "node", "id": 368991257, "lat": 40.2797795, "lon": -76.53901, "tags": {"addr:state": "PA", "aeroway": "helipad", "ele": "140", "gnis:county_name": "Lebanon", "gnis:created": "08/30/1990", "gnis:feature_id": "1213760", "gnis:feature_type": "Airport", "name": "Smith Heliport"}}, {"type": "node", "id": 368991261, "lat": 40.1500912, "lon": -77.0330331, "tags": {"addr:state": "PA", "aeroway": "helipad", "ele": "128", "gnis:county_name": "Cumberland", "gnis:created": "08/30/1990", "gnis:feature_id": "1213745", "gnis:feature_type": "Airport", "name": "Williams Grove Heliport", "wikidata": "Q61712444"}}, {"type": "node", "id": 368991264, "lat": 40.160837, "lon": -76.313988, "tags": {"addr:state": "PA", "aeroway": "helipad", "ele": "121", "gnis:county_name": "Lancaster", "gnis:created": "08/30/1990", "gnis:feature_id": "1213746", "gnis:feature_type": "Airport", "name": "Warner-Lambert Heliport", "wikidata": "Q61712405"}}, {"type": "node", "id": 368991273, "lat": 40.1917722, "lon": -75.3774018, "tags": {"addr:state": "PA", "aeroway": "helipad", "ele": "72", "gnis:county_name": "Montgomery", "gnis:created": "08/30/1990", "gnis:feature_id": "1213749", "gnis:feature_type": "Airport", "name": "Worcester Heliport", "wikidata": "Q74844247"}}, {"type": "node", "id": 368991280, "lat": 40.2000809, "lon": -77.9900012, "tags": {"addr:state": "PA", "aeroway": "helipad", "ele": "256", "gnis:county_name": "Cumberland", "gnis:created": "08/30/1990", "gnis:feature_id": "1213751", "gnis:feature_type": "Airport", "name": "IBM Distribution Center Heliport"}}, {"type": "node", "id": 368991283, "lat": 40.211218, "lon": -75.2871207, "tags": {"addr:state": "PA", "aeroway": "helipad", "ele": "104", "gnis:county_name": "Montgomery", "gnis:created": "08/30/1990", "gnis:feature_id": "1213752", "gnis:feature_type": "Airport", "name": "Upper Gwynedd Township Police Heliport"}}, {"type": "node", "id": 368991305, "lat": 40.4417685, "lon": -75.3246219, "tags": {"addr:state": "PA", "aeroway": "helipad", "ele": "152", "gnis:county_name": "Bucks", "gnis:created": "08/30/1990", "gnis:feature_id": "1213773", "gnis:feature_type": "Airport", "name": "Kelly Heliport"}}, {"type": "node", "id": 368991330, "lat": 40.3501019, "lon": -75.3996221, "tags": {"addr:state": "PA", "aeroway": "helipad", "ele": "136", "gnis:county_name": "Bucks", "gnis:created": "08/30/1990", "gnis:feature_id": "1213766", "gnis:feature_type": "Airport", "name": "Quaker Pike Heliport"}}, {"type": "node", "id": 368991349, "lat": 40.6473407, "lon": -75.3323146, "tags": {"addr:state": "PA", "aeroway": "helipad", "ele": "86", "gnis:county_name": "Northampton", "gnis:created": "08/30/1990", "gnis:feature_id": "1213788", "gnis:feature_type": "Airport", "name": "Posh Heliport", "wikidata": "Q61712107"}}, {"type": "node", "id": 368991359, "lat": 40.783397, "lon": -78.666416, "tags": {"addr:state": "PA", "aeroway": "helipad", "ele": "486", "gnis:county_name": "Clearfield", "gnis:created": "08/30/1990", "gnis:feature_id": "1213791", "gnis:feature_type": "Airport", "name": "Benjamin Heliport"}}, {"type": "node", "id": 368991363, "lat": 40.8966266, "lon": -79.5899525, "tags": {"addr:state": "PA", "aeroway": "helipad", "ele": "417", "gnis:county_name": "Armstrong", "gnis:created": "08/30/1990", "gnis:feature_id": "1213792", "gnis:feature_type": "Airport", "name": "Snyder Ranch Heliport"}}, {"type": "node", "id": 368991366, "lat": 40.6750981, "lon": -75.3246237, "tags": {"addr:state": "PA", "aeroway": "helipad", "ele": "124", "gnis:county_name": "Northampton", "gnis:created": "08/30/1990", "gnis:feature_id": "1213789", "gnis:feature_type": "Airport", "name": "Bethlehem Township Volunteer Fire Company EMS Heliport"}}, {"type": "node", "id": 368991370, "lat": 40.7693597, "lon": -76.3315235, "tags": {"addr:state": "PA", "aeroway": "helipad", "ele": "268", "gnis:county_name": "Schuylkill", "gnis:created": "08/30/1990", "gnis:feature_id": "1213790", "gnis:feature_type": "Airport", "name": "Ashland State General Hospital Heliport"}}, {"type": "node", "id": 368991374, "lat": 40.4834271, "lon": -75.8913159, "tags": {"addr:state": "PA", "aeroway": "helipad", "ele": "130", "gnis:county_name": "Berks", "gnis:created": "08/30/1990", "gnis:feature_id": "1213779", "gnis:feature_type": "Airport", "name": "Jones Heliport"}}, {"type": "node", "id": 368991378, "lat": 40.4925386, "lon": -78.7323825, "tags": {"addr:state": "PA", "aeroway": "helipad", "ele": "666", "gnis:county_name": "Cambria", "gnis:created": "08/30/1990", "gnis:feature_id": "1213780", "gnis:feature_type": "Airport", "name": "Kimball Heliport"}}, {"type": "node", "id": 368991388, "lat": 40.5292691, "lon": -75.0996166, "tags": {"addr:state": "PA", "aeroway": "helipad", "ele": "172", "gnis:county_name": "Bucks", "gnis:created": "08/30/1990", "gnis:feature_id": "1213783", "gnis:feature_type": "Airport", "name": "Tinicum Farms Heliport", "wikidata": "Q61712235"}}, {"type": "node", "id": 368991395, "lat": 40.5000971, "lon": -75.5662974, "tags": {"addr:state": "PA", "aeroway": "helipad", "ele": "261", "gnis:county_name": "Lehigh", "gnis:created": "08/30/1990", "gnis:feature_id": "1213781", "gnis:feature_type": "Airport", "name": "Macungie Mack Heliport", "wikidata": "Q61712419"}}, {"type": "node", "id": 368991398, "lat": 40.5056282, "lon": -78.0669499, "tags": {"addr:state": "PA", "aeroway": "helipad", "ele": "359", "gnis:county_name": "Huntingdon", "gnis:created": "08/30/1990", "gnis:feature_id": "1213782", "gnis:feature_type": "Airport", "name": "Ridge-Co Heliport"}}, {"type": "node", "id": 368991405, "lat": 41.2198041, "lon": -75.8810299, "tags": {"addr:state": "PA", "aeroway": "helipad", "ele": "210", "gnis:county_name": "Luzerne", "gnis:created": "08/30/1990", "gnis:feature_id": "1213803", "gnis:feature_type": "Airport", "name": "Franklin Heliport", "wikidata": "Q61712845"}}, {"type": "node", "id": 368991409, "lat": 41.1667477, "lon": -76.9163534, "tags": {"addr:state": "PA", "aeroway": "helipad", "ele": "210", "gnis:county_name": "Lycoming", "gnis:created": "08/30/1990", "gnis:feature_id": "1213802", "gnis:feature_type": "Airport", "name": "West Company Heliport", "wikidata": "Q61712851"}}, {"type": "node", "id": 368991416, "lat": 41.7709578, "lon": -78.009427, "tags": {"aeroway": "helipad", "faa": "94PA", "gnis:feature_id": "1213808", "name": "Mountain Springs Heliport", "surface": "asphalt", "wikidata": "Q61712187"}}, {"type": "node", "id": 368991423, "lat": 41.4370237, "lon": -75.6832461, "tags": {"addr:state": "PA", "aeroway": "helipad", "ele": "275", "gnis:county_name": "Lackawanna", "gnis:created": "08/30/1990", "gnis:feature_id": "1213806", "gnis:feature_type": "Airport", "name": "Northeast Truck Center Heliport"}}, {"type": "node", "id": 368991431, "lat": 40.9611757, "lon": -79.0330902, "tags": {"addr:state": "PA", "aeroway": "helipad", "ele": "491", "gnis:county_name": "Jefferson", "gnis:created": "08/30/1990", "gnis:feature_id": "1213796", "gnis:feature_type": "Airport", "name": "Stockdale Mine Supply Heliport"}}, {"type": "node", "id": 368991435, "lat": 40.9533904, "lon": -78.2644591, "tags": {"addr:state": "PA", "aeroway": "helipad", "ele": "555", "gnis:county_name": "Clearfield", "gnis:created": "08/30/1990", "gnis:feature_id": "1213795", "gnis:feature_type": "Airport", "name": "ACCI Heliport"}}, {"type": "node", "id": 368991438, "lat": 40.9117241, "lon": -78.2430695, "tags": {"addr:state": "PA", "aeroway": "helipad", "ele": "436", "gnis:county_name": "Clearfield", "gnis:created": "08/30/1990", "gnis:feature_id": "1213794", "gnis:feature_type": "Airport", "name": "SJA Heliport"}}, {"type": "node", "id": 368991446, "lat": 41.1250827, "lon": -75.993257, "tags": {"addr:state": "PA", "aeroway": "helipad", "ele": "342", "gnis:county_name": "Luzerne", "gnis:created": "08/30/1990", "gnis:feature_id": "1213800", "gnis:feature_type": "Airport", "name": "Baratta Heliport"}}, {"type": "node", "id": 368991451, "lat": 41.0125569, "lon": -78.2986268, "tags": {"addr:state": "PA", "aeroway": "helipad", "ele": "543", "gnis:county_name": "Clearfield", "gnis:created": "08/30/1990", "gnis:feature_id": "1213799", "gnis:feature_type": "Airport", "name": "Hamilton Heliport"}}, {"type": "node", "id": 369042131, "lat": 40.925, "lon": -73.3061111, "tags": {"addr:state": "NY", "aeroway": "helipad", "ele": "41", "gnis:county_name": "Suffolk", "gnis:created": "08/01/1994", "gnis:feature_id": "975801", "gnis:feature_type": "Airport", "name": "VAMC Heliport", "wikidata": "Q61676349"}}, {"type": "node", "id": 369042139, "lat": 40.7194444, "lon": -73.5827778, "tags": {"addr:state": "NY", "aeroway": "helipad", "ele": "41", "gnis:county_name": "Nassau", "gnis:created": "08/01/1994", "gnis:feature_id": "975803", "gnis:feature_type": "Airport", "name": "EAB Plaza Heliport", "wikidata": "Q61676484"}}, {"type": "node", "id": 369042146, "lat": 42.8733333, "lon": -75.1708333, "tags": {"addr:state": "NY", "aeroway": "helipad", "ele": "43", "gnis:county_name": "Herkimer", "gnis:created": "08/01/1994", "gnis:feature_id": "975805", "gnis:feature_type": "Airport", "name": "TGP-245 Heliport"}}, {"type": "node", "id": 369042150, "lat": 42.4247222, "lon": -74.4508333, "tags": {"addr:state": "NY", "aeroway": "helipad", "ele": "42", "gnis:county_name": "Schoharie", "gnis:created": "08/01/1994", "gnis:feature_id": "975791", "gnis:feature_type": "Airport", "name": "B/G Heliport", "wikidata": "Q61676202"}}, {"type": "node", "id": 369042182, "lat": 42.4813889, "lon": -73.5627778, "tags": {"addr:state": "NY", "aeroway": "helipad", "ele": "42", "gnis:county_name": "Columbia", "gnis:created": "08/01/1994", "gnis:feature_id": "975797", "gnis:feature_type": "Airport", "name": "TGP-254 Heliport"}}, {"type": "node", "id": 369042217, "lat": 42.1111855, "lon": -76.1768737, "tags": {"addr:state": "NY", "aeroway": "helipad", "ele": "307", "gnis:county_name": "Broome", "gnis:created": "08/01/1994", "gnis:feature_id": "975788", "gnis:feature_type": "Airport", "name": "MDC Site 1 Heliport"}}, {"type": "node", "id": 369042237, "lat": 44.3016667, "lon": -75.9547222, "tags": {"addr:state": "NY", "aeroway": "helipad", "ele": "44", "gnis:county_name": "Jefferson", "gnis:created": "08/01/1994", "gnis:feature_id": "975779", "gnis:feature_type": "Airport", "name": "NCH Heliport", "wikidata": "Q61676028"}}, {"type": "node", "id": 369042349, "lat": 41.1165284, "lon": -73.7155233, "tags": {"addr:state": "NY", "aeroway": "helipad", "ele": "142", "gnis:county_name": "Westchester", "gnis:created": "08/01/1994", "gnis:feature_id": "977897", "gnis:feature_type": "Airport", "name": "Old Orchard Road Heliport"}}, {"type": "node", "id": 369042390, "lat": 41.8034264, "lon": -74.1823682, "tags": {"addr:state": "NY", "aeroway": "helipad", "ele": "80", "gnis:county_name": "Ulster", "gnis:created": "08/01/1994", "gnis:feature_id": "977886", "gnis:feature_type": "Airport", "name": "Benbyre Farm Heliport", "wikidata": "Q61676029"}}, {"type": "node", "id": 369042411, "lat": 41.243506, "lon": -73.6805736, "tags": {"addr:state": "NY", "aeroway": "helipad", "ele": "93", "gnis:county_name": "Westchester", "gnis:created": "08/01/1994", "gnis:feature_id": "977910", "gnis:feature_type": "Airport", "name": "Harris Hill Heliport"}}, {"type": "node", "id": 369042422, "lat": 43.0303377, "lon": -78.1844615, "tags": {"addr:state": "NY", "aeroway": "helipad", "ele": "274", "gnis:county_name": "Genesee", "gnis:created": "08/01/1994", "gnis:feature_id": "977906", "gnis:feature_type": "Airport", "name": "Troop A Headquarters Heliport", "wikidata": "Q61676052"}}, {"type": "node", "id": 369042436, "lat": 42.8472058, "lon": -78.8116817, "tags": {"addr:state": "NY", "aeroway": "helipad", "ele": "181", "gnis:county_name": "Erie", "gnis:created": "08/01/1994", "gnis:feature_id": "977932", "gnis:feature_type": "Airport", "name": "Mercy Hospital Heliport"}}, {"type": "node", "id": 369042463, "lat": 42.4076012, "lon": -79.43938, "tags": {"addr:state": "NY", "aeroway": "helipad", "ele": "205", "faa": "NY99", "gnis:county_name": "Chautauqua", "gnis:created": "08/01/1994", "gnis:feature_id": "977926", "gnis:feature_type": "Airport", "lit": "no", "name": "Lakeview Shock Incarceration Center Heliport", "surface": "concrete", "wikidata": "Q61676077"}}, {"type": "node", "id": 369042907, "lat": 40.7130342, "lon": -73.7158508, "tags": {"addr:state": "NY", "aeroway": "helipad", "ele": "21", "gnis:county_name": "Nassau", "gnis:created": "08/01/1994", "gnis:feature_id": "978007", "gnis:feature_type": "Airport", "name": "Belmont Park Heliport", "wikidata": "Q61676169"}}, {"type": "node", "id": 369042935, "lat": 42.4833931, "lon": -79.0772602, "tags": {"addr:state": "NY", "aeroway": "helipad", "ele": "298", "gnis:county_name": "Chautauqua", "gnis:created": "08/01/1994", "gnis:feature_id": "978018", "gnis:feature_type": "Airport", "name": "H and H Aviation Service Incorporated Heliport", "wikidata": "Q61676182"}}, {"type": "node", "id": 369042998, "lat": 40.8600952, "lon": -73.5956873, "tags": {"addr:state": "NY", "aeroway": "helipad", "ele": "47", "gnis:county_name": "Nassau", "gnis:created": "08/01/1994", "gnis:feature_id": "978036", "gnis:feature_type": "Airport", "name": "Merrill Glen Cove Heliport"}}, {"type": "node", "id": 369043025, "lat": 41.6545379, "lon": -74.1398673, "tags": {"addr:state": "NY", "aeroway": "helipad", "ele": "138", "gnis:county_name": "Ulster", "gnis:created": "08/01/1994", "gnis:feature_id": "978030", "gnis:feature_type": "Airport", "name": "Parkers Landing Heliport", "wikidata": "Q61676198"}}, {"type": "node", "id": 369043073, "lat": 42.5283942, "lon": -78.9069779, "tags": {"addr:state": "NY", "aeroway": "helipad", "ele": "294", "gnis:county_name": "Erie", "gnis:created": "08/01/1994", "gnis:feature_id": "978054", "gnis:feature_type": "Airport", "name": "Gibraltar Heliport", "wikidata": "Q61676213"}}, {"type": "node", "id": 369043079, "lat": 42.676785, "lon": -78.8287527, "tags": {"addr:state": "NY", "aeroway": "helipad", "ele": "305", "gnis:county_name": "Erie", "gnis:created": "08/01/1994", "gnis:feature_id": "978055", "gnis:feature_type": "Airport", "name": "Tennessee Gas Number 2 Heliport"}}, {"type": "node", "id": 369043091, "lat": 42.7886693, "lon": -78.8489843, "tags": {"addr:state": "NY", "aeroway": "helipad", "ele": "177", "gnis:county_name": "Erie", "gnis:created": "08/01/1994", "gnis:feature_id": "978053", "gnis:feature_type": "Airport", "name": "Heussler Hamburg Heliport"}}, {"type": "node", "id": 369043094, "lat": 41.1114879, "lon": -72.3350828, "tags": {"addr:state": "NY", "aeroway": "helipad", "ele": "0", "gnis:county_name": "Suffolk", "gnis:created": "08/01/1994", "gnis:feature_id": "978049", "gnis:feature_type": "Airport", "name": "Eastern Long Island Heliport"}}, {"type": "node", "id": 369043177, "lat": 43.0850542, "lon": -76.2869085, "tags": {"addr:state": "NY", "aeroway": "helipad", "ele": "123", "faa": "NK55", "gnis:county_name": "Onondaga", "gnis:created": "08/01/1994", "gnis:feature_id": "977940", "gnis:feature_type": "Airport", "lit": "no", "name": "Onondaga County Sheriffs Department Heliport", "surface": "asphalt", "wikidata": "Q61676093"}}, {"type": "node", "id": 369043213, "lat": 42.9581749, "lon": -77.3418169, "tags": {"addr:state": "NY", "aeroway": "helipad", "ele": "204", "gnis:county_name": "Ontario", "gnis:created": "08/01/1994", "gnis:feature_id": "977946", "gnis:feature_type": "Airport", "name": "Troop E Heliport", "wikidata": "Q61676099"}}, {"type": "node", "id": 369043293, "lat": 41.3667604, "lon": -74.2490382, "tags": {"addr:state": "NY", "aeroway": "helipad", "ele": "131", "gnis:county_name": "Orange", "gnis:created": "08/01/1994", "gnis:feature_id": "977957", "gnis:feature_type": "Airport", "name": "Doms Heliport", "wikidata": "Q61676116"}}, {"type": "node", "id": 369043377, "lat": 42.4917354, "lon": -77.5072101, "tags": {"addr:state": "NY", "aeroway": "helipad", "ele": "412", "gnis:county_name": "Steuben", "gnis:created": "08/01/1994", "gnis:feature_id": "977965", "gnis:feature_type": "Airport", "name": "D C Helicopters Heliport"}}, {"type": "node", "id": 369043424, "lat": 40.8837095, "lon": -73.4906778, "tags": {"addr:state": "NY", "aeroway": "helipad", "ele": "1", "gnis:county_name": "Nassau", "gnis:created": "08/01/1994", "gnis:feature_id": "977973", "gnis:feature_type": "Airport", "name": "Cove Neck Heliport", "wikidata": "Q61676139"}}, {"type": "node", "id": 369043476, "lat": 43.1325686, "lon": -75.6549044, "tags": {"addr:state": "NY", "aeroway": "helipad", "ele": "132", "gnis:county_name": "Oneida", "gnis:created": "08/01/1994", "gnis:feature_id": "977992", "gnis:feature_type": "Airport", "name": "Hansen Heliport", "wikidata": "Q61676154"}}, {"type": "node", "id": 369043507, "lat": 40.9876002, "lon": -72.1728561, "tags": {"addr:state": "NY", "aeroway": "helipad", "ele": "21", "gnis:county_name": "Suffolk", "gnis:created": "08/01/1994", "gnis:feature_id": "977995", "gnis:feature_type": "Airport", "name": "Bistrians Heliport", "wikidata": "Q61676155"}}, {"type": "node", "id": 369043510, "lat": 41.6672616, "lon": -74.7354522, "tags": {"addr:state": "NY", "aeroway": "helipad", "ele": "380", "gnis:county_name": "Sullivan", "gnis:created": "08/01/1994", "gnis:feature_id": "978159", "gnis:feature_type": "Airport", "name": "Wyde Heliport"}}, {"type": "node", "id": 369043543, "lat": 41.6848156, "lon": -73.9929172, "tags": {"addr:state": "NY", "aeroway": "helipad", "ele": "113", "gnis:county_name": "Ulster", "gnis:created": "08/01/1994", "gnis:feature_id": "978151", "gnis:feature_type": "Airport", "name": "Mountain Fresh Farm Heliport", "wikidata": "Q61676313"}}, {"type": "node", "id": 369043548, "lat": 41.7828211, "lon": -73.7526908, "tags": {"addr:state": "NY", "aeroway": "helipad", "ele": "97", "faa": "7NY5", "gnis:county_name": "Dutchess", "gnis:created": "08/01/1994", "gnis:feature_id": "978150", "gnis:feature_type": "Airport", "lit": "yes", "name": "State Police Troop K Heliport", "surface": "asphalt", "wikidata": "Q61676312"}}, {"type": "node", "id": 369043567, "lat": 41.3723937, "lon": -74.5064321, "tags": {"addr:state": "NY", "aeroway": "helipad", "ele": "150", "gnis:county_name": "Orange", "gnis:created": "08/01/1994", "gnis:feature_id": "978148", "gnis:feature_type": "Airport", "name": "Slate Hill Heliport", "wikidata": "Q61676309"}}, {"type": "node", "id": 369043640, "lat": 40.610935, "lon": -73.4317908, "tags": {"addr:state": "NY", "aeroway": "helipad", "ele": "1", "gnis:county_name": "Nassau", "gnis:created": "08/01/1994", "gnis:feature_id": "978136", "gnis:feature_type": "Airport", "name": "Tobay Beach Park Heliport"}}, {"type": "node", "id": 369043738, "lat": 43.1539188, "lon": -79.0302589, "tags": {"aeroway": "helipad", "faa": "72NY", "gnis:feature_id": "978186", "name": "Saint Marys Heliport", "surface": "grass", "wikidata": "Q61676344"}}, {"type": "node", "id": 369043771, "lat": 43.0729537, "lon": -78.9844974, "tags": {"addr:state": "NY", "aeroway": "helipad", "ele": "171", "fixme": "location and name should be verified", "gnis:county_name": "Niagara", "gnis:created": "08/01/1994", "gnis:feature_id": "978185", "gnis:feature_type": "Airport", "name": "Sheraton Heliport", "old_name": "Best Western Red Jacket Inn Heliport", "wikidata": "Q61676337"}}, {"type": "node", "id": 369043789, "lat": 40.7903681, "lon": -75.9102005, "tags": {"addr:state": "NY", "aeroway": "helipad", "ele": "398", "gnis:county_name": "Queens", "gnis:created": "08/01/1994", "gnis:feature_id": "978173", "gnis:feature_type": "Airport", "name": "Charles Poletti Heliport"}}, {"type": "node", "id": 369043797, "lat": 40.7122318, "lon": -74.0017177, "tags": {"addr:city": "New York", "addr:postcode": "10013", "addr:state": "NY", "aeroway": "helipad", "ele": "6", "faa": "NK39", "gnis:county_name": "New York", "gnis:created": "08/01/1994", "gnis:feature_id": "978172", "gnis:feature_type": "Airport", "lit": "yes", "name": "One Police Plaza Helipad", "operator": "New York City Police Department", "surface": "concrete"}}, {"type": "node", "id": 369043822, "lat": 41.6689787, "lon": -74.7568291, "tags": {"addr:state": "NY", "aeroway": "helipad", "ele": "423", "gnis:county_name": "Sullivan", "gnis:created": "08/01/1994", "gnis:feature_id": "978160", "gnis:feature_type": "Airport", "name": "Hilltop Heliport", "wikidata": "Q61676318"}}, {"type": "node", "id": 369043872, "lat": 40.8884386, "lon": -73.421094, "tags": {"addr:state": "NY", "aeroway": "helipad", "ele": "3", "gnis:county_name": "Suffolk", "gnis:created": "08/01/1994", "gnis:feature_id": "978080", "gnis:feature_type": "Airport", "name": "Huntington Emergency Helistop"}}, {"type": "node", "id": 369043975, "lat": 40.5945458, "lon": -73.6512548, "tags": {"addr:state": "NY", "aeroway": "helipad", "ele": "0", "gnis:county_name": "Nassau", "gnis:created": "08/01/1994", "gnis:feature_id": "978124", "gnis:feature_type": "Airport", "name": "Long Beach Memorial Hospital Heliport"}}, {"type": "node", "id": 369044011, "lat": 42.0409217, "lon": -74.8362711, "tags": {"addr:state": "NY", "aeroway": "helipad", "ele": "750", "gnis:county_name": "Herkimer", "gnis:created": "08/01/1994", "gnis:feature_id": "978116", "gnis:feature_type": "Airport", "name": "Little Falls EMS Heliport"}}, {"type": "node", "id": 369044126, "lat": 40.686488, "lon": -73.0462214, "tags": {"addr:state": "NY", "aeroway": "helipad", "ele": "0", "gnis:county_name": "Suffolk", "gnis:created": "08/01/1994", "gnis:feature_id": "978282", "gnis:feature_type": "Airport", "name": "Waterfront Floating Helistop", "wikidata": "Q35317561"}}, {"type": "node", "id": 369044141, "lat": 44.3012953, "lon": -74.0796651, "tags": {"addr:state": "NY", "aeroway": "helipad", "ele": "486", "gnis:county_name": "Essex", "gnis:created": "08/01/1994", "gnis:feature_id": "978277", "gnis:feature_type": "Airport", "name": "Troop B Headquarters Heliport", "wikidata": "Q61676425"}}, {"type": "node", "id": 369044193, "lat": 42.0445138, "lon": -77.6536015, "tags": {"addr:state": "NY", "aeroway": "helipad", "ele": "630", "gnis:county_name": "Monroe", "gnis:created": "08/01/1994", "gnis:feature_id": "978264", "gnis:feature_type": "Airport", "name": "A C Rochester Engineering Center Heliport"}}, {"type": "node", "id": 369044196, "lat": 43.1259574, "lon": -77.6610414, "tags": {"addr:state": "NY", "aeroway": "helipad", "ele": "164", "gnis:county_name": "Monroe", "gnis:created": "08/01/1994", "gnis:feature_id": "978263", "gnis:feature_type": "Airport", "name": "Norcross Helipad"}}, {"type": "node", "id": 369044230, "lat": 41.9850884, "lon": -74.9340516, "tags": {"addr:state": "NY", "aeroway": "helipad", "ele": "641", "gnis:county_name": "Delaware", "gnis:created": "08/01/1994", "gnis:feature_id": "978270", "gnis:feature_type": "Airport", "name": "James Carl Memorial Heliport", "wikidata": "Q61676418"}}, {"type": "node", "id": 369044255, "lat": 42.8486729, "lon": -77.9200065, "tags": {"addr:state": "NY", "aeroway": "helipad", "ele": "271", "gnis:county_name": "Livingston", "gnis:created": "08/01/1994", "gnis:feature_id": "978321", "gnis:feature_type": "Airport", "name": "Station 233 Heliport"}}, {"type": "node", "id": 369044266, "lat": 41.8906483, "lon": -74.151533, "tags": {"addr:state": "NY", "aeroway": "helipad", "ele": "87", "gnis:county_name": "Ulster", "gnis:created": "08/01/1994", "gnis:feature_id": "978324", "gnis:feature_type": "Airport", "name": "Stone Ridge Heliport", "wikidata": "Q61676468"}}, {"type": "node", "id": 369044370, "lat": 40.8501004, "lon": -72.4156419, "tags": {"addr:state": "NY", "aeroway": "helipad", "ele": "0", "gnis:county_name": "Suffolk", "gnis:created": "08/01/1994", "gnis:feature_id": "978306", "gnis:feature_type": "Airport", "name": "Southampton Village Heliport"}}, {"type": "node", "id": 369044423, "lat": 41.3169402, "lon": -73.6798551, "tags": {"addr:state": "NY", "aeroway": "helipad", "ele": "148", "gnis:county_name": "Westchester", "gnis:created": "08/01/1994", "gnis:feature_id": "978304", "gnis:feature_type": "Airport", "name": "IBM Somers Heliport"}}, {"type": "node", "id": 369044446, "lat": 42.1023798, "lon": -76.2223298, "tags": {"addr:state": "NY", "aeroway": "helipad", "ele": "278", "gnis:county_name": "Tioga", "gnis:created": "08/01/1994", "gnis:feature_id": "978213", "gnis:feature_type": "Airport", "name": "Lockheed Martin Owego Heliport"}}, {"type": "node", "id": 369044477, "lat": 42.0989842, "lon": -76.2239851, "tags": {"addr:state": "NY", "aeroway": "helipad", "ele": "250", "faa": "9NY3", "gnis:county_name": "Tioga", "gnis:created": "08/01/1994", "gnis:feature_id": "978212", "gnis:feature_type": "Airport", "name": "Susquehanna Heliport", "wikidata": "Q61676366"}}, {"type": "node", "id": 369044489, "lat": 40.8003764, "lon": -72.9162158, "tags": {"addr:state": "NY", "aeroway": "helipad", "ele": "10", "gnis:county_name": "Suffolk", "gnis:created": "08/01/1994", "gnis:feature_id": "978217", "gnis:feature_type": "Airport", "name": "Norman Kurrass Contractor Heliport"}}, {"type": "node", "id": 369044573, "lat": 41.277501, "lon": -73.940421, "tags": {"addr:state": "NY", "aeroway": "helipad", "ele": "17", "gnis:county_name": "Westchester", "gnis:created": "08/01/1994", "gnis:feature_id": "978219", "gnis:feature_type": "Airport", "name": "Westchester Resco Heliport", "wikidata": "Q61676373"}}, {"type": "node", "id": 369044670, "lat": 43.0942351, "lon": -75.6490707, "tags": {"aeroway": "helipad", "faa": "0NY5", "gnis:feature_id": "978201", "lit": "yes", "name": "State Police Troop D Heliport", "surface": "asphalt", "wikidata": "Q61676359"}}, {"type": "node", "id": 369044701, "lat": 41.0191407, "lon": -73.9181461, "tags": {"addr:state": "NY", "aeroway": "helipad", "ele": "56", "gnis:county_name": "Rockland", "gnis:created": "08/01/1994", "gnis:feature_id": "978205", "gnis:feature_type": "Airport", "name": "IBM Customer Executive Education Center Heliport"}}, {"type": "node", "id": 369044741, "lat": 41.1472544, "lon": -73.8693182, "tags": {"addr:state": "NY", "aeroway": "helipad", "ele": "3", "gnis:county_name": "Westchester", "gnis:created": "08/01/1994", "gnis:feature_id": "978209", "gnis:feature_type": "Airport", "name": "TLI Heliport", "wikidata": "Q61676363"}}, {"type": "node", "id": 369044747, "lat": 41.1878164, "lon": -73.8681693, "tags": {"addr:state": "NY", "aeroway": "helipad", "ele": "61", "gnis:county_name": "Westchester", "gnis:created": "08/01/1994", "gnis:feature_id": "978208", "gnis:feature_type": "Airport", "name": "General Electric Management Development Institute Heliport"}}, {"type": "node", "id": 369044788, "lat": 43.5520139, "lon": -76.0896456, "tags": {"addr:state": "NY", "aeroway": "helipad", "ele": "134", "gnis:county_name": "Oswego", "gnis:created": "08/01/1994", "gnis:feature_id": "978247", "gnis:feature_type": "Airport", "name": "Oswego County at Pulaski Heliport", "wikidata": "Q61676394"}}, {"type": "node", "id": 369044821, "lat": 43.3689579, "lon": -75.1590534, "tags": {"addr:state": "NY", "aeroway": "helipad", "ele": "366", "gnis:county_name": "Oneida", "gnis:created": "08/01/1994", "gnis:feature_id": "978256", "gnis:feature_type": "Airport", "name": "Beaver Meadow Heliport", "wikidata": "Q61676402"}}, {"type": "node", "id": 369044828, "lat": 41.3209278, "lon": -74.5037702, "tags": {"addr:state": "NY", "aeroway": "helipad", "ele": "134", "gnis:county_name": "Orange", "gnis:created": "08/01/1994", "gnis:feature_id": "978229", "gnis:feature_type": "Airport", "name": "Bastek Heliport", "wikidata": "Q61676382"}}, {"type": "node", "id": 369044855, "lat": 40.8423224, "lon": -73.7006858, "tags": {"addr:state": "NY", "aeroway": "helipad", "ele": "10", "gnis:county_name": "Nassau", "gnis:created": "08/01/1994", "gnis:feature_id": "978239", "gnis:feature_type": "Airport", "name": "Thomson Industries Incorporated Heliport", "wikidata": "Q61676387"}}, {"type": "node", "id": 369044986, "lat": 40.7820722, "lon": -73.8261475, "tags": {"addr:state": "NY", "aeroway": "helipad", "ele": "6", "gnis:county_name": "Queens", "gnis:created": "08/01/1994", "gnis:feature_id": "978371", "gnis:feature_type": "Airport", "name": "Landmark Plaza Heliport", "wikidata": "Q61676520"}}, {"type": "node", "id": 369044995, "lat": 40.6867663, "lon": -73.3037303, "tags": {"addr:state": "NY", "aeroway": "helipad", "ele": "0", "gnis:county_name": "Suffolk", "gnis:created": "08/01/1994", "gnis:feature_id": "978366", "gnis:feature_type": "Airport", "name": "Wagstaff Heliport", "wikidata": "Q61676510"}}, {"type": "node", "id": 369045030, "lat": 42.6902509, "lon": -73.7025791, "tags": {"addr:state": "NY", "aeroway": "helipad", "ele": "55", "gnis:county_name": "Rensselaer", "gnis:created": "08/01/1994", "gnis:feature_id": "978337", "gnis:feature_type": "Airport", "name": "Troy Armory Heliport", "wikidata": "Q61676481"}}, {"type": "node", "id": 369045046, "lat": 42.9397887, "lon": -76.1143683, "tags": {"addr:state": "NY", "aeroway": "helipad", "ele": "416", "gnis:county_name": "Onondaga", "gnis:created": "08/01/1994", "gnis:feature_id": "978330", "gnis:feature_type": "Airport", "name": "Station 241 Heliport"}}, {"type": "node", "id": 369045058, "lat": 41.1158236, "lon": -74.1354702, "tags": {"addr:state": "NY", "aeroway": "helipad", "faa": "NK73", "gnis:feature_id": "978328", "name": "Ciba-Geigy Heliport", "wikidata": "Q61676472"}}, {"type": "node", "id": 408733501, "lat": 40.665, "lon": -76.1861, "tags": {"access": "private", "aeroway": "helipad", "ele": "335", "name": "Ryon Heliport", "owner": "Richard F. Ryon", "source": "wikipedia", "wikidata": "Q7385312", "wikipedia": "en:Ryon Heliport"}}, {"type": "node", "id": 440646276, "lat": 40.1973942, "lon": -76.9924762, "tags": {"aeroway": "helipad"}}, {"type": "node", "id": 506040225, "lat": 45.3955287, "lon": -71.9447436, "tags": {"aeroway": "helipad"}}, {"type": "node", "id": 635559867, "lat": 44.0564252, "lon": -75.7122468, "tags": {"aeroway": "helipad"}}, {"type": "node", "id": 635559962, "lat": 44.0551762, "lon": -75.7104122, "tags": {"aeroway": "helipad"}}, {"type": "node", "id": 635560016, "lat": 44.0663014, "lon": -75.7116674, "tags": {"aeroway": "helipad"}}, {"type": "node", "id": 812886701, "lat": 43.8851033, "lon": -79.2305964, "tags": {"aeroway": "helipad", "source": "yahoo"}}, {"type": "node", "id": 819568676, "lat": 42.893581, "lon": -79.1573491, "tags": {"aeroway": "helipad", "source": "CanVec 6.0 - NRCan"}}, {"type": "node", "id": 819620443, "lat": 42.8790411, "lon": -79.2590917, "tags": {"aeroway": "helipad", "source": "CanVec 6.0 - NRCan"}}, {"type": "node", "id": 832357012, "lat": 42.9918087, "lon": -71.4682488, "tags": {"aeroway": "helipad"}}, {"type": "node", "id": 835425233, "lat": 42.8791921, "lon": -76.9866643, "tags": {"aeroway": "helipad", "name": "Geneva General Hospital Helipad"}}, {"type": "node", "id": 836171586, "lat": 42.9291327, "lon": -78.8303933, "tags": {"aeroway": "helipad", "name": "Erie County Medical Center Alternate Helipad", "note": "Also known at the K lot helipad"}}, {"type": "node", "id": 860231488, "lat": 42.3397489, "lon": -76.9234791, "tags": {"aeroway": "helipad"}}, {"type": "node", "id": 860231490, "lat": 42.3396379, "lon": -76.9231036, "tags": {"aeroway": "helipad"}}, {"type": "node", "id": 882372379, "lat": 41.9845778, "lon": -76.5146514, "tags": {"aeroway": "helipad", "name": "Guthrie Air Heliport", "phone": "(570) 887-4930"}}, {"type": "node", "id": 1013903709, "lat": 45.3698264, "lon": -72.2113192, "tags": {"aeroway": "helipad", "name": "Pv H\u00e9liport du Mont Chauve", "name:alt": "Orford ~ Point de vue ~ V ~ H\u00e9liport du Mont Chauve", "source": "SE, Gilles Turgeon, GPS"}}, {"type": "node", "id": 1016575244, "lat": 40.8210803, "lon": -75.5142581, "tags": {"aeroway": "helipad"}}, {"type": "node", "id": 1038254566, "lat": 43.9094869, "lon": -78.6765151, "tags": {"aeroway": "helipad", "name": "Memorial Hospital Helipad (Disused)", "note": "Disused since 2019 when larger helicopters came into use.", "source": "yahoo;knowledge"}}, {"type": "node", "id": 1042133572, "lat": 41.5945015, "lon": -73.5559998, "tags": {"aeroway": "helipad", "name": "Hammersley Hill Heliport", "source": "ourairports.com", "wikidata": "Q61676369"}}, {"type": "node", "id": 1042133575, "lat": 41.5269012, "lon": -73.5805969, "tags": {"aeroway": "helipad", "name": "South Quaker Heliport", "source": "ourairports.com", "wikidata": "Q61676371"}}, {"type": "node", "id": 1042133582, "lat": 42.0547981, "lon": -79.6945038, "tags": {"aeroway": "helipad", "name": "Tennessee Gas Pipeline Heliport", "source": "ourairports.com"}}, {"type": "node", "id": 1042133707, "lat": 42.7342987, "lon": -70.8674011, "tags": {"aeroway": "helipad", "name": "Grandview Farm Heliport", "source": "ourairports.com", "wikidata": "Q61672895"}}, {"type": "node", "id": 1042133722, "lat": 44.063611, "lon": -71.152778, "tags": {"aeroway": "helipad", "name": "Carleton Heliport", "source": "ourairports.com", "wikidata": "Q61675440"}}, {"type": "node", "id": 1042133762, "lat": 43.7390995, "lon": -70.31325, "tags": {"aeroway": "helipad", "faa": "64ME", "name": "Dave Libby Heliport", "source": "ourairports.com", "surface": "grass", "wikidata": "Q61673203"}}, {"type": "node", "id": 1042133801, "lat": 40.4682007, "lon": -74.4667969, "tags": {"aeroway": "helipad", "name": "Triangle Heliport", "source": "ourairports.com"}}, {"type": "node", "id": 1042133826, "lat": 43.722825, "lon": -70.346667, "tags": {"aeroway": "helipad", "name": "Station-Kel Heliport", "source": "ourairports.com"}}, {"type": "node", "id": 1042133967, "lat": 40.7596638, "lon": -73.4964819, "tags": {"aeroway": "helipad", "name": "Cablevision Bethpage Heliport", "source": "ourairports.com", "wikidata": "Q61676061"}},