{"version": 0.6, "generator": "Overpass API 0.7.61.5 4133829e", "osm3s": {"timestamp_osm_base": "2023-10-31T20:40:15Z", "copyright": "The data included in this document is from www.openstreetmap.org. The data is made available under ODbL."}, "elements": [{"type": "node", "id": 369144283, "lat": 58.3319444, "lon": -134.4969444, "tags": {"addr:state": "AK", "aeroway": "helipad", "ele": "8", "gnis:county_name": "Juneau", "gnis:created": "07/01/1995", "gnis:feature_id": "1417765", "gnis:feature_type": "Airport", "name": "North Douglas Heliport"}}, {"type": "node", "id": 369144327, "lat": 58.9717126, "lon": -135.2219819, "tags": {"addr:state": "AK", "aeroway": "helipad", "ele": "0", "gnis:county_name": "Juneau", "gnis:created": "07/01/1995", "gnis:feature_id": "1417682", "gnis:feature_type": "Airport", "name": "Eldred Rock Coast Guard Heliport"}}, {"type": "node", "id": 369144671, "lat": 55.3824139, "lon": -131.7365991, "tags": {"addr:state": "AK", "aeroway": "helipad", "ele": "8", "gnis:county_name": "Ketchikan Gateway", "gnis:created": "07/01/1995", "gnis:feature_id": "1417791", "gnis:feature_type": "Airport", "name": "Ketchikan-Temsco H Heliport"}}, {"type": "node", "id": 1042134095, "lat": 54.3314809, "lon": -130.276856, "tags": {"aeroway": "helipad", "name": "Seal Cove (Coast Guard) Heliport", "source": "ourairports.com"}}, {"type": "node", "id": 1042134198, "lat": 58.5912999, "lon": -134.8994033, "tags": {"aeroway": "helipad", "name": "Yankee Cove Heliport", "source": "ourairports.com"}}, {"type": "node", "id": 1042143414, "lat": 58.3903715, "lon": -134.769266, "tags": {"FAA:LFSN": "50385.01*H", "aeroway": "helipad", "faa": "AK94", "icao": "CBBC", "name": "Alascom/Coastal Lena Point Heliport", "note": "The estimated position given (58 23' 26.8100\"N, 134 46' 36.4800\"W) plots in the water.  Moved point to a clearing next to the AT&T facility, because Alascom is AT&T local affiliate.", "source_ref": "http://www.airnav.com/airport/ak94", "wikidata": "Q61670989"}}, {"type": "node", "id": 1286730391, "lat": 56.8055744, "lon": -132.9355253, "tags": {"aeroway": "helipad", "name": "Temsco"}}, {"type": "node", "id": 1609575297, "lat": 55.3625273, "lon": -131.7093162, "tags": {"aeroway": "helipad", "name": "Wolf Point Helipad"}}, {"type": "node", "id": 1917537885, "lat": 54.3360284, "lon": -130.4423118, "tags": {"aeroway": "helipad", "name": "Metlakatla"}}, {"type": "node", "id": 1917617600, "lat": 54.559861, "lon": -130.4295053, "tags": {"aeroway": "helipad"}}, {"type": "node", "id": 1986480021, "lat": 54.1896427, "lon": -133.005027, "tags": {"aeroway": "helipad"}}, {"type": "node", "id": 1989450874, "lat": 54.0213396, "lon": -132.1170842, "tags": {"aeroway": "helipad"}}, {"type": "node", "id": 2460615176, "lat": 59.612147, "lon": -136.4904466, "tags": {"aeroway": "helipad"}}, {"type": "node", "id": 3119277051, "lat": 55.4064097, "lon": -131.718308, "tags": {"aeroway": "helipad", "name": "Ward Cove Helipad"}}, {"type": "node", "id": 3165914016, "lat": 59.45041, "lon": -135.330514, "tags": {"aeroway": "helipad"}}, {"type": "node", "id": 3165914017, "lat": 59.4512116, "lon": -135.329822, "tags": {"aeroway": "helipad"}}, {"type": "node", "id": 3165914018, "lat": 59.4510998, "lon": -135.330058, "tags": {"aeroway": "helipad"}}, {"type": "node", "id": 3165914019, "lat": 59.450988, "lon": -135.3302887, "tags": {"aeroway": "helipad"}}, {"type": "node", "id": 3165914020, "lat": 59.4508708, "lon": -135.3305301, "tags": {"aeroway": "helipad"}}, {"type": "node", "id": 3165914021, "lat": 59.4507672, "lon": -135.3307661, "tags": {"aeroway": "helipad"}}, {"type": "node", "id": 3165914022, "lat": 59.4505627, "lon": -135.3307822, "tags": {"aeroway": "helipad"}}, {"type": "node", "id": 4817364069, "lat": 59.4366281, "lon": -136.230214, "tags": {"FAA:LFSN": "50296.02*H", "aeroway": "helipad", "faa": "AA35", "name": "35 Mile Lodge Heliport", "wikidata": "Q61670952"}}, {"type": "node", "id": 6929034557, "lat": 54.1916598, "lon": -133.0055248, "tags": {"aeroway": "helipad"}}, {"type": "node", "id": 6929034558, "lat": 54.1918858, "lon": -133.0055141, "tags": {"aeroway": "helipad"}}, {"type": "node", "id": 6929039979, "lat": 54.1916143, "lon": -133.0010107, "tags": {"aeroway": "helipad"}}, {"type": "node", "id": 7360568762, "lat": 54.021116, "lon": -132.1168355, "tags": {"aeroway": "helipad"}}, {"type": "node", "id": 7365414753, "lat": 53.2510177, "lon": -132.038255, "tags": {"aeroway": "helipad"}}, {"type": "node", "id": 7690233364, "lat": 55.7399, "lon": -132.2569075, "tags": {"aeroway": "helipad"}}, {"type": "node", "id": 10047739057, "lat": 57.7795954, "lon": -135.2181199, "tags": {"aeroway": "helipad"}}, {"type": "way", "id": 119094688, "center": {"lat": 59.2454012, "lon": -135.5234873}, "nodes": [1338973928, 1338973264, 1338973679, 1338973517, 1338973928], "tags": {"aeroway": "helipad"}}, {"type": "way", "id": 209935824, "center": {"lat": 54.3314946, "lon": -130.2768444}, "nodes": [2200891738, 2200891736, 2200891737, 2200891739, 2200891738], "tags": {"aeroway": "helipad", "name": "Seal Cove (Coast Guard) Heliport"}}, {"type": "way", "id": 209935826, "center": {"lat": 54.3296437, "lon": -130.2793995}, "nodes": [1042134064, 2200891788, 2200891786, 2200891787, 1042134064], "tags": {"aeroway": "helipad", "name": "Seal Cove (Public) Heliport", "source": "ourairports.com"}}, {"type": "way", "id": 209935860, "center": {"lat": 54.3289991, "lon": -130.2795251}, "nodes": [2200892022, 2200892016, 2200892015, 2200892019, 2200892018, 2200892028, 2200892014, 2200892013, 2200892026, 2200892023, 2200892029, 2200892020, 2200892027, 2200892030, 2200892025, 2200892021, 2200892024, 2200892017, 2200892022], "tags": {"aeroway": "helipad"}}, {"type": "way", "id": 209935862, "center": {"lat": 54.3291201, "lon": -130.2792784}, "nodes": [2200892066, 2200892073, 2200892075, 2200892064, 2200892068, 2200892080, 2200892076, 2200892074, 2200892077, 2200892071, 2200892070, 2200892065, 2200892069, 2200892078, 2200892067, 2200892079, 2200892072, 2200892081, 2200892066], "tags": {"aeroway": "helipad"}}, {"type": "way", "id": 373854461, "center": {"lat": 54.5685409, "lon": -130.7064251}, "nodes": [3772807823, 3772807819, 3772807807, 3772807818, 3772807836, 3772807823], "tags": {"aeroway": "helipad"}}, {"type": "way", "id": 374512260, "center": {"lat": 53.4929274, "lon": -130.6352157}, "nodes": [3779080466, 3779080458, 3779080455, 3779080467, 3779080466], "tags": {"aeroway": "helipad"}}, {"type": "way", "id": 374651001, "center": {"lat": 51.9373073, "lon": -131.015401}, "nodes": [3780452864, 3780452862, 3780452863, 3780452865, 3780452864], "tags": {"aeroway": "helipad"}}, {"type": "way", "id": 374651007, "center": {"lat": 54.2554788, "lon": -133.056296}, "nodes": [3780452971, 3780452958, 3780452954, 3780452953, 3780452957, 3780452970, 3780452978, 3780452979, 3780452971], "tags": {"aeroway": "helipad"}}, {"type": "way", "id": 494180238, "center": {"lat": 54.2947459, "lon": -130.8800741}, "nodes": [4859721465, 4859721466, 4859721467, 4859721468, 4859721469, 4859721470, 4859721471, 4859721472, 4859721473, 4859721455, 4859721456, 4859721459, 4859721460, 4859721461, 4859721462, 4859721463, 4859721464, 4859721457, 4859721458, 4859721465], "tags": {"aeroway": "helipad", "name": "Triple Islands Lighthouse", "wikidata": "Q14949628", "wikipedia": "en:Triple Island Lightstation"}}, {"type": "way", "id": 512989087, "center": {"lat": 58.9717098, "lon": -135.2219879}, "nodes": [5015645079, 5015645078, 5015645077, 5015645076, 5015645075, 5015645074, 5015645073, 5015645072, 5015645079], "tags": {"access": "private", "aeroway": "helipad", "faa": "ERO", "gnis:feature_id": "1417682", "landuse": "military", "lit": "no", "name": "Eldred Rock Coast Guard Heliport", "note": "http://www.airnav.com/airport/ERO", "operator": "U.S. Coast Guard", "ref": "ERO", "start_date": "1967", "surface": "wood"}}, {"type": "way", "id": 694783966, "center": {"lat": 56.0019266, "lon": -134.1357233}, "nodes": [369143893, 6525147978, 6525147977, 6525147976, 6525147975, 6525147974, 8279798910, 6525147973, 6525147972, 369143893], "tags": {"addr:state": "AK", "aeroway": "helipad", "alt_name": "Cape Decision Coast Guard Heliport", "ele": "18", "gnis:county_name": "Petersburg (CA)", "gnis:created": "07/01/1995", "gnis:feature_id": "1417608", "gnis:feature_type": "Airport", "image": "https://www.dvidshub.net/image/1101279/cape-decision-lighthouse", "name": "Cape Decision Coast Guard Heliport", "operator": "CAPE DECISION LIGHTHOUSE SOCIETY", "ref": "CDE", "surface": "paved", "wikidata": "Q61670869"}}, {"type": "way", "id": 694786412, "center": {"lat": 58.1993111, "lon": -136.6400585}, "nodes": [369143910, 6525192898, 8251079841, 6525192897, 6525192896, 369143910], "tags": {"access": "private", "addr:state": "AK", "aeroway": "helipad", "ele": "1", "faa": "CSP", "gnis:county_name": "Hoonah-Angoon (CA)", "gnis:created": "07/01/1995", "gnis:feature_id": "1417615", "gnis:feature_type": "Airport", "icao": "PACA", "image": "https://www.dvidshub.net/image/1087544/public-health-service-physician-year", "landuse": "military", "name": "Cape Spencer Coast Guard Heliport", "operator": "U.S. Coast Guard", "ref": "CSP", "source_ref": "https://www.airnav.com/airport/PACA", "surface": "wood", "wikidata": "Q61670871"}}, {"type": "way", "id": 694787513, "center": {"lat": 57.2706249, "lon": -133.6318166}, "nodes": [369144384, 6525175414, 7716902143, 6525175413, 6525175412, 369144384], "tags": {"access": "private", "addr:state": "AK", "aeroway": "helipad", "ele": "2", "faa": "2AK3", "gnis:county_name": "Hoonah-Angoon (CA)", "gnis:created": "07/01/1995", "gnis:feature_id": "1417711", "gnis:feature_type": "Airport", "landuse": "military", "lit": "no", "name": "Five Finger Coast Guard Heliport", "operator": "U.S. Coast Guard", "ref": "2AK3", "source_ref": "http://www.airnav.com/airport/2AK3", "start_date": "1967", "surface": "wood", "wikidata": "Q61670942"}}, {"type": "way", "id": 694798523, "center": {"lat": 58.4106452, "lon": -134.9546754}, "nodes": [6525317590, 6525317589, 6525317588, 6525317587, 6525317586, 6525317585, 6525315984, 6525315983, 6525317590], "tags": {"aeroway": "helipad"}}, {"type": "way", "id": 799514180, "center": {"lat": 58.3285846, "lon": -134.4657115}, "nodes": [7477297432, 7477297433, 7477297434, 7477297435, 7477297432], "tags": {"aeroway": "helipad", "faa": "AA44", "name": "Bartlett Regional Hospital Heliport", "name_1": "Barlett Regional Hospital Heliport", "ref": "AA44", "surface": "paved", "wikidata": "Q61670990", "year_of_construction": "2007"}}, {"type": "way", "id": 826469954, "center": {"lat": 55.4707308, "lon": -133.1415154}, "nodes": [7716545374, 7716545375, 7716545376, 7716545377, 7716545374], "tags": {"access": "private", "addr:city": "Craig", "addr:state": "AK", "aeroway": "helipad", "ele": "9", "faa": "1AK0", "gnis:county_name": "Prince of Wales-Hyder (CA)", "gnis:created": "07/01/1995", "gnis:feature_id": "1417655", "gnis:feature_type": "Airport", "image": "https://www.dvidshub.net/image/1075902/hh60j-helicopter", "landuse": "military", "lit": "no", "name": "Craig Coast Guard Heliport", "note": "http://www.airnav.com/airport/1AK0", "operator": "U.S. Coast Guard", "surface": "concrete", "wikidata": "Q61670888"}}, {"type": "way", "id": 992667348, "center": {"lat": 54.3120603, "lon": -130.2932308}, "nodes": [1042134081, 9171398982, 9171398983, 9171398984, 9171398985, 9171398986, 9171398987, 9171398988, 9171398989, 9171398990, 9171398991, 9171398974, 9171398977, 9171398978, 9171398979, 9171398980, 9171398981, 9171398975, 9171398976, 1042134081], "tags": {"aeroway": "helipad", "name": "Prince Rupert (Hydro) Heliport", "source": "ourairports.com"}}, {"type": "way", "id": 992672371, "center": {"lat": 54.3051962, "lon": -130.330186}, "nodes": [1042134077, 9171464410, 9171464411, 9171464412, 9171464413, 9171464414, 9171464415, 9171464416, 9171464817, 9171464818, 9171464819, 9171464402, 9171464405, 9171464406, 9171464407, 9171464408, 9171464409, 9171464403, 9171464404, 1042134077], "tags": {"aeroway": "helipad", "name": "Prince Rupert (Hospital) Heliport", "source": "ourairports.com"}}, {"type": "way", "id": 1058912110, "center": {"lat": 58.3585868, "lon": -134.5880932}, "nodes": [9729993898, 9729993899, 9729993900, 9729993901, 9729993902, 9729993903, 9729993904, 9729993905, 9729993887, 9729993888, 9729993891, 9729993892, 9729993893, 9729993894, 9729993895, 9729993896, 9729993897, 9729993889, 9729993890, 9729993898], "tags": {"aeroway": "helipad"}}, {"type": "way", "id": 1058912111, "center": {"lat": 58.3586496, "lon": -134.5885157}, "nodes": [9729993906, 9729993907, 9729993912, 9729993913, 9729993914, 9729993915, 9729993916, 9729999717, 9729993908, 9729993909, 9729993910, 9729999718, 9729999719, 9729999720, 9729999721, 9729999722, 9729999723, 9729999724, 9729993911, 9729993906], "tags": {"aeroway": "helipad"}}, {"type": "way", "id": 1058912112, "center": {"lat": 58.3588846, "lon": -134.5885217}, "nodes": [9729999736, 9729999737, 9729999738, 9729999739, 9729999740, 9729999741, 9729999742, 9729999743, 9729999725, 9729999726, 9729999730, 9729999731, 9729999732, 9729999733, 9729999734, 9729999735, 9729999727, 9729999728, 9729999729, 9729999736], "tags": {"aeroway": "helipad"}}, {"type": "way", "id": 1058912113, "center": {"lat": 58.359114, "lon": -134.5885293}, "nodes": [9729999754, 9729999755, 9729999756, 9729999757, 9729999758, 9729999759, 9729999760, 9729999761, 9729999762, 9729999744, 9729999745, 9729999749, 9729999750, 9729999751, 9729999752, 9729999753, 9729999746, 9729999747, 9729999748, 9729999754], "tags": {"aeroway": "helipad"}}, {"type": "way", "id": 1216112319, "center": {"lat": 59.6986086, "lon": -135.2363156}, "nodes": [11267813309, 11267813308, 11267813307, 11267813306, 11267813309], "tags": {"aeroway": "helipad"}}]}