{"version": 0.6, "generator": "Overpass API 0.7.61.5 4133829e", "osm3s": {"timestamp_osm_base": "2023-10-31T20:43:15Z", "copyright": "The data included in this document is from www.openstreetmap.org. The data is made available under ODbL."}, "elements": [{"type": "node", "id": 794695164, "lat": 65.5737399, "lon": -37.1357931, "tags": {"aeroway": "helipad"}}, {"type": "node", "id": 794696495, "lat": 65.612251, "lon": -37.6182836, "tags": {"aeroway": "helipad", "iata": "AGM", "icao": "BGAM", "name": "Tasiilaq", "name:da": "Tasiilaq Heliport", "name:en": "Tasiilaq Heliport", "name:kl": "Tasiilaq", "operator": "Mittarfeqarfiit", "wikidata": "Q62423", "wikipedia": "en:Tasiilaq Heliport"}}, {"type": "node", "id": 1042134014, "lat": 65.8638178, "lon": -36.9957162, "tags": {"aeroway": "helipad", "iata": "KUZ", "icao": "BGKM", "name": "Kuummiut", "name:da": "Kuummiut Helistop", "name:en": "Kuummiit Heliport", "name:kl": "Kuummiut", "operator": "Mittarfeqarfiit", "source": "ourairports.com", "surface": "gravel", "wikidata": "Q4993126", "wikipedia": "da:Kuummiut Helistop"}}, {"type": "way", "id": 142459901, "center": {"lat": 65.9059147, "lon": -36.3782302}, "nodes": [1559099989, 1559099976, 1559099967, 2055700076, 2055700078, 2055700080, 1559099978, 1559099991, 1559100001, 1559100017, 1559100023, 1559100024, 1559100021, 1559100015, 1559100000, 1559099989], "tags": {"aeroway": "helipad", "iata": "SGG", "icao": "BGSG", "name": "Sermiligaaq Helistop", "surface": "concrete", "wikidata": "Q4993157", "wikipedia": "en:Sermiligaaq Heliport"}}, {"type": "way", "id": 182970939, "center": {"lat": 65.892029, "lon": -37.7834079}, "nodes": [1933336775, 1933336522, 1933336794, 1933336445, 1933336506, 1933336899, 1933336766, 1933336910, 1933336841, 1933336559, 1933336638, 1933336428, 1933336880, 1933336421, 1933336463, 1933336509, 1933336378, 1933336364, 1933336854, 1933336778, 1933336761, 1933336420, 1933336435, 1933336542, 1933336847, 1933336456, 1933336775], "tags": {"aeroway": "helipad", "iata": "TQI", "icao": "BGTN", "name": "Tiniteqilaaq", "name:da": "Tiniteqilaaq Helistop", "name:en": "Tiniteqilaaq Heliport", "source": "ourairports.com", "wikidata": "Q4993153", "wikipedia": "da:Tiniteqilaaq Helistop"}}, {"type": "way", "id": 195300892, "center": {"lat": 65.5465787, "lon": -38.9777252}, "nodes": [5138707137, 5138707138, 5138707139, 5138707140, 2057705971, 2057705967, 2057705964, 2057705963, 2057705961, 2057705926, 5138707134, 5138707135, 5138707136, 2057705923, 5138707132, 2057705962, 2057705965, 5138707133, 2057705969, 5138707137], "tags": {"aeroway": "helipad", "iata": "IOQ", "icao": "BGIS", "name": "Isortoq", "name:da": "Isortoq Helistop", "name:en": "Isortoq Heliport", "note": "Moved before 2008. Bing imagery from 2000-3 (Asiaq Greenland Survey Aerial imagery)", "operator": "Mittarfeqarfiit", "source": "ourairports.com", "surface": "gravel", "wikidata": "Q2902905", "wikipedia": "da:Isortoq Helistop"}}]}