{"version": 0.6, "generator": "Overpass API 0.7.61.5 4133829e", "osm3s": {"timestamp_osm_base": "2023-10-31T20:43:15Z", "copyright": "The data included in this document is from www.openstreetmap.org. The data is made available under ODbL."}, "elements": [{"type": "node", "id": 1042134020, "lat": 60.3572235, "lon": -44.8277779, "tags": {"aeroway": "helipad", "icao": "BGNL", "name": "Nalunaq Heliport", "source": "ourairports.com"}}, {"type": "node", "id": 1042134027, "lat": 60.0572205, "lon": -43.1597214, "tags": {"aeroway": "helipad", "name": "Ikerasassuaq Heliport", "source": "ourairports.com"}}, {"type": "node", "id": 1042144333, "lat": 60.4816666, "lon": -44.2866669, "tags": {"aeroway": "helipad", "name": "Nanortalik Heliport", "source": "ourairports.com"}}, {"type": "node", "id": 1042146996, "lat": 66.3166656, "lon": -46.2833328, "tags": {"aeroway": "helipad", "name": "Raven Ice Landingstrip", "source": "ourairports.com"}}, {"type": "node", "id": 4084678371, "lat": 61.1459291, "lon": -45.5131686, "tags": {"aeroway": "helipad", "iata": "QFT", "icao": "BGQK", "name": "Qassiarsuk Heliport", "name:da": "Qassiarsuk Heliport", "name:fr": "H\u00e9liport de Qassiarsuk"}}, {"type": "way", "id": 182494294, "center": {"lat": 60.4645131, "lon": -45.5692188}, "nodes": [1928569637, 1928569677, 1928569665, 1928569633, 1928574418, 1928569637], "tags": {"aeroway": "helipad", "iata": "LLU", "name": "Alluitsup Paa Heliport", "source": "ourairports.com", "wikidata": "Q4733339"}}, {"type": "way", "id": 182509038, "center": {"lat": 60.6197209, "lon": -45.9140779}, "nodes": [1928691103, 1928691101, 1928691104, 1928691102, 1928691103], "tags": {"aeroway": "helipad", "iata": "QFG", "name": "Eqalugaarsuit Heliport", "source": "ourairports.com", "wikidata": "Q5384081"}}, {"type": "way", "id": 182581743, "center": {"lat": 60.0036238, "lon": -44.6561951}, "nodes": [1929380812, 1929380491, 1929380475, 1929380685, 1929380889, 1929380937, 1929380894, 1929380646, 1929380474, 1929380755, 1929380949, 1929380471, 1929380796, 1929380918, 1929380765, 1929380554, 1929380516, 1929380798, 1929380812], "tags": {"aeroway": "helipad", "alt_name": "Narsarmijit Heliport", "iata": "QFN", "icao": "BGFD", "name": "Narsaq Kujalleq Heliport", "operator": "Mittarfeqarfiit", "surface": "grass", "wikidata": "Q777977", "wikipedia": "en:Narsaq Kujalleq Heliport"}}, {"type": "way", "id": 195795286, "center": {"lat": 61.9924989, "lon": -49.6612053}, "nodes": [2062141841, 2062141833, 2062141824, 2062141817, 2062141803, 2062141791, 2062141777, 2062141773, 2062141771, 2062141770, 2062141772, 2062141775, 2062141789, 2062141805, 2062141822, 2062141839, 2062141849, 2062141857, 2062141852, 2062141844, 2062141841], "tags": {"aeroway": "helipad"}}, {"type": "way", "id": 212728708, "center": {"lat": 60.1483574, "lon": -44.2869094}, "nodes": [2225447414, 2225447416, 2225447415, 1927854187, 2225447413, 2225447414], "tags": {"aeroway": "helipad", "ele": "9.1", "iata": "QUV", "icao": "BGAQ", "name": "Aappilattoq", "name:da": "Aappilattoq Helistop", "name:en": "Aappilattoq Heliport", "surface": "gravel", "wikidata": "Q4661642", "wikipedia": "en:Aappilattoq Heliport (Kujalleq)"}}, {"type": "way", "id": 257567744, "center": {"lat": 60.7156859, "lon": -46.0299504}, "nodes": [2630608643, 3971381975, 2630608644, 10210059660, 2630608645, 3971382385, 2630608646, 2630608647, 2630608648, 10210059665, 2630608649, 5088682147, 5081874678, 2630608650, 2630608651, 2630608652, 2630608653, 2630608654, 3971382374, 5916239292, 3971382206, 3971382200, 2630608643], "tags": {"aeroway": "helipad", "iata": "JJU", "icao": "BGJH", "name": "Qaqortoq Heliport", "operator": "Mittarfeqarfiit", "surface": "asphalt", "wikidata": "Q3305148", "wikipedia": "en:Qaqortoq Heliport"}}, {"type": "way", "id": 334216048, "center": {"lat": 60.9923024, "lon": -45.4314141}, "nodes": [3413206317, 3413206318, 3413206319, 3413206320, 3413206317], "tags": {"aeroway": "helipad", "iata": "QFX", "icao": "BGIO", "name": "Igaliku Heliport", "operator": "Mittarfeqarfiit", "surface": "grass", "wikidata": "Q5991441", "wikipedia": "en:Igaliku Heliport"}}, {"type": "way", "id": 335302409, "center": {"lat": 60.1419264, "lon": -45.233016}, "nodes": [3424224261, 3424224262, 3424224263, 3424224264, 3424224265, 3424224266, 3424224267, 3424224268, 3424224269, 5007766023, 3424224271, 3424224272, 3424224261], "tags": {"aeroway": "helipad", "iata": "JNN", "icao": "BGNN", "name": "Nanortalik Heliport", "operator": "Mittarfeqarfiit", "surface": "asphalt", "wikidata": "Q3566314", "wikipedia": "en:Nanortalik Heliport"}}, {"type": "way", "id": 394114636, "center": {"lat": 60.715774, "lon": -46.0314767}, "nodes": [3971382639, 3971382602, 3971381978, 3971382030, 3971382165, 3971382639], "tags": {"aeroway": "helipad"}}, {"type": "way", "id": 433021593, "center": {"lat": 60.9171776, "lon": -46.0594812}, "nodes": [4319432934, 4319432935, 4319432936, 4319432937, 4319432938, 4319432939, 1042134024, 4319432940, 4319432941, 4319432942, 5007677164, 4319432943, 4319432944, 4319432945, 4319432946, 4319432934], "tags": {"aeroway": "helipad", "iata": "JNS", "icao": "BGNS", "name": "Narsaq", "name:en": "Narsaq Heliport", "ref": "H1", "source": "ourairports.com", "surface": "asphalt", "wikidata": "Q3565611", "wikipedia": "en:Narsaq Heliport"}}, {"type": "way", "id": 528513385, "center": {"lat": 60.5379649, "lon": -46.0229328}, "nodes": [5135872250, 5135872251, 5135872252, 5135872253, 5135872250], "tags": {"aeroway": "helipad", "iata": "QOQ", "icao": "BGSO", "name": "Saarloq Heliport", "surface": "grass", "wikidata": "Q7395699", "wikipedia": "en:Saarloq Heliport"}}, {"type": "way", "id": 528514949, "center": {"lat": 60.5956684, "lon": -45.3828835}, "nodes": [5193893865, 5193893866, 5193893867, 5193893868, 5193893869, 5193893870, 5193893871, 5135900953, 5135900954, 5135900955, 5193893860, 5193893861, 5193893862, 5193893863, 5193893864, 5135900956, 5135900957, 5135900958, 5135900959, 5193893865], "tags": {"aeroway": "helipad", "iata": "QUW", "icao": "BGAS", "name": "Ammassivik Heliport", "surface": "grass", "wikidata": "Q4747210", "wikipedia": "en:Ammassivik Heliport"}}, {"type": "way", "id": 535308138, "center": {"lat": 60.1931863, "lon": -44.8200042}, "nodes": [5189052148, 5189052149, 5189052150, 5189052151, 5189052148], "tags": {"aeroway": "helipad", "iata": "XEQ", "icao": "BGTQ", "name": "Tasiusaq Heliport", "operator": "Mittarfeqarfiit", "surface": "gravel", "wikidata": "Q4993131", "wikipedia": "en:Tasiusaq Heliport (Kujalleq)"}}, {"type": "way", "id": 539484698, "center": {"lat": 60.7792193, "lon": -47.1602323}, "nodes": [5220251578, 5220251586, 5220251579, 5220251580, 5220251581, 5220251578], "tags": {"aeroway": "helipad"}}, {"type": "way", "id": 539643389, "center": {"lat": 60.7793959, "lon": -47.1525678}, "nodes": [5221511850, 5221511851, 5221511856, 5221511852, 5221511853, 5221511854, 5221511855, 5221511837, 5221511838, 5221511839, 5221511843, 5221511844, 5221511845, 5221511846, 5221511847, 5221511848, 5221511849, 5221511840, 5221511841, 5221511842, 5221511850], "tags": {"aeroway": "helipad", "iata": "QJH", "icao": "BGQT", "name": "Qassimiut Heliport", "operator": "Mittarfeqarfiit", "surface": "gravel", "wikidata": "Q7267063", "wikipedia": "en:Qassimiut Heliport"}}, {"type": "way", "id": 1116320494, "center": {"lat": 61.1768577, "lon": -48.4196386}, "nodes": [10210084643, 10210084644, 2057705909, 10210084628, 10210084629, 10210084630, 10210084631, 10210084632, 10210084633, 10210084634, 10210084635, 10210084636, 10210084637, 10210084638, 10210084639, 10210084640, 10210084641, 2057705907, 10210084642, 10210084627, 10210084643], "tags": {"aeroway": "helipad"}}, {"type": "way", "id": 1116320737, "center": {"lat": 61.2290491, "lon": -48.0969612}, "nodes": [1042134002, 10210100807, 10210100808, 10210100809, 10210100810, 10210100793, 10210100794, 10210100795, 10210100796, 10210100801, 10210100802, 10210100803, 10210100804, 10210100805, 10210100806, 10210100797, 10210100798, 10210100799, 10210100800, 1042134002], "tags": {"aeroway": "helipad", "iata": "JGR", "icao": "BGGD", "name": "Kangilinnguit", "name:en": "Kangilinnguit Heliport", "source": "ourairports.com"}}]}