{"version": 0.6, "generator": "Overpass API 0.7.61.5 4133829e", "osm3s": {"timestamp_osm_base": "2023-10-31T20:43:15Z", "copyright": "The data included in this document is from www.openstreetmap.org. The data is made available under ODbL."}, "elements": [{"type": "node", "id": 3807990328, "lat": 60.4368676, "lon": -1.2970331, "tags": {"aeroway": "helipad"}}, {"type": "node", "id": 3807990329, "lat": 60.4369669, "lon": -1.2977278, "tags": {"aeroway": "helipad"}}, {"type": "node", "id": 3807990332, "lat": 60.4371177, "lon": -1.2993452, "tags": {"aeroway": "helipad"}}, {"type": "node", "id": 3807990333, "lat": 60.4371442, "lon": -1.2985298, "tags": {"aeroway": "helipad"}}, {"type": "node", "id": 3807990336, "lat": 60.4367035, "lon": -1.2963358, "tags": {"aeroway": "helipad"}}, {"type": "node", "id": 3807990342, "lat": 60.4366228, "lon": -1.2975723, "tags": {"aeroway": "helipad"}}, {"type": "node", "id": 3807990344, "lat": 60.4367988, "lon": -1.298342, "tags": {"aeroway": "helipad"}}, {"type": "node", "id": 3807990347, "lat": 60.436456, "lon": -1.2968937, "tags": {"aeroway": "helipad"}}, {"type": "node", "id": 3809215910, "lat": 60.812186, "lon": -0.8736371, "tags": {"aeroway": "helipad"}}, {"type": "node", "id": 3809238190, "lat": 60.8556227, "lon": -0.8853892, "tags": {"aeroway": "helipad"}}, {"type": "way", "id": 38855545, "center": {"lat": 62.2766403, "lon": -6.3414616}, "nodes": [9591046383, 9591046384, 9591046385, 461496180, 6499077718, 461496181, 6499077719, 461496182, 461496179, 9591046380, 9591046381, 9591046382, 6499077720, 461496183, 461496184, 461496185, 6499077721, 461496178, 6499077722, 9591046383], "tags": {"aeroway": "helipad", "icao": "EKSO", "name": "Sv\u00ednoy Heliport", "source": "ourairports.com"}}, {"type": "way", "id": 44619165, "center": {"lat": 62.0015916, "lon": -6.7747266}, "nodes": [8025852605, 8025852606, 8025852607, 8025852608, 8025852609, 8025852610, 566451393, 566451400, 566451395, 566451401, 566451408, 8025852601, 8025852602, 8025852603, 8025852604, 566451397, 566451402, 566451399, 566451403, 8025852605], "tags": {"aeroway": "helipad", "name": "Faroe Islands National Hospital Helipad", "source": "ourairports.com"}}, {"type": "way", "id": 44651250, "center": {"lat": 62.1021507, "lon": -7.6458939}, "nodes": [5087819167, 5087819168, 5087819169, 5087819170, 5087819171, 566754480, 566754486, 566754481, 566754485, 5087819172, 5087819173, 5087819174, 5087819175, 5087819176, 5126758237, 5087819177, 566754482, 566754484, 566754483, 566754487, 5087819167], "tags": {"aeroway": "helipad", "icao": "EKMS", "name": "Mykines Heliport", "source": "ourairports.com", "wikidata": "Q56160766"}}, {"type": "way", "id": 119444675, "center": {"lat": 62.317178, "lon": -6.3133212}, "nodes": [9428117540, 9428117541, 9428117542, 9428117543, 9428117544, 1342167967, 4898112655, 1342168155, 1342167785, 1342167795, 9428117536, 9428117537, 9428117538, 9428117539, 1342168022, 1342167921, 1342168243, 4898112654, 1342168281, 9428117540], "tags": {"aeroway": "helipad", "icao": "EKKU", "name": "Kirkja Heliport", "source": "ourairports.com"}}, {"type": "way", "id": 153099184, "center": {"lat": 61.6853303, "lon": -6.7584454}, "nodes": [7937038973, 7937038974, 7937038975, 1658370873, 1658370875, 1658370872, 5846716390, 1658370855, 5846716393, 7937038969, 7937038970, 7937038971, 7937038972, 1658370848, 1658370845, 5846716392, 1658370853, 1658370858, 5846716391, 7937038973], "tags": {"aeroway": "helipad", "icao": "EKSR", "name": "St\u00f3ra D\u00edmun Heliport", "name:en": "St\u00f3ra D\u00edmun Heliport", "source": "ourairports.com"}}, {"type": "way", "id": 202731232, "center": {"lat": 60.8555709, "lon": -0.8853378}, "nodes": [9188053046, 9188053047, 9188053048, 2126772803, 2126772805, 2126772802, 2126772796, 2126772792, 2126772789, 9188053042, 9188053043, 9188053044, 9188053045, 2126772785, 2126772787, 2126772791, 2126772794, 2126772798, 2126772800, 9188053046], "tags": {"aeroway": "helipad"}}, {"type": "way", "id": 261825971, "center": {"lat": 60.8121862, "lon": -0.8736408}, "nodes": [2674504979, 2674504981, 2674504978, 7398099941, 2674504975, 2674504979], "tags": {"aeroway": "helipad", "source": "Bing Sat"}}, {"type": "way", "id": 288216450, "center": {"lat": 62.3231467, "lon": -6.9408255}, "nodes": [2917693091, 2917693086, 4852286334, 4852286337, 11146297219, 11146297220, 11146297221, 11146297222, 2917693085, 2917693084, 4852286326, 4852286327, 4852286328, 4852286329, 11146297216, 11146297217, 11146297218, 4852286330, 2917693089, 2917693091], "tags": {"aeroway": "helipad"}}, {"type": "way", "id": 333575809, "center": {"lat": 60.1510775, "lon": -1.1610816}, "nodes": [6622628837, 6622628838, 6622628839, 6622628840, 6622628841, 6622628842, 6622628843, 3407046487, 3407046485, 6622628829, 6622628830, 6622628831, 6622628832, 6622628833, 6622628834, 6622628835, 6622628836, 3407046486, 3407046489, 6622628837], "tags": {"aeroway": "helipad", "name": "Gilbert Bain Hospital Helipad"}}, {"type": "way", "id": 494477618, "center": {"lat": 62.0216769, "lon": -6.7574241}, "nodes": [1042145898, 4862381656, 6622280540, 4862381654, 4862381653, 4862381652, 6622280541, 4862381651, 4862381650, 4862381649, 4862381648, 4862381647, 6622280542, 4862381646, 4862381645, 4862381644, 6622280538, 4862381643, 4862381642, 1042145898], "tags": {"addr:city": "T\u00f3rshavn", "aeroway": "helipad", "lit": "yes", "name": "Bo\u00f0anes Heliport", "source": "ourairports.com"}}, {"type": "way", "id": 696236548, "center": {"lat": 61.7695616, "lon": -6.8034503}, "nodes": [6538141549, 1042145894, 6538141546, 6538141545, 6538141544, 6538141543, 6538141548, 6538141542, 6538141541, 6538141540, 6538141539, 6538141538, 6538141550, 5360802628, 6538141537, 6538141536, 6538141535, 6538141534, 6538141533, 6538141549], "tags": {"aeroway": "helipad", "icao": "EKSY", "name": "Sk\u00favoy Heliport", "source": "ourairports.com", "wikidata": "Q11708861"}}, {"type": "way", "id": 698780253, "center": {"lat": 62.2176396, "lon": -6.5763688}, "nodes": [6561743454, 6561743455, 6561743456, 6561743457, 6561743458, 6561743459, 6561743432, 6561743442, 6561743443, 6561743447, 6561743448, 6561743449, 6561743450, 6561743451, 6561743452, 6561743453, 6561743444, 6561743445, 6561743446, 6561743454], "tags": {"aeroway": "helipad", "icao": "EKKV", "name": "Klaksv\u00edk Heliport", "source": "ourairports.com"}}, {"type": "way", "id": 839672168, "center": {"lat": 61.9045458, "lon": -6.8841696}, "nodes": [7835368990, 7835368991, 7835368992, 7835368993, 7835368994, 7835368995, 7835368976, 7835368978, 7835368979, 7835368983, 7835368984, 7835368985, 7835368986, 7835368987, 7835368988, 7835368989, 7835368980, 7835368981, 7835368982, 7835368990], "tags": {"aeroway": "helipad", "name": "Skopun Heliport", "source": "ourairports.com"}}, {"type": "way", "id": 956814957, "center": {"lat": 62.3302298, "lon": -6.2764989}, "nodes": [8854527478, 8854527479, 8854527480, 8854527481, 8854527463, 8854527464, 8854527465, 8854527466, 8854527467, 8854527468, 8854527469, 8854527470, 8854527471, 8854527472, 8854527473, 8854527474, 8854527475, 8854527476, 8854527477, 8854527478], "tags": {"aeroway": "helipad", "icao": "EKHI", "name": "Hattarv\u00edk Heliport", "source": "ourairports.com"}}, {"type": "way", "id": 1084026252, "center": {"lat": 62.0659683, "lon": -7.2793087}, "nodes": [9933824415, 9933824414, 9933824413, 9933824412, 9933824411, 9933824410, 9933824409, 9933824408, 9933824407, 9933824406, 9933824405, 9933824404, 9933824403, 9933824402, 9933824401, 9933824400, 9933824399, 9933824398, 9933824397, 9933824396, 9933824415], "tags": {"aeroway": "helipad"}}, {"type": "way", "id": 1084026253, "center": {"lat": 62.0661112, "lon": -7.2798988}, "nodes": [9933850135, 9933850133, 9933850132, 9933850131, 9933850130, 9933850129, 9933850128, 9933850127, 9933850126, 9933850125, 9933850134, 9933850124, 9933850123, 9933850122, 9933850121, 9933850120, 9933850119, 9933850118, 9933850117, 9933824416, 9933850135], "tags": {"aeroway": "helipad"}}, {"type": "way", "id": 1218658199, "center": {"lat": 61.9845958, "lon": -6.9634718}, "nodes": [6832905462, 11292159642, 11292159643, 11292159644, 6832905462], "tags": {"aeroway": "helipad", "icao": "FO-0002", "name": "Koltur Heliport", "source": "ourairports.com"}}, {"type": "way", "id": 1218658796, "center": {"lat": 61.5436818, "lon": -6.7744402}, "nodes": [1042145823, 11292265493, 11292265494, 11292265495, 11292265496, 11292265497, 11292265498, 8248567535, 11292265482, 11292265486, 11292265487, 11292265488, 11292265489, 11292265490, 11292265491, 11292265492, 11292265483, 11292265484, 11292265485, 1042145823], "tags": {"aeroway": "helipad", "icao": "EKFA", "name": "Fro\u00f0ba Heliport", "source": "ourairports.com"}}]}