{"version": 0.6, "generator": "Overpass API 0.7.61.5 4133829e", "osm3s": {"timestamp_osm_base": "2023-10-31T20:50:30Z", "copyright": "The data included in this document is from www.openstreetmap.org. The data is made available under ODbL."}, "elements": [{"type": "node", "id": 2618414052, "lat": -2.2785988, "lon": 40.9068394, "tags": {"amenity": "hospital", "name": "King Fahd Lamu district Hospital"}}, {"type": "node", "id": 4543414240, "lat": -0.3594394, "lon": 42.5511346, "tags": {"amenity": "hospital", "healthcare": "hospital"}}, {"type": "node", "id": 5504249721, "lat": -1.4977527, "lon": 40.0366133, "tags": {"amenity": "hospital", "name": "Medina", "name:en": "Medina Diagnostic"}}, {"type": "node", "id": 6470721213, "lat": -1.49853, "lon": 40.0301403, "tags": {"amenity": "hospital", "healthcare": "hospital", "healthcare:speciality": "general", "name": "Hola District Hospital"}}, {"type": "node", "id": 8915972217, "lat": -1.5990447, "lon": 40.5105691, "tags": {"amenity": "hospital", "name": "Ijara Health Center"}}, {"type": "node", "id": 11143201905, "lat": -0.0745117, "lon": 42.56865, "tags": {"addr:housenumber": "001", "addr:postcode": "JH 09010", "addr:street": "Kismaayo - Jilib Highway", "amenity": "hospital", "opening_hours": "24/7", "phone": "+252615062238"}}, {"type": "way", "id": 127235810, "center": {"lat": -0.3629796, "lon": 42.5469384}, "nodes": [1408774236, 1408774252, 1408774281, 1408774294, 1408774331, 1408774604, 1408774602, 1408774555, 1408774519, 1408774236], "tags": {"amenity": "hospital", "healthcare": "hospital", "name": "Medical Quarters"}}, {"type": "way", "id": 256183090, "center": {"lat": -2.2928516, "lon": 40.9131005}, "nodes": [2618693091, 2618693100, 2618693104, 2618693097, 2618693087, 2618693091], "tags": {"amenity": "hospital", "name": "Shella dispensary"}}, {"type": "way", "id": 791245524, "center": {"lat": -0.3244837, "lon": 42.5636282}, "nodes": [6179022585, 7397031389, 7397031390, 7397031391, 6179022585], "tags": {"amenity": "hospital", "healthcare": "hospital", "name": "SHaadhle Hospital Kismaayo", "phone": "00252619726979"}}, {"type": "way", "id": 792512194, "center": {"lat": -3.2255905, "lon": 40.125235}, "nodes": [1329652002, 7410724696, 7410724697, 7410724698, 7410724699, 1329652002], "tags": {"amenity": "hospital", "healthcare": "hospital", "name": "Malindi Sub-County Hospital", "name:it": "Ospedale"}}, {"type": "way", "id": 798377820, "center": {"lat": -2.5086362, "lon": 40.2858272}, "nodes": [6863016288, 11122056129, 7467282762, 7467282763, 7467282764, 6863016288], "tags": {"amenity": "hospital", "healthcare": "hospital", "name": "Semikaro dispensary"}}, {"type": "way", "id": 1031517214, "center": {"lat": -0.36415, "lon": 42.5469334}, "nodes": [9506741117, 4547397433, 1408774972, 9506741118, 4543292479, 4543292480, 9506741119, 9506741120, 9506741117], "tags": {"amenity": "hospital", "healthcare": "hospital", "name": "Kismayo General Hospital"}}]}