{"version": 0.6, "generator": "Overpass API 0.7.61.5 4133829e", "osm3s": {"timestamp_osm_base": "2023-10-31T20:49:30Z", "copyright": "The data included in this document is from www.openstreetmap.org. The data is made available under ODbL."}, "elements": [{"type": "node", "id": 5906823193, "lat": -8.8722705, "lon": -140.0636264, "tags": {"amenity": "hospital", "name": "Infirmerie de Taipivai"}}, {"type": "node", "id": 7260109485, "lat": -8.9155388, "lon": -140.0928304, "tags": {"amenity": "hospital", "name": "Laboratoire"}}, {"type": "node", "id": 7260109685, "lat": -8.9150291, "lon": -140.0929533, "tags": {"amenity": "hospital", "name": "Cellule de la Sant\u00e9"}}, {"type": "node", "id": 7290737586, "lat": -8.9156134, "lon": -140.0916446, "tags": {"amenity": "hospital", "name": "Dentiste"}}, {"type": "way", "id": 175237406, "center": {"lat": -8.9160901, "lon": -140.0923741}, "nodes": [1858671210, 1858671264, 1858671333, 1858671382, 1858671384, 1858671383, 1858671317, 1858671223, 1858671210], "tags": {"amenity": "hospital", "name": "Louis Rollin"}}]}