{"version": 0.6, "generator": "Overpass API 0.7.61.5 4133829e", "osm3s": {"timestamp_osm_base": "2023-10-31T20:50:30Z", "copyright": "The data included in this document is from www.openstreetmap.org. The data is made available under ODbL."}, "elements": [{"type": "node", "id": 506540736, "lat": -5.866935, "lon": -35.224186, "tags": {"amenity": "hospital", "name": "UMS Cidade Sat\u00e9lite"}}, {"type": "node", "id": 713261830, "lat": -5.8247616, "lon": -35.2251955, "tags": {"amenity": "hospital", "healthcare": "hospital", "name": "SESI Cl\u00ednica", "operator": "SESI"}}, {"type": "node", "id": 790023635, "lat": -9.2477042, "lon": -36.0174265, "tags": {"amenity": "hospital", "source": "CBERS, INPE, 20-10-2008"}}, {"type": "node", "id": 791438160, "lat": -9.3168796, "lon": -36.4774663, "tags": {"amenity": "hospital", "source": "CBERS, INPE, 03-01-2009"}}, {"type": "node", "id": 795934615, "lat": -9.4827869, "lon": -35.8539095, "tags": {"amenity": "hospital"}}, {"type": "node", "id": 813263723, "lat": -6.1877608, "lon": -35.0920405, "tags": {"amenity": "hospital", "healthcare": "hospital", "name": "Unidade Mista de Sa\u00fade", "source": "Bing"}}, {"type": "node", "id": 831326539, "lat": -8.8411543, "lon": -35.4575903, "tags": {"amenity": "hospital", "source": "IBGE"}}, {"type": "node", "id": 845009397, "lat": -7.1293045, "lon": -34.8584839, "tags": {"amenity": "hospital", "healthcare": "hospital", "name": "Sta. Thereza"}}, {"type": "node", "id": 884419115, "lat": -7.1464496, "lon": -35.2630824, "tags": {"amenity": "hospital", "source": "local_knowledge"}}, {"type": "node", "id": 943124181, "lat": -7.2214135, "lon": -36.6311912, "tags": {"amenity": "hospital", "emergency": "yes"}}, {"type": "node", "id": 1734297311, "lat": -7.7361617, "lon": -37.9786608, "tags": {"amenity": "hospital", "emergency": "yes", "healthcare": "hospital", "name": "CESPE - Hospital Regional de Princesa Isabel"}}, {"type": "node", "id": 1754038836, "lat": -4.6781873, "lon": -37.8210061, "tags": {"amenity": "hospital", "emergency": "yes", "healthcare": "hospital", "name": "Hospital e Maternidade", "operator": "Sistema \u00danico de Sa\u00fade", "operator:short": "SUS", "operator:wikidata": "Q7531056"}}, {"type": "node", "id": 1754044911, "lat": -4.6776467, "lon": -37.828615, "tags": {"amenity": "hospital", "name": "Posto de Sa\u00fade da Fam\u00edlia"}}, {"type": "node", "id": 1754045402, "lat": -4.682341, "lon": -37.826158, "tags": {"amenity": "hospital", "name": "Posto de Sa\u00fade da Fam\u00edlia S\u00e3o Francisco"}}, {"type": "node", "id": 1754350974, "lat": -4.7299233, "lon": -37.8074577, "tags": {"amenity": "hospital", "name": "PSF Alto Ferr\u00e3o"}}, {"type": "node", "id": 1754512249, "lat": -4.7305007, "lon": -37.7797344, "tags": {"amenity": "hospital", "name": "Posto de Sa\u00fade da Fam\u00edlia"}}, {"type": "node", "id": 1813389064, "lat": -6.9292495, "lon": -37.0957754, "tags": {"amenity": "hospital", "healthcare": "hospital", "name": "Casa de Sa\u00fade e Maternidade Nossa Senhora da Concei\u00e7\u00e3o"}}, {"type": "node", "id": 1883262298, "lat": -6.9196075, "lon": -38.3236201, "tags": {"amenity": "hospital", "healthcare": "hospital"}}, {"type": "node", "id": 1909915535, "lat": -6.8630073, "lon": -37.4513658, "tags": {"amenity": "hospital", "emergency": "no", "name": "Posto M\u00e9dico Serra do Tronco"}}, {"type": "node", "id": 1972200153, "lat": -9.628719, "lon": -35.750989, "tags": {"amenity": "hospital", "healthcare": "hospital", "name": "Casa de Sa\u00fade Miguel Couto"}}, {"type": "node", "id": 2148991086, "lat": -7.7413845, "lon": -37.9949045, "tags": {"amenity": "hospital", "healthcare": "hospital"}}, {"type": "node", "id": 2149595800, "lat": -7.7783148, "lon": -38.0229684, "tags": {"amenity": "hospital", "emergency": "no", "healthcare": "hospital", "healthcare:speciality": "general", "name": "Posto de Sa\u00fade"}}, {"type": "node", "id": 2178660245, "lat": -5.0840113, "lon": -37.6109155, "tags": {"amenity": "hospital"}}, {"type": "node", "id": 2343943946, "lat": -7.7995154, "lon": -36.6579562, "tags": {"amenity": "hospital", "healthcare": "hospital", "name": "ESF II"}}, {"type": "node", "id": 2343943950, "lat": -7.7954121, "lon": -36.661195, "tags": {"addr:city": "CONGO", "addr:housename": "RUA SENADOR RUI CARNEIRO", "amenity": "hospital", "healthcare": "hospital", "name": "Posto M\u00e9dico"}}, {"type": "node", "id": 2343943956, "lat": -7.7927232, "lon": -36.6615114, "tags": {"amenity": "hospital", "healthcare": "hospital", "name": "ESF I"}}, {"type": "node", "id": 2450554146, "lat": -8.9764077, "lon": -38.2156603, "tags": {"amenity": "hospital", "name": "Hospital Municipal Dr. Francisco Sim\u00f5es de Lima"}}, {"type": "node", "id": 2452988628, "lat": -8.9774603, "lon": -38.2244012, "tags": {"amenity": "hospital", "name": "Cl\u00ednica S\u00e3o Gabriel e Laborat\u00f3rio de Analises Clinicas"}}, {"type": "node", "id": 2453233680, "lat": -8.9723274, "lon": -38.2259809, "tags": {"amenity": "hospital", "name": "PSF Renascer"}}, {"type": "node", "id": 2454129142, "lat": -8.9772699, "lon": -38.2253431, "tags": {"amenity": "hospital", "name": "PSF Dr. Herminio"}}, {"type": "node", "id": 2454129172, "lat": -8.9720758, "lon": -38.220369, "tags": {"amenity": "hospital", "name": "PSF Ant\u00f4nio Firmino"}}, {"type": "node", "id": 2454129176, "lat": -8.9832373, "lon": -38.2227261, "tags": {"amenity": "hospital", "name": "PSF Santa In\u00eas"}}, {"type": "node", "id": 2454223052, "lat": -8.9818536, "lon": -38.2192938, "tags": {"amenity": "hospital", "name": "Clinica Neurocordis e Laborat\u00f3rio Jaques"}}, {"type": "node", "id": 2454671197, "lat": -8.9785552, "lon": -38.217373, "tags": {"amenity": "hospital", "name": "Lacpetro Laborat\u00f3rio de Analises Clinicas"}}, {"type": "node", "id": 2455535353, "lat": -8.9831445, "lon": -38.2221545, "tags": {"amenity": "hospital", "name": "Ideal Diagn\u00f3stico Laborat\u00f3rio de Analises Clinicas"}}, {"type": "node", "id": 2456064608, "lat": -8.9724373, "lon": -38.2172862, "tags": {"amenity": "hospital", "name": "Hospital Particular S\u00e3o Thiago"}}, {"type": "node", "id": 2456064609, "lat": -8.9763486, "lon": -38.2163231, "tags": {"amenity": "hospital", "name": "Biomed Laborat\u00f3rio de Analises Clinicas"}}, {"type": "node", "id": 2456067267, "lat": -8.9621006, "lon": -38.2487459, "tags": {"amenity": "hospital", "name": "PSF Apol\u00f4nio Sales"}}, {"type": "node", "id": 2482535957, "lat": -5.3088397, "lon": -38.922551, "tags": {"amenity": "hospital", "name": "Hospital Senador Carlos Jereisati"}}, {"type": "node", "id": 2567165765, "lat": -8.9820358, "lon": -38.2196404, "tags": {"amenity": "hospital", "name": "EndorCardio"}}, {"type": "node", "id": 2579124683, "lat": -7.998774, "lon": -34.9796734, "tags": {"amenity": "hospital", "name": "CEMEC"}}, {"type": "node", "id": 2593136761, "lat": -7.8649257, "lon": -35.5892327, "tags": {"addr:place": "Asa Branca", "addr:street": "Avenida Doutor Severino Ap\u00falio Cavalcante", "amenity": "hospital", "name": "Hospital Municipal Joana Amelia Cavalcante", "note": "Local sem n\u00famero", "phone": "+55 81 3648-1228"}}, {"type": "node", "id": 2642187034, "lat": -7.2894239, "lon": -35.6122463, "tags": {"addr:city": "Ing\u00e1", "addr:housename": "Hospital Tiburcio Valeriano de Oliveira", "addr:street": "Rua Padre Jos\u00e9 Alves", "amenity": "hospital", "healthcare": "hospital", "name": "Hospital Tiburcio Valeriano de Oliveira"}}, {"type": "node", "id": 2655205431, "lat": -9.7353765, "lon": -36.6743688, "tags": {"amenity": "hospital"}}, {"type": "node", "id": 2667853936, "lat": -7.3779693, "lon": -35.6293319, "tags": {"addr:city": "Itatuba", "addr:street": "Rua Davi A C\u00e2mara", "amenity": "hospital", "healthcare": "hospital"}}, {"type": "node", "id": 2673618371, "lat": -6.7813091, "lon": -35.4267883, "tags": {"amenity": "hospital", "name": "Posto de Saude"}}, {"type": "node", "id": 2675035762, "lat": -7.893585, "lon": -37.120602, "tags": {"amenity": "hospital", "healthcare": "hospital", "name": "Hospital Regional Santa Filomena", "opening_hours": "24/7"}}, {"type": "node", "id": 2677891155, "lat": -5.7844064, "lon": -35.1951467, "tags": {"amenity": "hospital", "healthcare": "hospital", "name": "Laborat\u00f3rio Unimed", "operator": "Unimed", "operator:wikidata": "Q7865295"}}, {"type": "node", "id": 2684569775, "lat": -6.6416926, "lon": -35.2948761, "tags": {"amenity": "hospital", "name": "Centro de Sa\u00fade"}}, {"type": "node", "id": 2684569780, "lat": -6.6413469, "lon": -35.294426, "tags": {"amenity": "hospital"}}, {"type": "node", "id": 2684575610, "lat": -7.6914744, "lon": -36.155426, "tags": {"amenity": "hospital", "healthcare": "hospital"}}, {"type": "node", "id": 2685161653, "lat": -6.7672124, "lon": -36.2475777, "tags": {"amenity": "hospital"}}, {"type": "node", "id": 2690514739, "lat": -7.5492525, "lon": -35.713604, "tags": {"amenity": "hospital", "healthcare": "hospital"}}, {"type": "node", "id": 2697162301, "lat": -6.7023606, "lon": -35.5361862, "tags": {"amenity": "hospital", "name": "Hospital Santa L\u00facia"}}, {"type": "node", "id": 2697162304, "lat": -6.6896815, "lon": -35.5365448, "tags": {"amenity": "hospital"}}, {"type": "node", "id": 2699861750, "lat": -7.5154095, "lon": -34.9169083, "tags": {"amenity": "hospital"}}, {"type": "node", "id": 2710134343, "lat": -6.0451175, "lon": -38.4598582, "tags": {"addr:city": "Pereiro", "addr:postcode": "63.460-000", "addr:street": "Rua Dr Ant\u00f4nio Augusto", "addr:suburb": "Centro", "amenity": "hospital", "emergency": "yes", "healthcare": "hospital", "internet_access": "yes", "name": "Hospital Municipal Humberto de Queiroz", "wheelchair": "yes"}}, {"type": "node", "id": 2754894382, "lat": -9.2613471, "lon": -37.9344562, "tags": {"amenity": "hospital"}}, {"type": "node", "id": 2759935918, "lat": -9.373734, "lon": -36.2404007, "tags": {"amenity": "hospital"}}, {"type": "node", "id": 2776482689, "lat": -9.1572497, "lon": -36.0294742, "tags": {"amenity": "hospital", "name": "Hospital Geral da Uni\u00e3o"}}, {"type": "node", "id": 2776906052, "lat": -9.1596253, "lon": -36.0288474, "tags": {"amenity": "hospital", "name": "Hospital S\u00e3o Vicente"}}, {"type": "node", "id": 3124528562, "lat": -5.0670006, "lon": -36.0417599, "tags": {"addr:city": "S\u00e3o Bento do Norte", "addr:housenumber": "437", "addr:street": "Rua Jos\u00e9 Pereira de Aquino", "amenity": "hospital", "name": "Maternidade Hospital"}}, {"type": "node", "id": 3219303534, "lat": -9.7830702, "lon": -36.0975001, "tags": {"amenity": "hospital", "name": "Santa Casa de Miseric\u00f3rdia"}}, {"type": "node", "id": 3256840072, "lat": -7.7419404, "lon": -37.994859, "tags": {"addr:city": "Princesa Isabel", "addr:postcode": "58755000", "addr:street": "Rua Alfredo Carlos", "addr:suburb": "Maia", "amenity": "hospital", "emergency": "yes", "healthcare": "hospital", "name": "UPA - Unidade de Pronto Atendimento"}}, {"type": "node", "id": 3295845605, "lat": -9.5325413, "lon": -36.9812169, "tags": {"addr:street": "Conjunto Arthur Leite", "amenity": "hospital", "name": "UNIDADE SAUDE DA FAMILIA DR JOAO ROCHA FILHO"}}, {"type": "node", "id": 3301687961, "lat": -7.1199009, "lon": -34.869393, "tags": {"addr:city": "Jo\u00e3o Pessoa", "addr:street": "Avenida Presidente Epit\u00e1cio Pessoa", "amenity": "hospital", "name": "CLIM", "operator": "Maternidade"}}, {"type": "node", "id": 3358787123, "lat": -7.1275197, "lon": -34.8706583, "tags": {"addr:city": "Jo\u00e3o Pessoa", "addr:housenumber": "1119", "addr:postcode": "58013-420", "addr:street": "Avenida Dom Pedro II", "addr:suburb": "Centro", "amenity": "hospital", "name": "Hemocentro da Para\u00edba"}}, {"type": "node", "id": 3382422767, "lat": -8.9920734, "lon": -39.9055745, "tags": {"addr:city": "Cura\u00e7\u00e1", "addr:postcode": "48930-000", "addr:street": "Avenida Dr. Euvaldo Torres de Aquino", "addr:suburb": "Centro", "amenity": "hospital", "emergency": "yes", "name": "Hospital Municipal Doutor Antonio Carlos Magalh\u00e3es"}}, {"type": "node", "id": 3414473602, "lat": -9.5284588, "lon": -36.9878706, "tags": {"addr:street": "RUA AMELIA ALVES", "amenity": "hospital", "name": "UNIDADE MISTA DR EZECHIAS DA ROCHA"}}, {"type": "node", "id": 3414473603, "lat": -9.5286678, "lon": -36.9875246, "tags": {"addr:street": "RUA AMELIA ALVES", "amenity": "hospital", "name": "UNIDADE SAUDE DA FAMILIA DR LIVIA PEDROSA M ALVES"}}, {"type": "node", "id": 3498127769, "lat": -7.9475755, "lon": -34.8262522, "tags": {"amenity": "hospital", "name": "Hospital Nossa Senhora do \u00d3"}}, {"type": "node", "id": 3593249574, "lat": -7.9453809, "lon": -36.2062802, "tags": {"addr:city": "Santa Cruz do Capibaribe", "addr:postcode": "55190-000", "addr:street": "Avenida Souza Arag\u00e3o", "addr:suburb": "Nova Santa Cruz", "amenity": "hospital", "healthcare": "hospital", "name": "Hospital Materno Infantil", "note": "Local sem n\u00famero"}}, {"type": "node", "id": 3593249575, "lat": -7.9527021, "lon": -36.2070742, "tags": {"addr:street": "Avenida 29 de Dezembro", "amenity": "hospital", "healthcare": "hospital", "name": "Hospital Municipal Raymundo Francelino Arag\u00e3o"}}, {"type": "node", "id": 3641452309, "lat": -9.532882, "lon": -37.2935807, "tags": {"amenity": "hospital", "healthcare": "hospital"}}, {"type": "node", "id": 3659115452, "lat": -9.9040647, "lon": -36.359887, "tags": {"amenity": "hospital"}}, {"type": "node", "id": 3704738919, "lat": -9.0099212, "lon": -36.0574188, "tags": {"amenity": "hospital", "healthcare": "hospital"}}, {"type": "node", "id": 3724869782, "lat": -8.9096391, "lon": -35.7169612, "tags": {"amenity": "hospital"}}, {"type": "node", "id": 3802877820, "lat": -8.7497499, "lon": -37.3410874, "tags": {"amenity": "hospital"}}, {"type": "node", "id": 3803320630, "lat": -8.9780808, "lon": -39.1021889, "tags": {"amenity": "hospital"}}, {"type": "node", "id": 3812412818, "lat": -8.7197255, "lon": -39.1141703, "tags": {"amenity": "hospital", "name": "Unidade de Sa\u00fade B\u00e1sica"}}, {"type": "node", "id": 3812412838, "lat": -8.7214753, "lon": -39.1153934, "tags": {"amenity": "hospital"}}, {"type": "node", "id": 3815415103, "lat": -4.0964625, "lon": -38.5089244, "tags": {"addr:city": "Horizonte-ce", "addr:postcode": "62880-000", "addr:street": "Rua Manoel Luis", "addr:suburb": "Buenos Aires 2", "amenity": "hospital", "name": "posto de saude"}}, {"type": "node", "id": 3898105498, "lat": -4.0976655, "lon": -38.4872287, "tags": {"addr:city": "Horizonte", "addr:housenumber": "45", "addr:postcode": "62880-000", "addr:street": "Rua Luiza Romana da Concei\u00e7\u00e3o", "addr:suburb": "Zumbi", "amenity": "hospital", "name": "HMVRS - Hospital Municipal Raimundo Ven\u00e2ncio de Sousa", "operator": "Prefeitura Municipal de Horizonte"}}, {"type": "node", "id": 3898140294, "lat": -4.1061647, "lon": -38.495412, "tags": {"addr:street": "Rua Ciro Bilhar", "amenity": "hospital", "emergency": "yes", "name": "UPA - Unidade de Pronto Atendimento", "operator": "Prefeitura Municipal de Horizonte"}}, {"type": "node", "id": 3925867485, "lat": -3.2841671, "lon": -39.2639202, "tags": {"amenity": "hospital", "emergency": "yes", "healthcare": "hospital", "healthcare:speciality": "general;radiology", "name": "Hospital Municipal de Trairi Cear\u00e1", "operator": "Prefeitura Municipal de Trairi", "phone": "+558533511504", "source": "local knowledge;aerial imagery", "wheelchair": "yes"}}, {"type": "node", "id": 3944916462, "lat": -7.9202453, "lon": -34.8911962, "tags": {"amenity": "hospital", "name": "Hospital Miguel Arraes"}}, {"type": "node", "id": 3949084482, "lat": -3.9425315, "lon": -39.4285803, "tags": {"amenity": "hospital", "name": "Centro de Sa\u00fade"}}, {"type": "node", "id": 3969571256, "lat": -6.7797955, "lon": -37.8030662, "tags": {"amenity": "hospital", "healthcare": "hospital", "name": "UPA 24h", "opening_hours": "24/7"}}, {"type": "node", "id": 4068607307, "lat": -6.9250072, "lon": -38.6733275, "tags": {"amenity": "hospital", "healthcare": "hospital", "name": "Hospital de Cachoeira dos \u00cdndios"}}, {"type": "node", "id": 4135920204, "lat": -6.1326063, "lon": -39.8749375, "tags": {"amenity": "hospital", "name": "Hospital Municipal de Catarina"}}, {"type": "node", "id": 4146829254, "lat": -9.9648667, "lon": -39.1646983, "tags": {"amenity": "hospital"}}, {"type": "node", "id": 4195624622, "lat": -3.5592938, "lon": -39.9716884, "tags": {"amenity": "hospital", "name": "Hospital e Maternidade de Mira\u00edma"}}, {"type": "node", "id": 4196982090, "lat": -6.4808978, "lon": -35.4304607, "tags": {"amenity": "hospital", "healthcare": "hospital", "name": "Hospital P\u00fablico"}}, {"type": "node", "id": 4197246980, "lat": -3.7374475, "lon": -38.5720721, "tags": {"amenity": "hospital", "healthcare": "hospital", "name": "SAMU - UFC"}}, {"type": "node", "id": 4224318901, "lat": -8.0747425, "lon": -39.1214232, "tags": {"amenity": "hospital", "healthcare": "hospital", "name": "Casa de Sa\u00fade NS de F\u00e1tima Maternidade"}}, {"type": "node", "id": 4226111081, "lat": -5.9166248, "lon": -39.2654451, "tags": {"amenity": "hospital", "name": "Hospital Municipal"}}, {"type": "node", "id": 4243260590, "lat": -7.1653007, "lon": -34.7988444, "tags": {"addr:street": "Rua Santos Coelho", "amenity": "hospital", "healthcare": "hospital", "name": "USF da Penha"}}, {"type": "node", "id": 4266369542, "lat": -6.2294492, "lon": -36.0066778, "tags": {"amenity": "hospital", "name": "Hospital Regional Alu\u00edsio Bezerra"}}, {"type": "node", "id": 4294609591, "lat": -9.6389212, "lon": -35.7465404, "tags": {"addr:street": "Avenida Major C\u00edcero de G\u00f3es Monteiro", "amenity": "hospital", "healthcare": "hospital", "name": "Casa de Sa\u00fade e Clinica de Repouso Ulisses Pernambucano"}}, {"type": "node", "id": 4294630891, "lat": -9.6326701, "lon": -35.7495857, "tags": {"addr:street": "Avenida Major C\u00edcero de G\u00f3es Monteiro", "amenity": "hospital", "healthcare": "hospital", "name": "Hospital psiqui\u00e1trico Dr. Jos\u00e9 Lopez"}}, {"type": "node", "id": 4317672791, "lat": -7.1301354, "lon": -34.8563156, "tags": {"amenity": "hospital", "healthcare": "hospital", "name": "Unimed", "wheelchair": "yes"}}, {"type": "node", "id": 4341105389, "lat": -9.6628573, "lon": -35.7408078, "tags": {"amenity": "hospital", "healthcare": "hospital", "name": "Hospital M\u00e9dico"}}, {"type": "node", "id": 4382390446, "lat": -6.9306319, "lon": -39.5689167, "tags": {"amenity": "hospital", "name": "Hospital Municipal De Farias Brito"}}, {"type": "node", "id": 4421414870, "lat": -8.4153137, "lon": -37.0713982, "tags": {"amenity": "hospital", "name": "Hospital Memorial"}}, {"type": "node", "id": 4421451224, "lat": -8.4223866, "lon": -37.0546915, "tags": {"amenity": "hospital", "healthcare": "hospital", "name": "Hospital Regional"}}, {"type": "node", "id": 4424206353, "lat": -8.4680609, "lon": -36.7775264, "tags": {"amenity": "hospital", "healthcare": "hospital", "name": "SAMU"}}, {"type": "node", "id": 4448618256, "lat": -8.0677727, "lon": -34.8941932, "tags": {"addr:city": "Recife", "addr:housenumber": "188", "addr:postcode": "50070-520", "addr:street": "Pra\u00e7a Miguel Cervantes", "addr:suburb": "Ilha do Leite", "amenity": "hospital", "emergency": "yes", "healthcare": "hospital", "name": "Hospital Unimed Recife", "operator": "Unimed", "operator:wikidata": "Q7865295", "operator:wikipedia": "pt:Unimed", "phone": "+55 81 3413-9000", "website": "https://www.unimedrecife.com.br/"}}, {"type": "node", "id": 4477147297, "lat": -3.7338993, "lon": -38.5350333, "tags": {"addr:city": "Fortaleza", "addr:housenumber": "1367", "addr:street": "Avenida Trist\u00e3o Gon\u00e7alves", "addr:suburb": "Centro", "amenity": "hospital", "healthcare": "hospital", "name": "Hospital SOS"}}, {"type": "node", "id": 4477147298, "lat": -3.7333553, "lon": -38.5305265, "tags": {"addr:city": "Fortaleza", "addr:housenumber": "1722", "addr:street": "Rua Bar\u00e3o do Rio Branco", "addr:suburb": "Centro", "amenity": "hospital", "healthcare": "hospital", "name": "Hospital Prontom\u00e9dico"}}, {"type": "node", "id": 4488748369, "lat": -3.9824592, "lon": -38.6193257, "tags": {"amenity": "hospital", "emergency": "yes", "healthcare": "hospital", "healthcare:speciality": "general", "name": "Hospital Municipal de Pacatuba", "operator": "Prefeitura Municipal de Pacatuba", "operator:type": "public"}}, {"type": "node", "id": 4525026321, "lat": -7.198118, "lon": -37.9235248, "tags": {"amenity": "hospital", "healthcare": "hospital", "name": "Hospital Jo\u00e3o Agripino"}}, {"type": "node", "id": 4527008389, "lat": -5.2694682, "lon": -38.2684709, "tags": {"amenity": "hospital"}}, {"type": "node", "id": 4685469342, "lat": -6.3182409, "lon": -38.2852965, "tags": {"amenity": "hospital", "name": "Hospital e Maternidade M\u00e3e Fraza"}}, {"type": "node", "id": 4690602191, "lat": -3.7351486, "lon": -38.5045482, "tags": {"addr:housenumber": "1222", "addr:street": "Rua Jos\u00e9 Vilar", "amenity": "hospital", "healthcare": "hospital", "name": "Unimed - Aldeota", "operator": "Unimed", "operator:wikidata": "Q7865295"}}, {"type": "node", "id": 4699648602, "lat": -6.2792374, "lon": -35.498275, "tags": {"amenity": "hospital"}}, {"type": "node", "id": 4700377689, "lat": -8.141203, "lon": -35.3949606, "tags": {"addr:postcode": "55630-000", "addr:street": "Rua Expedito Vieira Soares", "amenity": "hospital", "name": "Hospital Virg\u00ednia Cola\u00e7o Dias", "name:pt": "Hospital Virg\u00ednia cola\u00e7o dias", "opening_hours": "24/7", "phone": "+55 81 3536-1232"}}, {"type": "node", "id": 4705447695, "lat": -8.14144, "lon": -35.3948064, "tags": {"addr:postcode": "55630-000", "addr:street": "Rua Expedito Vieira Soares", "amenity": "hospital", "name": "Hospital virginia cola\u00e7o dias", "name:pt": "Hospital virginia cola\u00e7o dias", "phone": "+55 81 3536-1232"}}, {"type": "node", "id": 4778840340, "lat": -6.8830967, "lon": -39.8722184, "tags": {"addr:city": "Assar\u00e9", "addr:postcode": "63.140-000", "addr:street": "Av. Perimetral", "addr:suburb": "Pedra de Fogo", "amenity": "hospital", "name": "Hospital Municipal Nossa Senhora das Dores"}}, {"type": "node", "id": 4806509226, "lat": -8.036017, "lon": -34.9107006, "tags": {"addr:city": "Recife", "addr:housenumber": "95", "addr:postcode": "52060-000", "addr:street": "Avenida Parnamirim", "addr:suburb": "Parnamirim", "amenity": "hospital", "description": "Prestar servi\u00e7os na \u00e1rea de sa\u00fade, com diferencial em qualidade e \u00e9tica, contribuindo para a satisfa\u00e7\u00e3o da comunidade.", "emergency": "yes", "healthcare": "hospital", "name": "Hospital Maria Lucinda", "name:pt": "Hospital Maria Lucinda", "phone": "+55 81 3267-4200", "website": "http://www.hospitalmarialucinda.com"}}, {"type": "node", "id": 4857503122, "lat": -5.9422673, "lon": -35.2783193, "tags": {"addr:city": "Parnamirim - RN", "addr:postcode": "59144-375", "addr:street": "Rua Rosa Fernandes", "addr:suburb": "Nova Esperan\u00e7a", "amenity": "hospital", "emergency": "yes", "healthcare": "hospital", "name": "UPA Nova Esperan\u00e7a", "name:pt": "UPA Nova Esperan\u00e7a", "phone": "+55 (84) 3644-8116", "website": "https://parnamirim.rn.gov.br/"}}, {"type": "node", "id": 4875079221, "lat": -6.971286, "lon": -34.8355436, "tags": {"amenity": "hospital", "healthcare": "hospital", "name": "Hospital e Maternidade Municipal Padre Alfredo Barbosa", "name:pt": "Hospital e Maternidade Municipal Padre Alfredo Barbosa"}}, {"type": "node", "id": 4959779636, "lat": -9.5361138, "lon": -36.4316032, "tags": {"amenity": "hospital"}}, {"type": "node", "id": 4962958622, "lat": -8.0576206, "lon": -34.8848645, "tags": {"addr:city": "Recife", "addr:housenumber": "563", "addr:street": "R. Do hospicio", "addr:suburb": "Boa Vista", "amenity": "hospital", "email": "ouvidoria@hmar.eb.mil.br", "healthcare": "hospital", "name": "HMAR", "name:pt": "HMAR", "phone": "+55 81 2123-4906", "website": "https://hmar.eb.mil.br/"}}, {"type": "node", "id": 4995111006, "lat": -7.0250162, "lon": -37.2735881, "tags": {"addr:city": "Patos", "addr:housenumber": "295", "addr:postcode": "58700-350", "addr:street": "Avenida Doutor Pedro Firmino", "addr:suburb": "Bras\u00edlia", "amenity": "hospital", "healthcare": "hospital", "name": "Unimed Patos", "operator": "Unimed", "operator:wikidata": "Q7865295", "website": "http://www.unimedpto.com.br"}}, {"type": "node", "id": 5031048228, "lat": -7.9783967, "lon": -38.3053869, "tags": {"amenity": "hospital", "name": "Clinica de Repouso S\u00e3o Vicente"}}, {"type": "node", "id": 5120084023, "lat": -7.4294856, "lon": -34.9114107, "tags": {"amenity": "hospital", "name": "Hospital", "name:pt": "Hospital"}}, {"type": "node", "id": 5123419621, "lat": -9.64594, "lon": -35.7373928, "tags": {"amenity": "hospital", "healthcare": "hospital"}}, {"type": "node", "id": 5151736573, "lat": -9.5517541, "lon": -35.7356178, "tags": {"addr:city": "Macei\u00f3", "addr:housenumber": "935-981", "addr:postcode": "57084-700", "addr:street": "AL 105", "amenity": "hospital", "healthcare": "hospital", "name": "UPA Benedito Bendes"}}, {"type": "node", "id": 5159823624, "lat": -6.848753, "lon": -35.4888436, "tags": {"addr:housenumber": "447", "addr:street": "Rua Jo\u00e3o Pimentel Filho", "amenity": "hospital", "name": "Hospital Regional de Guarabira", "opening_hours": "24/7"}}, {"type": "node", "id": 5189048621, "lat": -9.1645301, "lon": -36.6869701, "tags": {"addr:postcode": "55330-000", "addr:street": "Rua Cleto Campelo", "amenity": "hospital", "name": "Hospital Monsenhor Alfredo D\u00e2maso"}}, {"type": "node", "id": 5237321621, "lat": -9.7448367, "lon": -36.6361849, "tags": {"addr:housenumber": "344", "addr:street": "Rodovia AL220, Km 2, Senador Arnon de Melo", "amenity": "hospital", "internet_access": "wlan", "name": "Complexo Hospitalar Manoel Andre - CHAMA", "opening_hours": "24/7", "phone": "+55 82 3524-4781"}}, {"type": "node", "id": 5241594827, "lat": -7.0844797, "lon": -37.4433397, "tags": {"amenity": "hospital", "name": "UBS"}}, {"type": "node", "id": 5241594828, "lat": -7.0839817, "lon": -37.443675, "tags": {"amenity": "hospital", "name": "Unidade de Sa\u00fade"}}, {"type": "node", "id": 5243143318, "lat": -9.6743469, "lon": -35.7586668, "tags": {"addr:housenumber": "s/n", "addr:street": "Rua C\u00f4nego Fernando Lyra", "amenity": "hospital", "healthcare": "hospital", "name": "Hospital Escola H\u00e9lvio Auto", "opening_hours": "24/7", "phone": "+55 82 3315-6828", "website": "https://heha.uncisal.edu.br/"}}, {"type": "node", "id": 5245270771, "lat": -5.9101223, "lon": -35.2600042, "tags": {"addr:city": "Parnamirim - RN", "addr:housenumber": "145", "addr:postcode": "59140-020", "addr:street": "Avenida Tenente Medeiros", "addr:suburb": "Centro", "amenity": "hospital", "emergency": "yes", "healthcare": "hospital", "healthcare:speciality": "maternity", "name": "Maternidade Divino Amor", "phone": "+55 84 3645 5001"}}, {"type": "node", "id": 5254757676, "lat": -5.0912698, "lon": -36.2742843, "tags": {"amenity": "hospital"}}, {"type": "node", "id": 5256984514, "lat": -7.9713675, "lon": -34.833327, "tags": {"addr:city": "Olinda", "addr:housenumber": "3937", "addr:postcode": "53040-000", "addr:street": "Av. Gov. Carlos de Lima Cavalcante", "addr:suburb": "Rio Doce", "amenity": "hospital", "healthcare": "hospital", "name": "Cl\u00ednica Nossa Senhora do Carmo", "operator": "Doutor Fl\u00e1vio"}}, {"type": "node", "id": 5267149421, "lat": -7.2531494, "lon": -35.9258071, "tags": {"addr:postcode": "58423-490", "addr:street": "Rua Maria Eva Moura", "amenity": "hospital", "healthcare": "hospital", "name": "Posto de Sa\u00fade do Cinza"}}, {"type": "node", "id": 5285679814, "lat": -8.1383859, "lon": -35.8590773, "tags": {"addr:city": "Riacho das Almas", "addr:postcode": "55120-000", "addr:street": "Rua Justo Mota", "amenity": "hospital", "healthcare": "hospital", "name": "Hospital Municipal de Riacho das Almas"}}, {"type": "node", "id": 5288953666, "lat": -6.8237077, "lon": -35.2419322, "tags": {"amenity": "hospital", "healthcare": "hospital", "name": "Hospital Geral de Itapororoca"}}, {"type": "node", "id": 5425713739, "lat": -8.528739, "lon": -35.9582605, "tags": {"addr:city": "Agrestina", "addr:suburb": "S\u00edtio Umbuzeiro", "amenity": "hospital", "emergency": "no", "healthcare": "doctor", "healthcare:speciality": "general", "name": "Posto de Sa\u00fade Umbuzeiro"}}, {"type": "node", "id": 5435807865, "lat": -7.8314341, "lon": -34.9118475, "tags": {"amenity": "hospital", "emergency": "no", "name": "Unidade Mista de Igarassu"}}, {"type": "node", "id": 5499036226, "lat": -6.3519786, "lon": -37.7499301, "tags": {"amenity": "hospital", "healthcare": "hospital", "name": "Hospital Regional de Catol\u00e9 do Rocha"}}, {"type": "node", "id": 5508580039, "lat": -7.9710119, "lon": -34.86617, "tags": {"addr:city": "Olinda", "addr:housenumber": "S/N", "addr:postcode": "53350-005", "addr:street": "Avenida Joaquim Nabuco", "addr:suburb": "Tabajara", "amenity": "hospital", "emergency": "yes", "healthcare": "hospital", "healthcare:speciality": "orthopaedics;paediatrics;otolaryngology", "name": "UPA Olinda \u2013 Greg\u00f3rio Louren\u00e7o Bezerra", "phone": "+55 81 3184-4303"}}, {"type": "node", "id": 5517406773, "lat": -7.7930571, "lon": -35.5874504, "tags": {"amenity": "hospital", "healthcare": "hospital", "name": "Hospital Dr. Miguel Arraes de Alencar"}}, {"type": "node", "id": 5553613921, "lat": -6.772949, "lon": -38.2371694, "tags": {"amenity": "hospital", "name": "UPA 24 Horas", "name:en": "Unit Ready Care 24 Hours"}}, {"type": "node", "id": 5570021927, "lat": -7.0343097, "lon": -35.4657996, "tags": {"amenity": "hospital", "name": "HOSPITAL MUNICIPAL"}}, {"type": "node", "id": 5574953766, "lat": -8.0415014, "lon": -34.8732997, "tags": {"amenity": "hospital", "healthcare": "hospital", "name": "Oncologia - Hospital do C\u00e2ncer de Pernambuco"}}, {"type": "node", "id": 5574964984, "lat": -8.0860284, "lon": -34.9623618, "tags": {"amenity": "hospital", "healthcare": "hospital", "name": "Hospital Ot\u00e1vio de Freitas"}}, {"type": "node", "id": 5576886819, "lat": -7.9684438, "lon": -34.8930907, "tags": {"amenity": "hospital", "healthcare": "hospital", "name": "Hospital Geral da Mirueira (Sanat\u00f3rio Padre Ant\u00f4nio Manuel)"}}, {"type": "node", "id": 5576991186, "lat": -8.0327956, "lon": -34.9010263, "tags": {"amenity": "hospital", "healthcare": "hospital", "name": "Hospital Psiqui\u00e1trico Ulysses Pernambucano"}}, {"type": "node", "id": 5577506034, "lat": -7.0399113, "lon": -39.2763654, "tags": {"amenity": "hospital", "healthcare": "hospital", "name": "Hospital e Matenidade Geraldo Lacerda Botelho"}}, {"type": "node", "id": 5600240418, "lat": -8.1287966, "lon": -34.949442, "tags": {"amenity": "hospital", "healthcare": "hospital", "name": "UPA Ibura \u2013 Pediatra Zilda Arns"}}, {"type": "node", "id": 5608383322, "lat": -7.2162633, "lon": -35.8937334, "tags": {"amenity": "hospital", "healthcare": "hospital", "name": "Hospital Jo\u00e3o XXIII"}}, {"type": "node", "id": 5612759585, "lat": -8.0227891, "lon": -34.9138914, "tags": {"amenity": "hospital", "healthcare": "hospital", "name": "Upinha 24 Horas Moacyr Andre Gomes"}}, {"type": "node", "id": 5619991323, "lat": -7.6714613, "lon": -36.8766799, "tags": {"amenity": "hospital", "healthcare": "hospital", "name": "Hospital e maternidade Alice de Almeida", "name:pt": "Hospital e maternidade Alice de Almeida"}}, {"type": "node", "id": 5633462560, "lat": -6.7700125, "lon": -36.993207, "tags": {"addr:street": "Rua Vereador Francisco Freire Ara\u00fajo", "amenity": "hospital", "healthcare": "hospital", "name": "CAE", "operator": "Prefeitura Municipal"}}, {"type": "node", "id": 5633462561, "lat": -6.7711895, "lon": -36.9896458, "tags": {"addr:street": "Rua Isabel Leopoldina Bittencourt", "amenity": "hospital", "healthcare": "hospital", "name": "UMS Balbina Maria da Concei\u00e7\u00e3o", "operator": "Prefeitura Municipal"}}, {"type": "node", "id": 5732805336, "lat": -8.0073202, "lon": -34.8906534, "tags": {"addr:housenumber": "3631", "addr:street": "Avenida Beberibe", "amenity": "hospital", "healthcare": "hospital", "source": "Prefeitura do Recife"}}, {"type": "node", "id": 5740124334, "lat": -8.0440426, "lon": -34.8898372, "tags": {"addr:housenumber": "2739", "addr:street": "Avenida Governador Agamenon Magalh\u00e3es", "amenity": "hospital", "healthcare": "hospital", "source": "Prefeitura do Recife"}}, {"type": "node", "id": 5740124515, "lat": -8.0406446, "lon": -34.8826074, "tags": {"addr:housenumber": "3621", "addr:street": "Avenida Governador Agamenon Magalh\u00e3es", "amenity": "hospital", "healthcare": "hospital", "source": "Prefeitura do Recife"}}, {"type": "node", "id": 5740124750, "lat": -8.0383193, "lon": -34.8833831, "tags": {"addr:housenumber": "342", "addr:street": "Rua Professor Othon Para\u00edso", "amenity": "hospital", "healthcare": "hospital", "source": "Prefeitura do Recife"}}, {"type": "node", "id": 5740126051, "lat": -8.037928, "lon": -34.8881136, "tags": {"addr:postcode": "52030-010", "addr:street": "Rua Visconde de Mamanguape", "addr:suburb": "Encruzilhada", "amenity": "hospital", "beds": "104", "healthcare": "hospital", "healthcare:speciality": "paediatrics;dentist;women;abortion;birthing center;gynecology", "loc_name": "Maternidade da Encruzilhada", "name": "Centro Integrado de Sa\u00fade Amaury de Medeiros", "nohousenumber": "yes", "old_name": "Maternidade Professor Monteiro de Morais", "operator": "Universidade de Pernambuco", "operator:type": "public", "phone": "+55 81 31827701", "short_name": "CISAM-UPE", "start_date": "1946-01-23", "website": "https://www.upe.br/uh-cisam"}}, {"type": "node", "id": 5742508807, "lat": -8.0650359, "lon": -34.8988831, "tags": {"addr:housenumber": "163", "addr:street": "Avenida Portugal", "amenity": "hospital", "source": "Prefeitura do Recife"}}, {"type": "node", "id": 5742510690, "lat": -8.0589605, "lon": -34.8818543, "tags": {"addr:housenumber": "508", "addr:street": "Rua Sete de Setembro", "amenity": "hospital", "healthcare": "hospital", "source": "Prefeitura do Recife"}}, {"type": "node", "id": 5742510693, "lat": -8.0590649, "lon": -34.881922, "tags": {"addr:housenumber": "494", "addr:street": "Rua Sete de Setembro", "amenity": "hospital", "healthcare": "hospital", "source": "Prefeitura do Recife"}}, {"type": "node", "id": 5745500378, "lat": -8.0611298, "lon": -34.8965573, "tags": {"addr:housenumber": "328", "addr:street": "Rua do Paissand\u00fa", "amenity": "hospital", "healthcare": "hospital", "source": "Prefeitura do Recife"}}, {"type": "node", "id": 5745500379, "lat": -8.06093, "lon": -34.8961555, "tags": {"addr:housenumber": "286", "addr:street": "Rua do Paissand\u00fa", "amenity": "hospital", "source": "Prefeitura do Recife"}}, {"type": "node", "id": 5745500380, "lat": -8.0609067, "lon": -34.8967513, "tags": {"addr:housenumber": "274", "addr:street": "Rua das Fronteiras", "amenity": "hospital", "source": "Prefeitura do Recife"}}, {"type": "node", "id": 5745500383, "lat": -8.060646, "lon": -34.8969778, "tags": {"addr:housenumber": "238", "addr:street": "Rua das Fronteiras", "amenity": "hospital", "source": "Prefeitura do Recife"}}, {"type": "node", "id": 5745500386, "lat": -8.0608102, "lon": -34.8964706, "tags": {"addr:housenumber": "304", "addr:street": "Rua do Paissand\u00fa", "amenity": "hospital", "source": "Prefeitura do Recife"}}, {"type": "node", "id": 5745500390, "lat": -8.0604633, "lon": -34.8967433, "tags": {"addr:housenumber": "229", "addr:street": "Rua das Fronteiras", "amenity": "hospital", "source": "Prefeitura do Recife"}}, {"type": "node", "id": 5745801130, "lat": -8.0367693, "lon": -34.92125, "tags": {"addr:housenumber": "143", "addr:street": "Rua Engenheiro Bandeira de Melo", "amenity": "hospital", "source": "Prefeitura do Recife"}}, {"type": "node", "id": 5745802659, "lat": -8.0277076, "lon": -34.9199919, "tags": {"addr:housenumber": "4230", "addr:street": "Estrada do Arraial", "amenity": "hospital", "healthcare": "hospital", "source": "Prefeitura do Recife"}}, {"type": "node", "id": 5745802798, "lat": -8.0292151, "lon": -34.9195825, "tags": {"addr:housenumber": "150", "addr:street": "Rua Dr Genaro Guimaraes", "amenity": "hospital", "healthcare": "hospital", "source": "Prefeitura do Recife"}}, {"type": "node", "id": 5745804040, "lat": -8.031537, "lon": -34.9238345, "tags": {"addr:housenumber": "2020", "addr:street": "Avenida Dezessete de Agosto", "amenity": "hospital", "healthcare": "hospital", "source": "Prefeitura do Recife"}}, {"type": "node", "id": 5745804718, "lat": -8.0365212, "lon": -34.9203048, "tags": {"addr:housenumber": "51", "addr:street": "Rua Marqu\u00eas de Paranagu\u00e1", "amenity": "hospital", "healthcare": "hospital", "source": "Prefeitura do Recife"}}, {"type": "node", "id": 5745977085, "lat": -8.1394437, "lon": -34.9065711, "tags": {"addr:housenumber": "390", "addr:street": "Rua Doutor In\u00e1cio Pessoa Melo", "amenity": "hospital", "source": "Prefeitura do Recife"}}, {"type": "node", "id": 5746158911, "lat": -8.1072008, "lon": -34.8898084, "tags": {"addr:housenumber": "1980", "addr:street": "Avenida Conselheiro Aguiar", "amenity": "hospital", "source": "Prefeitura do Recife"}}, {"type": "node", "id": 5746159593, "lat": -8.1200669, "lon": -34.8979307, "tags": {"addr:housenumber": "95", "addr:street": "Rua Dh\u00e1lia", "amenity": "hospital", "healthcare": "hospital", "source": "Prefeitura do Recife"}}, {"type": "node", "id": 5746160855, "lat": -8.1109563, "lon": -34.8969777, "tags": {"addr:housenumber": "380", "addr:street": "Rua Ant\u00f4nio de S\u00e1 Leit\u00e3o", "amenity": "hospital", "healthcare": "hospital", "source": "Prefeitura do Recife"}}, {"type": "node", "id": 5746160900, "lat": -8.1113895, "lon": -34.8991748, "tags": {"addr:housenumber": "784", "addr:street": "Rua Padre Bernardino Pessoa", "amenity": "hospital", "healthcare": "hospital", "source": "Prefeitura do Recife"}}, {"type": "node", "id": 5746162652, "lat": -8.1325325, "lon": -34.9080767, "tags": {"addr:city": "Recife", "addr:housenumber": "849", "addr:street": "Rua Bar\u00e3o de Souza Le\u00e3o", "addr:suburb": "Boa Viagem", "amenity": "hospital", "healthcare": "hospital", "source": "Prefeitura do Recife"}}, {"type": "node", "id": 5760862717, "lat": -8.0525965, "lon": -34.9066107, "tags": {"addr:housenumber": "632", "addr:street": "Avenida Visconde de Albuquerque", "amenity": "hospital", "healthcare": "hospital", "source": "Prefeitura do Recife"}}, {"type": "node", "id": 5760862869, "lat": -8.0540137, "lon": -34.9051846, "tags": {"addr:housenumber": "67", "addr:street": "Rua Inhuma", "amenity": "hospital", "healthcare": "hospital", "source": "Prefeitura do Recife"}}, {"type": "node", "id": 5760862875, "lat": -8.0540814, "lon": -34.9054701, "tags": {"addr:housenumber": "452", "addr:street": "Rua Dem\u00f3crito de Souza Filho", "amenity": "hospital", "source": "Prefeitura do Recife"}}, {"type": "node", "id": 5760863191, "lat": -8.0572157, "lon": -34.9101683, "tags": {"addr:housenumber": "88", "addr:street": "Rua Carlos Gomes", "amenity": "hospital", "source": "Prefeitura do Recife"}}, {"type": "node", "id": 5760863255, "lat": -8.0612366, "lon": -34.9021082, "tags": {"addr:housenumber": "98", "addr:street": "Pra\u00e7a da Bandeira", "amenity": "hospital", "source": "Prefeitura do Recife"}}, {"type": "node", "id": 5760863256, "lat": -8.0613239, "lon": -34.9022711, "tags": {"addr:housenumber": "116", "addr:street": "Avenida Sport Clube do Recife", "amenity": "hospital", "source": "Prefeitura do Recife"}}, {"type": "node", "id": 5760864989, "lat": -8.0611027, "lon": -34.9019942, "tags": {"addr:housenumber": "74", "addr:street": "Pra\u00e7a da Bandeira", "amenity": "hospital", "source": "Prefeitura do Recife"}}, {"type": "node", "id": 5760864991, "lat": -8.0611662, "lon": -34.9020487, "tags": {"addr:housenumber": "92", "addr:street": "Pra\u00e7a da Bandeira", "amenity": "hospital", "source": "Prefeitura do Recife"}}, {"type": "node", "id": 5760868221, "lat": -8.0580747, "lon": -34.9085939, "tags": {"addr:housenumber": "1059", "addr:street": "Rua Benfica", "amenity": "hospital", "source": "Prefeitura do Recife"}}, {"type": "node", "id": 5760868226, "lat": -8.0582407, "lon": -34.9088379, "tags": {"addr:housenumber": "61", "addr:street": "Rua Monsenhor J\u00falio Maria", "amenity": "hospital", "source": "Prefeitura do Recife"}}, {"type": "node", "id": 5760868398, "lat": -8.061726, "lon": -34.9086736, "tags": {"addr:housenumber": "480", "addr:street": "Avenida Engenheiro Abdias de Carvalho", "amenity": "hospital", "healthcare": "hospital", "source": "Prefeitura do Recife"}}, {"type": "node", "id": 5760952235, "lat": -8.1192681, "lon": -34.9142567, "tags": {"addr:city": "Recife", "addr:housenumber": "4052", "addr:postcode": "51150-902", "addr:street": "Avenida Marechal Mascarenhas de Moraes", "addr:suburb": "Imbiribeira", "amenity": "hospital", "healthcare": "hospital", "source": "Prefeitura do Recife"}}, {"type": "node", "id": 5760959720, "lat": -8.108778, "lon": -34.9217677, "tags": {"addr:city": "Recife", "addr:housenumber": "340", "addr:street": "Rua Francisco Barreto", "amenity": "hospital", "healthcare": "hospital", "source": "Prefeitura do Recife"}}, {"type": "node", "id": 5769026252, "lat": -8.7557655, "lon": -35.0989943, "tags": {"amenity": "hospital", "name": "Hospital Municipal Jos\u00e9 Mucio Monteiro"}}, {"type": "node", "id": 5794735653, "lat": -3.6740461, "lon": -39.3507455, "tags": {"addr:city": "Umirim", "addr:housenumber": "S/N", "addr:postcode": "62660000", "addr:street": "Rua S\u00e3o Francisco", "addr:suburb": "Centro", "amenity": "hospital", "emergency": "yes", "healthcare": "hospital", "healthcare:speciality": "general", "name": "Carlos Gualberto Uchoa Sales", "operator": "Pref. M. Umirim"}}, {"type": "node", "id": 5832517805, "lat": -5.7925056, "lon": -35.2193313, "tags": {"addr:city": "Natal", "addr:housenumber": "S/N", "addr:postcode": "59040-150", "addr:street": "Rua S\u00edlvio Pelico", "addr:suburb": "Alecrim", "amenity": "hospital", "email": "marinha.mil.br", "healthcare": "hospital", "name": "Hospital Naval de Natal", "phone": "+55 84 3216-3420"}}, {"type": "node", "id": 5834622954, "lat": -5.9753533, "lon": -35.1298571, "tags": {"addr:city": "Parnamirim", "addr:housenumber": "S/N", "addr:postcode": "59161-710", "addr:street": "Rua Maria Cristina Xavier", "addr:suburb": "Pirangi do Norte (Distrito Litoral)", "amenity": "hospital", "emergency": "yes", "healthcare": "hospital", "name": "UPA 24h Pirangi Praia", "phone": "+55 84 3238-1071"}}, {"type": "node", "id": 5859247411, "lat": -7.5838465, "lon": -39.2821964, "tags": {"amenity": "hospital", "healthcare": "hospital"}}, {"type": "node", "id": 5863769746, "lat": -7.5839309, "lon": -39.2823393, "tags": {"amenity": "hospital", "healthcare": "hospital", "name": "Hostpital"}}, {"type": "node", "id": 5907466102, "lat": -8.2745779, "lon": -35.9734576, "tags": {"amenity": "hospital", "healthcare": "hospital"}}, {"type": "node", "id": 5912387360, "lat": -7.8855312, "lon": -37.1108057, "tags": {"amenity": "hospital", "healthcare": "hospital", "name": "posto de saude"}}, {"type": "node", "id": 5927880354, "lat": -8.2803874, "lon": -35.031561, "tags": {"amenity": "hospital", "healthcare": "hospital", "name": "Hapvida Cabo"}}, {"type": "node", "id": 5972372715, "lat": -6.5782054, "lon": -38.5988615, "tags": {"amenity": "hospital", "healthcare": "hospital"}}, {"type": "node", "id": 6007471028, "lat": -6.6852032, "lon": -39.757593, "tags": {"amenity": "hospital"}}, {"type": "node", "id": 6009781708, "lat": -8.1183828, "lon": -34.9423635, "tags": {"amenity": "hospital"}}, {"type": "node", "id": 6009781722, "lat": -8.079868, "lon": -34.9049339, "tags": {"amenity": "hospital", "healthcare": "hospital"}}, {"type": "node", "id": 6116338059, "lat": -6.6435042, "lon": -36.2526051, "tags": {"addr:housenumber": "244", "addr:street": "Rua Get\u00falio Vargas", "addr:suburb": "Centro", "amenity": "hospital", "emergency": "yes", "healthcare": "hospital", "healthcare:speciality": "general", "name": "ESF I - Severino Lu\u00eds Fernandes", "operator": "SMS"}}, {"type": "node", "id": 6116340971, "lat": -6.642561, "lon": -36.2505183, "tags": {"amenity": "hospital", "healthcare": "hospital", "name": "ESF II Francisca Ferreira Oliveira Silva"}}, {"type": "node", "id": 6196432161, "lat": -8.8086916, "lon": -35.9334229, "tags": {"addr:city": "S\u00e3o Benedito do Sul", "addr:street": "Rua Doutor Jose Mariano", "addr:suburb": "Centro", "amenity": "hospital", "healthcare": "hospital"}}, {"type": "node", "id": 6299519056, "lat": -8.806423, "lon": -35.1863239, "tags": {"amenity": "hospital", "healthcare": "hospital", "name": "Hospital do Municipio de Barreiros"}}, {"type": "node", "id": 6379871259, "lat": -7.1810725, "lon": -35.6780567, "tags": {"addr:street": "Rua Francisco Clementino Andrade", "amenity": "hospital", "healthcare": "hospital", "healthcare:speciality": "dentist;cardiology;clinic;community", "name": "Posto Mun\u00edcipal de Serra Redonda"}}, {"type": "node", "id": 6381904583, "lat": -8.6805678, "lon": -35.5822549, "tags": {"amenity": "hospital", "healthcare": "hospital", "healthcare:speciality": "general", "name": "Hospital Santa Rosa"}}, {"type": "node", "id": 6406772534, "lat": -5.2509031, "lon": -38.1338959, "tags": {"addr:housenumber": "620", "addr:street": "R. zitamir Chaves", "amenity": "hospital", "healthcare": "hospital", "name": "Hospital e Maternidade Celestina Colares HMCC", "opening_hours": "24/7", "phone": "+55 88 3424 2680"}}, {"type": "node", "id": 6414767711, "lat": -8.3994485, "lon": -35.0614758, "tags": {"addr:city": "Ipojuca", "addr:housenumber": "S/N", "addr:street": "Rua General Pereira da Nascimento", "amenity": "hospital", "healthcare": "hospital", "name": "Unidade Mista Santo Cristo", "opening_hours": "24/7", "phone": "+55 81 3551-1195"}}, {"type": "node", "id": 6432141234, "lat": -7.4819616, "lon": -36.1289576, "tags": {"amenity": "hospital", "healthcare": "hospital"}}, {"type": "node", "id": 6442943534, "lat": -8.0731342, "lon": -39.1234948, "tags": {"amenity": "hospital", "healthcare": "hospital", "name": "Pronto Socorro S\u00e3o Francisco"}}, {"type": "node", "id": 6504431427, "lat": -7.5582489, "lon": -35.4532023, "tags": {"amenity": "hospital", "healthcare": "hospital"}}, {"type": "node", "id": 6812243670, "lat": -5.8701341, "lon": -35.1807239, "tags": {"addr:city": "Natal RN", "addr:housenumber": "1320", "addr:postcode": "59094-100", "addr:street": "Rua Pedro Fonseca Filho", "addr:suburb": "Ponta Negra", "amenity": "hospital", "healthcare": "hospital", "name": "Medtran"}}, {"type": "node", "id": 6868470279, "lat": -3.7081119, "lon": -38.6554925, "tags": {"addr:city": "Caucaia", "addr:housenumber": "239", "addr:postcode": "61625020", "addr:street": "Rua Franciso E. Barros", "addr:suburb": "Camurupim", "amenity": "hospital", "healthcare": "hospital", "healthcare:speciality": "nurses", "internet_access": "wlan", "name": "Clavre", "operator": "Banda Clavre", "operator:type": "community"}}, {"type": "node", "id": 6917156698, "lat": -8.895586, "lon": -35.1498532, "tags": {"addr:city": "S\u00e3o Jos\u00e9 da Coroa Grande", "addr:postcode": "55565-000", "addr:street": "Rua Pastor Jose Amaro da Silva", "addr:suburb": "centro", "amenity": "hospital", "healthcare": "hospital", "name": "Hospital e Maternidade Osmario Omena de Oliveira"}}, {"type": "node", "id": 6956162426, "lat": -4.9378123, "lon": -37.9693108, "tags": {"addr:housenumber": "1402", "addr:street": "Rua Doutor Jos\u00e9 Ramalho", "amenity": "hospital", "healthcare": "hospital", "name": "Hospital e Maternidade Divina Provid\u00eancia"}}, {"type": "node", "id": 6967380132, "lat": -7.198543, "lon": -34.8462102, "tags": {"amenity": "hospital", "healthcare": "hospital", "name": "UPA Valentina"}}, {"type": "node", "id": 6993875280, "lat": -4.9464374, "lon": -37.9711876, "tags": {"addr:housenumber": "649", "addr:street": "Rua Vila Matoso", "amenity": "hospital", "healthcare": "hospital", "name": "CAPS - Centro de Aten\u00e7\u00e3o Psicossocial"}}, {"type": "node", "id": 7030431828, "lat": -7.1533604, "lon": -34.9691082, "tags": {"amenity": "hospital", "emergency": "yes", "healthcare": "hospital", "healthcare:speciality": "general", "name": "UPA - UNIDADE DE PRONTO ATENDIMENTO DE TIBIRI II", "operator": "GOVERNO DO ESTADO DA PARA\u00cdBA", "operator:type": "public", "wheelchair": "yes"}}, {"type": "node", "id": 7103280625, "lat": -4.9461875, "lon": -37.984436, "tags": {"addr:housenumber": "1248", "addr:street": "Rua Prefeito Jos\u00e9 Martins de Santiago", "amenity": "hospital", "name": "N\u00facleo Esp\u00edrita Casa da Paz"}}, {"type": "node", "id": 7107863186, "lat": -6.783036, "lon": -38.2486555, "tags": {"amenity": "hospital", "name": "ESF II Mutir\u00e3o"}}, {"type": "node", "id": 7128572431, "lat": -7.2463475, "lon": -39.3215875, "tags": {"amenity": "hospital", "healthcare": "hospital", "name": "Hospital Escola Santo In\u00e1cio"}}, {"type": "node", "id": 7139456485, "lat": -9.4093501, "lon": -37.5308027, "tags": {"amenity": "hospital", "name": "Posto de sa\u00fade", "name:pt": "Posto de sa\u00fade, Povoado Candunda"}}, {"type": "node", "id": 7182352015, "lat": -6.377458, "lon": -37.1864784, "tags": {"addr:city": "s\u00e3o Fernando", "addr:postcode": "59327000", "addr:street": "Avenida Major Jos\u00e9 Antao", "addr:suburb": "centro", "amenity": "hospital", "healthcare": "hospital", "healthcare:speciality": "general", "name": "UBS M\u00e3e Joaquina"}}, {"type": "node", "id": 7204331256, "lat": -5.4591374, "lon": -38.4612575, "tags": {"addr:housenumber": "631", "addr:street": "Avenida Jos\u00e9 Furtado de Macedo", "amenity": "hospital", "healthcare": "hospital"}}, {"type": "node", "id": 7223836889, "lat": -9.5765434, "lon": -35.7681589, "tags": {"addr:city": "Macei\u00f3", "addr:postcode": "57081-510", "addr:street": "Rua Pedrosa", "addr:suburb": "Cleto Marques Luz", "amenity": "hospital", "healthcare": "hospital", "healthcare:speciality": "general", "name": "Hospital HC"}}, {"type": "node", "id": 7367253167, "lat": -4.9401555, "lon": -37.1119132, "tags": {"amenity": "hospital", "healthcare": "hospital", "name": "SAMU"}}, {"type": "node", "id": 7455531701, "lat": -6.6618384, "lon": -37.3907517, "tags": {"amenity": "hospital", "name": "UPA"}}, {"type": "node", "id": 7569006785, "lat": -5.7039192, "lon": -35.2998173, "tags": {"amenity": "hospital", "healthcare": "hospital", "name": "hospital presidente caf\u00e9 filho"}}, {"type": "node", "id": 7576284911, "lat": -7.0646239, "lon": -36.5772081, "tags": {"amenity": "hospital", "healthcare": "hospital", "healthcare:speciality": "hospital", "name": "Centro Assistencial e Hospitalar"}}, {"type": "node", "id": 7576284912, "lat": -7.0643488, "lon": -36.5773149, "tags": {"amenity": "hospital", "healthcare": "hospital", "name": "Plociclinica Municipal"}}, {"type": "node", "id": 7576284913, "lat": -7.0643714, "lon": -36.5775565, "tags": {"amenity": "hospital", "healthcare": "hospital", "name": "Centro de Fisioterapia"}}, {"type": "node", "id": 7576284914, "lat": -7.0644477, "lon": -36.5764737, "tags": {"amenity": "hospital", "healthcare": "hospital", "name": "CAPS"}}, {"type": "node", "id": 7595925875, "lat": -8.2321393, "lon": -35.7452844, "tags": {"amenity": "hospital", "healthcare": "hospital", "name": "Hospital de Campanha COVID - 19"}}, {"type": "node", "id": 7733804981, "lat": -4.0519003, "lon": -39.4515002, "tags": {"amenity": "hospital", "healthcare": "hospital", "name": "Hospital e Maternidade J\u00falia Jorge"}}, {"type": "node", "id": 7779382679, "lat": -6.5166853, "lon": -38.1783771, "tags": {"amenity": "hospital", "healthcare": "hospital", "name": "Hospital e Maternidade Nossa Senhora do Carmo"}}, {"type": "node", "id": 7817957114, "lat": -3.4827709, "lon": -39.5652939, "tags": {"addr:city": "itapipoca", "addr:postcode": "62505670", "addr:street": "Rua Bey de Sousa", "addr:suburb": "julho 2", "amenity": "hospital", "healthcare": "hospital", "healthcare:speciality": "general", "name": "SAMU"}}, {"type": "node", "id": 8241321089, "lat": -5.1548123, "lon": -38.1044388, "tags": {"addr:housenumber": "1228", "addr:street": "Avenida Aureliano Matos", "amenity": "hospital", "healthcare": "hospital", "name": "Hospital Vale do Jaguaribe", "phone": "+55 88 2142 0080"}}, {"type": "node", "id": 8280089920, "lat": -7.8624078, "lon": -37.9663336, "tags": {"amenity": "hospital", "healthcare": "hospital", "name": "Hospital Gen\u00e9sio Francisco Xavier"}}, {"type": "node", "id": 8412805861, "lat": -5.1485457, "lon": -38.0997135, "tags": {"addr:housenumber": "2047", "addr:street": "Rua Coronel Ant\u00f4nio Joaquim", "amenity": "hospital", "healthcare": "hospital", "name": "Hospital S\u00e3o Raimundo", "opening_hours": "24/7", "phone": "+55 88 3423 4089"}}, {"type": "node", "id": 8423902817, "lat": -9.933394, "lon": -36.5502345, "tags": {"addr:postcode": "57275-000", "addr:street": "Avenida Ant\u00f4nio Custodio Porto", "amenity": "hospital", "name": "Casa Maternal Nossa Senhora da Penha", "opening_hours": "24/7"}}, {"type": "node", "id": 8430387539, "lat": -3.9025486, "lon": -38.5166423, "tags": {"amenity": "hospital", "emergency": "no", "healthcare": "hospital", "name": "Posto de Sa\u00fade Barroc\u00e3o"}}, {"type": "node", "id": 8511433493, "lat": -5.1799679, "lon": -39.3044144, "tags": {"amenity": "hospital", "healthcare": "hospital", "name": "UPA 24 Horas Quixeramobim"}}, {"type": "node", "id": 8511460943, "lat": -5.1972575, "lon": -39.2959237, "tags": {"amenity": "hospital", "healthcare": "hospital", "name": "Hospital Perpertuo Socorro (Hospital Infantil)"}}, {"type": "node", "id": 8521147068, "lat": -5.0632294, "lon": -36.0465034, "tags": {"amenity": "hospital", "healthcare": "hospital", "name": "HOSPITAL"}}, {"type": "node", "id": 8555613369, "lat": -7.0741866, "lon": -36.9737957, "tags": {"amenity": "hospital", "healthcare": "hospital", "healthcare:speciality": "dentist;vaccination;physiotherapy;general", "name": "Posto m\u00e9dico \"Sebastiana de Andrade Gabriel\"", "operator": "Prefeitura municipal", "operator:type": "government"}}, {"type": "node", "id": 8684631419, "lat": -8.1238479, "lon": -35.0940745, "tags": {"amenity": "hospital", "healthcare": "hospital", "name": "Pol\u00edclinica Beir\u00f3 Uch\u00f4a"}}, {"type": "node", "id": 8697439764, "lat": -5.8176951, "lon": -35.2119944, "tags": {"addr:city": "Natal", "addr:housenumber": "3413", "addr:postcode": "59064-630", "addr:street": "Avenida Prudente de Morais", "addr:suburb": "Lagoa Nova", "amenity": "hospital", "healthcare": "hospital", "healthcare:speciality": "Medicina_de_Fam\u00edlia;Ginecologia;Obstetr\u00edcia;Pediatria;Cardiologia;Endocrinologia;Endocrinologia_pedi\u00e1trica;Dermatologia;Reumatologia;Reumatologia_pedi\u00e1trica;Pneumologia_Pedi\u00e1trica_Hepatologia;Fisioterapia;Enfermagem;Nutri\u00e7\u00e3o.", "name": "Integral Sa\u00fade"}}, {"type": "node", "id": 8742913517, "lat": -4.1810284, "lon": -38.1313815, "tags": {"addr:street": "Rua Jo\u00e3o Baltazar", "amenity": "hospital", "name": "Hospital Municipal Monsenhor Dourado", "opening_hours": "24/7"}}, {"type": "node", "id": 8780856845, "lat": -3.9146531, "lon": -38.5048207, "tags": {"amenity": "hospital", "healthcare": "hospital", "name": "Posto de Sa\u00fade Jabuti", "natural": "heath"}}, {"type": "node", "id": 8807856017, "lat": -4.1811319, "lon": -38.1274975, "tags": {"addr:street": "Rua Padre Assis Portela", "amenity": "hospital", "name": "Posto de Sa\u00fade", "opening_hours": "Mo-Fr 09:00-18:00"}}, {"type": "node", "id": 8840176411, "lat": -8.0756799, "lon": -39.1215679, "tags": {"addr:city": "Salgueiro", "addr:housenumber": "2301", "addr:postcode": "56000000", "addr:street": "Avenida Aurora de Carvalho Rosa", "addr:suburb": "Santo Antonio", "amenity": "hospital", "healthcare": "hospital", "healthcare:speciality": "odontologia;cl\u00ednica_odontol\u00f3gica", "name": "Salgueiro Center", "opening_hours": "Seg a Sex 08:00-18:00", "operator": "Salgueiro Center", "operator:type": "public", "phone": "+55 87 3871 1044", "website": "http://www.salgueirocenter.com.br"}}, {"type": "node", "id": 8895134941, "lat": -8.1133256, "lon": -35.2861991, "tags": {"addr:city": "VITORIA DE SANTO ANTAO", "addr:housenumber": "12", "addr:postcode": "55600-000", "addr:street": "Avenida Henrique de Holanda", "addr:suburb": "CAJ\u00c1", "amenity": "hospital", "healthcare": "hospital", "healthcare:speciality": "general", "name": "BIOPET CLINICA VETERINARIA & LABORATORIO"}}, {"type": "node", "id": 8895192317, "lat": -7.9927267, "lon": -38.298083, "tags": {"amenity": "hospital", "name": "Pronto Socorro S\u00e3o Jose"}}, {"type": "node", "id": 8899787178, "lat": -8.1976973, "lon": -35.5595873, "tags": {"amenity": "hospital", "healthcare": "hospital", "name": "Hospital Paulo da Veiga Pessoa"}}, {"type": "node", "id": 9002232517, "lat": -4.183225, "lon": -38.1262148, "tags": {"amenity": "hospital", "name": "Posto 4 UBS"}}, {"type": "node", "id": 9223992564, "lat": -3.7482524, "lon": -38.4918518, "tags": {"addr:city": "Fortaleza", "addr:housenumber": "3443", "addr:postcode": "60192-165", "addr:street": "Avenida Ant\u00f4nio Sales", "addr:suburb": "Coc\u00f3", "amenity": "hospital", "healthcare": "hospital", "healthcare:speciality": "general;dentist", "name": "Hospital J\u00f3rio da Esc\u00f3ssia"}}, {"type": "node", "id": 9244157083, "lat": -7.0323731, "lon": -34.8720217, "tags": {"amenity": "hospital", "healthcare": "hospital", "name": "Posto de Sa\u00fade- Ribeira de Cima", "operator:type": "public"}}, {"type": "node", "id": 9393168836, "lat": -7.0206265, "lon": -37.2782462, "tags": {"amenity": "hospital", "healthcare": "hospital", "name": "Hospital Day", "operator": "UNIFIP", "source": "survey"}}, {"type": "node", "id": 9466448917, "lat": -5.7848885, "lon": -35.3307832, "tags": {"amenity": "hospital", "name": "Centro Municipal de Pediatria"}}, {"type": "node", "id": 9514993220, "lat": -9.7494069, "lon": -36.6437217, "tags": {"addr:city": "Arapiraca", "addr:street": "Avenida Minervina Franscisca da Concei\u00e7\u00e3o", "addr:suburb": "Itapo\u00e3", "amenity": "hospital", "healthcare": "hospital", "name": "UPA - Noel Macedo"}}, {"type": "node", "id": 9605903401, "lat": -8.3683672, "lon": -35.2379155, "tags": {"addr:city": "Escada", "addr:street": "Rua Engenheiro Alves de Souza", "addr:suburb": "Maracuj\u00e1", "amenity": "hospital", "healthcare": "hospital", "name": "UPAE - Escada"}}, {"type": "node", "id": 9605903402, "lat": -8.3675615, "lon": -35.2380045, "tags": {"addr:city": "Escada", "addr:postcode": "55500000", "addr:street": "Avenida Doutor Antonio de Castro", "addr:suburb": "Maracuj\u00e1", "amenity": "hospital", "healthcare": "hospital", "name": "Hospital Regional Dr Ben\u00e9volo Walderley do Amaral"}}, {"type": "node", "id": 9644392018, "lat": -3.7626921, "lon": -38.5324094, "tags": {"addr:city": "Fortaleza", "addr:housenumber": "396;201", "addr:postcode": "60410-772", "addr:street": "Rua Alberto Montezuma", "addr:suburb": "Vila Uni\u00e3o", "amenity": "hospital", "healthcare": "hospital", "name": "Instituto Peter Pan", "name:en": "Peter Pan Institute"}}, {"type": "node", "id": 9646940392, "lat": -7.5871312, "lon": -35.098943, "tags": {"amenity": "hospital", "healthcare": "hospital", "name": "Hospital Jo\u00e3o Pereira de Andrade"}}, {"type": "node", "id": 9758305173, "lat": -3.7342372, "lon": -38.5346679, "tags": {"addr:city": "Fortaleza", "addr:housenumber": "1454", "addr:postcode": "60020-001", "addr:street": "Rua 24 de Maio", "addr:suburb": "Benfica", "amenity": "hospital", "healthcare": "hospital", "name": "Omnimagem", "phone": "+55 85 3455 5555"}}, {"type": "node", "id": 9760834178, "lat": -8.0694238, "lon": -35.3624587, "tags": {"amenity": "hospital", "healthcare": "hospital"}}, {"type": "node", "id": 9760834215, "lat": -8.056789, "lon": -35.3876182, "tags": {"amenity": "hospital", "healthcare": "hospital"}}, {"type": "node", "id": 9760834247, "lat": -8.0569051, "lon": -35.3901604, "tags": {"amenity": "hospital", "healthcare": "hospital"}}, {"type": "node", "id": 9760834319, "lat": -8.0802082, "lon": -35.2633908, "tags": {"amenity": "hospital", "healthcare": "hospital"}}, {"type": "node", "id": 9760835846, "lat": -8.0984906, "lon": -35.2782713, "tags": {"amenity": "hospital", "healthcare": "hospital"}}, {"type": "node", "id": 9760835849, "lat": -8.1051186, "lon": -35.2725536, "tags": {"amenity": "hospital", "healthcare": "hospital"}}, {"type": "node", "id": 9760847133, "lat": -8.0770829, "lon": -35.2421673, "tags": {"amenity": "hospital", "healthcare": "hospital"}}, {"type": "node", "id": 9765666484, "lat": -8.1102063, "lon": -35.2734329, "tags": {"amenity": "hospital", "healthcare": "hospital"}}, {"type": "node", "id": 9765749639, "lat": -8.1111178, "lon": -35.2740831, "tags": {"amenity": "hospital", "healthcare": "hospital"}}, {"type": "node", "id": 9825178586, "lat": -5.7937715, "lon": -35.2020987, "tags": {"addr:city": "Nata - RN", "addr:housenumber": "901", "addr:postcode": "59020-300", "addr:street": "Avenida Campos Sales", "addr:suburb": "Tirol", "amenity": "hospital", "healthcare": "hospital", "healthcare:speciality": "nutrologia;cardiologia;medicina_endocanabinoide;cl\u00ednica_m\u00e9dica;cirurgia_bari\u00e1trica;dermatologia;endocrinologia;gastroenterologia;medicina_da_fam\u00edlia_e_comunidade;medicina_esportiva;nutricionista;ortopedia_e_traumatologia;pediatria;psicologia;psiquiatria", "name": "Cl\u00ednica MedF\u00e1cil", "name:pt": "Med F\u00e1cil"}}, {"type": "node", "id": 9914071317, "lat": -8.0356119, "lon": -34.9076856, "tags": {"amenity": "hospital", "name": "Hospital Infantil Maria Lucinda"}}, {"type": "node", "id": 9927277101, "lat": -8.6278037, "lon": -35.8347879, "tags": {"amenity": "hospital", "healthcare": "hospital", "name": "UBS Santa Luzia", "operator": "Prefeitura Muncipal", "operator:type": "government"}}, {"type": "node", "id": 9927520848, "lat": -8.6226492, "lon": -35.8408928, "tags": {"amenity": "hospital", "healthcare": "hospital", "healthcare:speciality": "general", "name": "Unidiade Mista Nossa Senhora Aparecida", "operator": "Prefeitura Municipal", "operator:type": "government"}}, {"type": "node", "id": 9945154217, "lat": -3.3660712, "lon": -39.827034, "tags": {"addr:street": "Rua Jo\u00e3o Jacinto de Oliveira", "amenity": "hospital", "name": "SAMU"}}, {"type": "node", "id": 10044501518, "lat": -3.7335296, "lon": -38.5349526, "tags": {"addr:housenumber": "1349", "addr:postcode": "60040-001", "addr:street": "Avenida Trist\u00e3o Gon\u00e7alves", "amenity": "hospital", "healthcare": "hospital", "name": "Omnimagem", "opening_hours": "Mo-Fr 07:00-18:00; Sa 07:00-12:00", "phone": "+55 85 3455 5555"}}, {"type": "node", "id": 10048133556, "lat": -7.2203152, "lon": -39.3206555, "tags": {"amenity": "hospital", "healthcare": "hospital", "name": "Secretaria de Sa\u00fade"}}, {"type": "node", "id": 10059350817, "lat": -7.297547, "lon": -39.3136211, "tags": {"amenity": "hospital", "name": "Poleclinic"}}, {"type": "node", "id": 10072950913, "lat": -8.0689344, "lon": -39.1224187, "tags": {"amenity": "hospital", "healthcare": "hospital", "name": "Cl\u00ednica do Cora\u00e7\u00e3o"}}, {"type": "node", "id": 10080549997, "lat": -5.227186, "lon": -35.8393373, "tags": {"amenity": "hospital", "healthcare": "hospital"}}, {"type": "node", "id": 10172282205, "lat": -8.8933511, "lon": -36.6918025, "tags": {"addr:city": "Paranatama", "addr:postcode": "55355000", "addr:street": "Sitio Azevem", "addr:suburb": "Rural", "amenity": "hospital", "healthcare": "hospital", "name": "PSF Azevem", "operator": "Prefeitura Municipal de Paranatama", "operator:type": "government"}}, {"type": "node", "id": 10199788309, "lat": -8.0446781, "lon": -34.8954992, "tags": {"addr:city": "Recife", "addr:housenumber": "137", "addr:street": "Rua Doutor Vicente Meira", "addr:suburb": "Espinheiro", "amenity": "hospital", "emergency": "yes", "healthcare": "hospital", "healthcare:speciality": "ophthalmology", "name": "IOR - Instituto dos Olhos de Recife"}}, {"type": "node", "id": 10570262196, "lat": -9.6438624, "lon": -35.7279353, "tags": {"amenity": "hospital", "healthcare": "hospital", "name": "Unidade B\u00e1sica de Sa\u00fade Paulo Leal", "operator": "Sistema \u00danico de Sa\u00fade", "operator:short": "SUS", "operator:type": "sus", "operator:wikidata": "Q7531056"}}, {"type": "node", "id": 10734746815, "lat": -7.1628605, "lon": -34.8354989, "tags": {"addr:city": "Jo\u00e3o Pessoa", "addr:housenumber": "3232", "addr:postcode": "58058-028", "addr:street": "Avenida Hilton Souto Maior", "addr:suburb": "Mangabeira", "amenity": "hospital", "emergency": "no", "healthcare": "hospital", "healthcare:speciality": "ophthalmology", "name": "HBOL \u2013 Hospital de Olhos", "operator": "HBOL", "operator:type": "privado", "phone": "+55 83 3022-5050"}}, {"type": "node", "id": 10820397704, "lat": -3.7486472, "lon": -38.5531975, "tags": {"addr:city": "Fortaleza", "addr:postcode": "60430-270", "addr:street": "Rua Coronel Nunes de Melo", "addr:suburb": "Rodolfo Te\u00f3filo", "amenity": "hospital", "healthcare": "hospital", "name": "Maternidade Escola Assis Chateaubriand", "nohousenumber": "yes", "operator": "Universidade Federal do Cear\u00e1", "operator:type": "public", "pmfsefin:idedif": "504630", "ref:CNES": "2481286", "short_name": "MEAC", "source": "Secretaria Municipal da Sa\u00fade de Fortaleza", "source:date": "2019", "website": "http://cnes2.datasus.gov.br/Exibe_Ficha_Estabelecimento.asp?VCo_Unidade=2304402481286"}}, {"type": "node", "id": 10820477580, "lat": -3.7492902, "lon": -38.551573, "tags": {"addr:city": "Fortaleza", "addr:housenumber": "1290", "addr:postcode": "60430-380", "addr:street": "Rua Pastor Samuel Munguba", "addr:suburb": "Rodolfo Te\u00f3filo", "alt_name": "Hospital das Clinicas de Fortaleza", "amenity": "hospital", "healthcare": "hospital", "name": "Hospital Universit\u00e1rio Walter Cant\u00eddio", "operator": "Universidade Federal do Cear\u00e1", "operator:type": "public", "ref:CNES": "2561492", "short_name": "HUWC", "source": "Secretaria Municipal da Sa\u00fade de Fortaleza", "source:date": "2019", "website": "http://cnes2.datasus.gov.br/Exibe_Ficha_Estabelecimento.asp?VCo_Unidade=2304402561492"}}, {"type": "node", "id": 10825359008, "lat": -3.7622992, "lon": -38.5746336, "tags": {"addr:city": "Fortaleza", "addr:housenumber": "155", "addr:postcode": "60520-101", "addr:street": "Avenida Lineu Machado", "addr:suburb": "J\u00f3quei Clube", "amenity": "hospital", "emergency": "yes", "healthcare": "hospital", "name": "Hospital da Crian\u00e7a de Fortaleza", "official_name": "Hospital da Crian\u00e7a de Fortaleza Doutora L\u00facia de F\u00e1tima Ribeiro Guimar\u00e3es S\u00e1", "opening_hours": "24/7", "operator": "Secretaria Municipal da Sa\u00fade de Fortaleza", "operator:type": "public", "phone": "+55 85 2180 6706", "pmfsefin:idedif": "832000", "ref:CNES": "2529475", "source": "Secretaria Municipal da Sa\u00fade de Fortaleza", "source:date": "2019", "website": "http://cnes2.datasus.gov.br/Exibe_Ficha_Estabelecimento.asp?VCo_Unidade=2304402529475"}}, {"type": "node", "id": 10864637309, "lat": -5.0671483, "lon": -36.0425915, "tags": {"amenity": "hospital", "healthcare": "hospital", "healthcare:speciality": "paediatrics;general", "name": "UBS"}}, {"type": "node", "id": 10864861110, "lat": -3.7339452, "lon": -38.5351652, "tags": {"amenity": "hospital", "healthcare": "hospital", "name": "Hospital Central de Fortaleza - HCF"}}, {"type": "node", "id": 10870566382, "lat": -3.7562976, "lon": -38.5206666, "tags": {"addr:city": "Fortaleza", "addr:housenumber": "4000", "addr:street": "Avenida Visconde do Rio Branco", "addr:suburb": "S\u00e3o Jo\u00e3o do Tauape", "amenity": "hospital", "emergency": "yes", "healthcare": "hospital", "name": "Hospital Regional Unimed Fortaleza", "operator": "Unimed"}}, {"type": "node", "id": 10889227205, "lat": -8.055142, "lon": -34.8999814, "tags": {"addr:housenumber": "629", "addr:postcode": "52010 - 130", "addr:street": "Rua Jener de Souza", "amenity": "hospital", "internet_access": "wlan", "name:en": "RARUS - Recife /\"CENTRO DE REFERENCIAS DE DOEN\u00c7AS RARAs"}}, {"type": "node", "id": 10957531886, "lat": -3.7340691, "lon": -38.523998, "tags": {"addr:city": "Fortaleza", "addr:housenumber": "60", "addr:street": "Avenida Her\u00e1clito Gra\u00e7a", "addr:suburb": "Centro", "alt_name": "Hospital Infantil Luis Fran\u00e7a", "amenity": "hospital", "healthcare": "hospital", "name": "Hospital Lu\u00eds Fran\u00e7a", "operator": "Hapvida"}}, {"type": "node", "id": 10995346569, "lat": -9.586599, "lon": -35.758617, "tags": {"addr:city": "Macei\u00f3-Alagoas", "addr:housenumber": "334-346", "addr:postcode": "57082-890", "addr:street": "R. Aquidauana", "addr:suburb": "Santa L\u00facia", "amenity": "hospital", "emergency": "yes", "healthcare": "hospital", "healthcare:speciality": "general", "name": "UPA DA SANTA L\u00daCIA (antigo campo do Brasil)", "operator": "Governo de Alagoas", "operator:type": "p\u00fablico", "wheelchair": "yes"}}, {"type": "node", "id": 11065945795, "lat": -3.7390481, "lon": -38.4997702, "tags": {"addr:city": "Fortaleza", "addr:housenumber": "1500", "addr:postcode": "60170-002", "addr:street": "Avenida Desembargador Moreira", "addr:suburb": "Aldeota", "amenity": "hospital", "healthcare": "hospital", "name": "Hospital Geral do Ex\u00e9rcito de Fortaleza", "operator": "Ex\u00e9rcito Brasileiro", "operator:type": "public", "phone": "+55 85 3089 6200", "ref:CNES": "2562693", "short_name": "HGeF", "source": "Secretaria Municipal da Sa\u00fade de Fortaleza", "source:date": "2019", "website": "https://www.hgef.eb.mil.br/"}}, {"type": "node", "id": 11090579836, "lat": -3.7781343, "lon": -38.5654073, "tags": {"addr:city": "Fortaleza", "addr:housenumber": "88", "addr:street": "Avenida Godofredo Maciel", "addr:suburb": "Parangaba", "amenity": "hospital", "healthcare": "hospital", "name": "Pronto Atendimento Parangaba", "pmfsefin:idedif": "830946"}}, {"type": "node", "id": 11191484119, "lat": -7.1178031, "lon": -34.8666997, "tags": {"amenity": "hospital", "healthcare": "hospital", "healthcare:speciality": "general", "name": "Hospital do Servidor Gal Edson Ramalho"}}, {"type": "way", "id": 37060473, "center": {"lat": -9.5591251, "lon": -35.7791224}, "nodes": [2654864776, 431013116, 2654864786, 2654864817, 2654864793, 2654864776], "tags": {"amenity": "hospital", "healthcare": "hospital", "name": "Hospital Universit\u00e1rio", "official_name": "Hospital Universit\u00e1rio Professor Alberto Antunes"}}, {"type": "way", "id": 45823161, "center": {"lat": -5.8163136, "lon": -35.2048157}, "nodes": [583261983, 583261986, 4768776836, 583261978, 583261984, 501619315, 583261983], "tags": {"amenity": "hospital", "building": "yes", "healthcare": "hospital", "name": "Hospital da Unimed"}}, {"type": "way", "id": 52697741, "center": {"lat": -9.624849, "lon": -35.736456}, "nodes": [668899547, 4858063380, 668899546, 6865267213, 6865267212, 668899543, 668899544, 2589922130, 4858063381, 668899547], "tags": {"addr:city": "Macei\u00f3", "addr:postcode": "57052-400", "addr:street": "Avenida Fernandes Lima", "addr:suburb": "Farol", "alt_name": "Hospital dos Usineiros", "amenity": "hospital", "barrier": "wall", "contact:email": "atendimento@hospitaldoacucar.com.br", "contact:phone": "+55 82 3218-0204", "contact:website": "http://www.hospitaldoacucar.com.br/", "emergency": "yes", "healthcare": "hospital", "helipad": "no", "internet_access": "wlan", "name": "Hospital Veredas", "operator": "Hospital Veredas", "operator:type": "private"}}, {"type": "way", "id": 52697742, "center": {"lat": -9.6206103, "lon": -35.7373783}, "nodes": [668899545, 4857966609, 4857966610, 4857966608, 4857966611, 4857966612, 4857966613, 4857966614, 668899548, 7686888958, 4857966582, 4857966615, 4857966536, 668899549, 4857966617, 4857966616, 4857966618, 668899550, 668923409, 668899552, 668899545], "tags": {"addr:housenumber": "253", "addr:street": "Rua Hugo Corr\u00eaa Paes", "amenity": "hospital", "healthcare": "hospital", "name": "Hospital Arthur Ramos"}}, {"type": "way", "id": 65017594, "center": {"lat": -9.657855, "lon": -35.7315377}, "nodes": [796372612, 796372617, 2584227569, 2584227532, 2584227536, 2584227559, 2584227524, 2584227540, 2584227553, 796372620, 796372626, 796372612], "tags": {"amenity": "hospital", "healthcare": "hospital", "name": "UNIMED", "operator": "Unimed", "operator:wikidata": "Q7865295", "operator:wikipedia": "pt:Unimed"}}, {"type": "way", "id": 65247377, "center": {"lat": -9.5732558, "lon": -35.7735174}, "nodes": [797751505, 2849467864, 2849467866, 2849467867, 797751505], "tags": {"access": "yes", "addr:city": "Macei\u00f3", "addr:street": "Avenida Doutor Durval de G\u00f3es Monteiro", "addr:suburb": "Tabuleiro dos Martins", "amenity": "hospital", "healthcare": "hospital", "name": "UPA Tabuleiro"}}, {"type": "way", "id": 65588013, "center": {"lat": -7.1270886, "lon": -34.8756522}, "nodes": [799983423, 799983424, 799983425, 799983427, 799983429, 799983431, 799983423], "tags": {"amenity": "hospital", "healthcare": "hospital", "healthcare:speciality": "maternity", "name": "Instituto C\u00e2ndida Vargas", "operator": "Prefeitura Municipal de Jo\u00e3o Pessoa"}}, {"type": "way", "id": 69639415, "center": {"lat": -9.136204, "lon": -35.75821}, "nodes": [833214603, 833214604, 833214605, 833214606, 833214603], "tags": {"amenity": "hospital"}}, {"type": "way", "id": 93197757, "center": {"lat": -5.8570053, "lon": -35.2120106}, "nodes": [1080431543, 1080431614, 1080431685, 3273446579, 3273446578, 1080431525, 1080431543], "tags": {"addr:city": "Natal - RN", "addr:housenumber": "1021", "addr:postcode": "59080-560", "addr:street": "Alameda das Ac\u00e1cias", "addr:suburb": "Ne\u00f3polis", "amenity": "hospital", "healthcare": "hospital", "name": "Hapvida Zona Sul", "phone": "+55 (84)4002-3633", "website": "hapvida.com.br"}}, {"type": "way", "id": 96009026, "center": {"lat": -5.7816797, "lon": -35.1980505}, "nodes": [1112409161, 1112409229, 1112409035, 1112408918, 1112409213, 1112409196, 1112408965, 1112409006, 1112408881, 1112409167, 1112408914, 1112409123, 1112408936, 1112409204, 1112408899, 1112409085, 1112408984, 1112409082, 9875622503, 9875622502, 506577204, 9875622501, 9875622500, 1112408946, 1112409174, 1112409161], "tags": {"addr:city": "Natal - RN", "addr:housenumber": "259", "addr:postcode": "59012-310", "addr:street": "Avenida Nilo Pe\u00e7anha", "addr:suburb": "Petr\u00f3polis", "amenity": "hospital", "building": "yes", "emergency": "yes", "healthcare": "hospital", "name": "Maternidade Escola Janu\u00e1rio Cicco", "opening_hours": "24/7", "phone": "+55 (84) 3215-5990", "website": "mejc.ebserh.gov.br"}}, {"type": "way", "id": 103427884, "center": {"lat": -3.8776889, "lon": -38.6233482}, "nodes": [1194255670, 6439931034, 1194255671, 3752035092, 2554174386, 1194255672, 1194255673, 9517553558, 9517553557, 1194255675, 9517553550, 9517553553, 1194255676, 9517553559, 1194255677, 1194255678, 1194255685, 6475443044, 3752035094, 2554133554, 2554133555, 6440630610, 2554133556, 6440630611, 1194255688, 1194255689, 6440630618, 1194255670], "tags": {"amenity": "hospital", "healthcare": "hospital"}}, {"type": "way", "id": 161389695, "center": {"lat": -6.7727055, "lon": -38.230203}, "nodes": [1733637389, 1733637390, 1733637387, 1733637383, 1733637389], "tags": {"amenity": "hospital", "healthcare": "hospital", "name": "Complexo M\u00e9dico-hospitalar Santa Terezinha"}}, {"type": "way", "id": 161389696, "center": {"lat": -6.7643607, "lon": -38.2200803}, "nodes": [1733637386, 1733637385, 1733637384, 1733637388, 1733637386], "tags": {"amenity": "hospital", "emergency": "yes", "healthcare": "hospital", "name": "Hospital Regional de Sousa"}}, {"type": "way", "id": 168664115, "center": {"lat": -7.0348393, "lon": -37.2899743}, "nodes": [1798902484, 1798902468, 1798902527, 1798902605, 1798902584, 1798902567, 1798902601, 1798902598, 1798902507, 1798902557, 1798902604, 1798902523, 1798902473, 1798902520, 1798902478, 1798902484], "tags": {"addr:city": "Patos", "addr:housenumber": "S/N", "addr:street": "Rua Elias Asfora", "addr:suburb": "Maternidade", "amenity": "hospital", "healthcare": "hospital", "name": "Maternidade Doutor Peregrino Filho", "opening_hours": "24/7"}}, {"type": "way", "id": 169053689, "center": {"lat": -7.0271103, "lon": -37.2747522}, "nodes": [1802271600, 5037885063, 5037885070, 5037885062, 5037885059, 5037885057, 5037885078, 5037885055, 5037885053, 1802271603, 5037885034, 1802271604, 5037885077, 1802271611, 1802271601, 1802271602, 1802271600], "tags": {"amenity": "hospital", "emergency": "yes", "healthcare": "hospital", "name": "Hospital S\u00e3o Francisco", "opening_hours": "24/7"}}, {"type": "way", "id": 169053728, "center": {"lat": -7.0151631, "lon": -37.2807335}, "nodes": [1802273415, 1802273402, 1802273410, 5008518567, 1802273404, 1802273415], "tags": {"amenity": "hospital", "healthcare": "hospital", "name": "Hospital Infantil Noaldo Leite", "opening_hours": "24/7"}}, {"type": "way", "id": 169054386, "center": {"lat": -7.0172652, "lon": -37.2828425}, "nodes": [1802276815, 1967475117, 1967475113, 1967475137, 1802276816, 1967475144, 4913745397, 8043216273, 6439813295, 6439813292, 8043216274, 1802276817, 8043216277, 8043216275, 8043216278, 8043216279, 8043216280, 8043216276, 8043232985, 1802276813, 4972853694, 8043216244, 8043216250, 8043216245, 11241587582, 8043216253, 4972853695, 8043216236, 1802276818, 11241587583, 11241587596, 11241587589, 1802276809, 4972853696, 4972853693, 4972853692, 1802276815], "tags": {"addr:street": "Rua Hor\u00e1cio N\u00f3brega", "amenity": "hospital", "emergency": "yes", "healthcare": "hospital", "name": "Complexo Hospitalar Regional de Patos", "official_name": "Hospital Regional Deputado Janduhy Carneiro", "opening_hours": "24/7", "operator": "Governo do Estado da Para\u00edba"}}, {"type": "way", "id": 171716063, "center": {"lat": -5.8157028, "lon": -35.2288025}, "nodes": [1827055974, 1827056001, 1827056007, 1827056024, 1827056021, 1827056058, 1827056047, 1827056053, 1827056050, 1827056055, 1827056044, 1827056040, 1827056030, 1827056036, 1827056032, 1827056042, 1827056038, 1827056034, 1827056026, 1827056028, 1827056023, 1827056022, 1827056020, 1827056009, 1827056005, 1827056003, 1827055997, 1827055995, 1827055993, 5604340828, 1827056011, 1827055999, 5604340830, 1827055991, 1827055989, 1827055987, 1827055981, 1827055983, 1827055980, 1827055979, 1827055978, 1827055977, 1827055976, 1827055975, 1827055985, 1827055973, 1827055974], "tags": {"alt_name": "Centro Avan\u00e7ado de Oncologia;Liga Contra o C\u00e2ncer", "amenity": "hospital", "building": "yes", "name": "CECAN - Liga Centro avan\u00e7ado de oncologia"}}, {"type": "way", "id": 172598676, "center": {"lat": -5.1837498, "lon": -37.3512705}, "nodes": [1834887532, 1834887529, 1834887530, 1834887531, 1834887532], "tags": {"amenity": "hospital", "name": "Hospital Rodolfo Fernandes"}}, {"type": "way", "id": 174008949, "center": {"lat": -6.7597386, "lon": -38.2289443}, "nodes": [1847512317, 1847512318, 1847512319, 1847512316, 1847512317], "tags": {"amenity": "hospital", "emergency": "no", "healthcare": "hospital", "healthcare:speciality": "general", "name": "Casa de Sa\u00fade Bom Jesus"}}, {"type": "way", "id": 174010751, "center": {"lat": -6.7627714, "lon": -38.2307153}, "nodes": [1847532953, 1850890806, 1847532960, 1847532949, 1847532951, 1847532956, 1847532955, 1847532962, 1847532958, 1847532953], "tags": {"amenity": "hospital", "emergency": "no", "healthcare": "hospital", "name": "Hospital Materno-infantil"}}, {"type": "way", "id": 174698732, "center": {"lat": -6.8438613, "lon": -38.3131932}, "nodes": [1853534969, 1853534897, 1853534920, 1853534903, 1853534963, 1853534914, 1853534969], "tags": {"amenity": "hospital", "emergency": "no", "name": "Mini Hospital de S\u00e3o Gon\u00e7alo"}}, {"type": "way", "id": 174949585, "center": {"lat": -6.8852127, "lon": -38.5545841}, "nodes": [1855910258, 1855910243, 1855910274, 1855910248, 1855910258], "tags": {"amenity": "hospital", "emergency": "yes", "healthcare": "hospital", "name": "Hospital Regional de Cajazeiras"}}, {"type": "way", "id": 176413196, "center": {"lat": -7.116427, "lon": -34.8429855}, "nodes": [1869474396, 1869474266, 1869474336, 1869474362, 1869474339, 1869474317, 1869474357, 1869474275, 1869474399, 1869474366, 1869474312, 1869474278, 1869474277, 1869474396], "tags": {"addr:city": "Jo\u00e3o Pessoa", "addr:street": "Rodovia Governador Ant\u00f4nio Mariz", "amenity": "hospital", "emergency": "yes", "healthcare": "hospital", "name": "Hospital de Emerg\u00eancia e Trauma Senador Humberto Lucena", "toilets:wheelchair": "yes", "wheelchair": "limited"}}, {"type": "way", "id": 178356769, "center": {"lat": -8.8867499, "lon": -36.4823928}, "nodes": [1887176359, 1887176365, 1887176363, 1887176361, 1887176359], "tags": {"amenity": "hospital", "healthcare": "hospital", "name": "Hospital Nossa Senhora do Perp\u00e9tuo Socorro"}}, {"type": "way", "id": 178639634, "center": {"lat": -8.885795, "lon": -36.4803519}, "nodes": [1889847150, 1889847147, 1889847157, 7691204748, 7691204749, 1889847154, 1889847150], "tags": {"amenity": "hospital", "building": "yes", "building:levels": "3", "healthcare": "hospital", "name": "Hospital Monte Sinai"}}, {"type": "way", "id": 178640046, "center": {"lat": -8.8974994, "lon": -36.495649}, "nodes": [1889858907, 1889858904, 1889858886, 1889858901, 6631061371, 6631061289, 6631061290, 6631061293, 1889858883, 1889858907], "tags": {"addr:city": "garanhuns", "addr:street": "Rua Capit\u00e3o Jo\u00e3o Leite", "amenity": "hospital", "healthcare": "hospital", "name": "Hospital Infantil Palmira Sales"}}, {"type": "way", "id": 179793975, "center": {"lat": -6.4698337, "lon": -37.1113184}, "nodes": [1902314599, 1902314605, 1902314597, 1902314593, 1902314599], "tags": {"addr:city": "Caic\u00f3 - RN", "addr:postcode": "59300-000", "addr:street": "Estrada do Per\u00edmetro Irrigado do Sabugi, s/n", "addr:suburb": "Paulo VI", "amenity": "hospital", "emergency": "yes", "name": "Hospital Regional do Serid\u00f3", "opening_hours": "24/7", "phone": "+55 (84) 3421-9628"}}, {"type": "way", "id": 179794857, "center": {"lat": -6.4666722, "lon": -37.094552}, "nodes": [1902326173, 1902326170, 1902326172, 1902326175, 1902326173], "tags": {"amenity": "hospital", "emergency": "yes", "healthcare": "hospital", "name": "Hospital do Serid\u00f3"}}, {"type": "way", "id": 183594893, "center": {"lat": -6.1341817, "lon": -38.2043581}, "nodes": [1939997014, 1939990921, 1939990968, 5111168778, 5111168777, 1939997020, 1939997014], "tags": {"addr:city": "Pau dos Ferros", "addr:housenumber": "s/n", "addr:postcode": "59900-000", "addr:street": "Rodovia BR-405, Km 3", "addr:suburb": "Arizona", "amenity": "hospital", "emergency": "yes", "healthcare": "hospital", "name": "Hospital Regional Dr Cleodon Carlos de Andrade", "opening_hours": "24/7", "phone": "+55 84 3351-9870", "website": "http://cnes2.datasus.gov.br"}}, {"type": "way", "id": 188741037, "center": {"lat": -8.8819312, "lon": -36.4836403}, "nodes": [1993609392, 1993609397, 1993609395, 1993609393, 1993609392], "tags": {"addr:city": "Garanhuns-PE", "addr:postcode": "55290-000", "addr:street": "Avenida Simoa Gomes", "addr:suburb": "Heli\u00f3polis", "amenity": "hospital", "emergency": "yes", "healthcare": "hospital", "name": "Hospital Regional Dom Moura (HRDM)"}}, {"type": "way", "id": 191651074, "center": {"lat": -7.1298118, "lon": -34.8577037}, "nodes": [2022348775, 2022348763, 2022348760, 2022348774, 2022348758, 2022348772, 2022348766, 2022348770, 2022348764, 2022348756, 2022348769, 2022348775], "tags": {"addr:city": "Jo\u00e3o Pessoa", "addr:housenumber": "1450", "addr:street": "Avenida Ministro Jos\u00e9 Am\u00e9rico de Almeida", "addr:suburb": "Torre", "amenity": "hospital", "emergency": "yes", "healthcare": "hospital", "name": "Hospital Alberto Urquiza Wanderley", "operator": "Unimed"}}, {"type": "way", "id": 191659370, "center": {"lat": -7.1122267, "lon": -34.8244949}, "nodes": [2022438455, 2022438453, 2022438457, 2022438456, 2022438455], "tags": {"addr:city": "Jo\u00e3o Pessoa", "addr:street": "Avenida Olinda", "amenity": "hospital", "healthcare": "hospital", "name": "Unidade de Sa\u00fade das Praias"}}, {"type": "way", "id": 191667324, "center": {"lat": -7.096844, "lon": -34.8398032}, "nodes": [2022546408, 2022546409, 2022546410, 2022546407, 2022546408], "tags": {"amenity": "hospital", "emergency": "yes", "healthcare": "hospital", "name": "UPA Oceania"}}, {"type": "way", "id": 192460261, "center": {"lat": -6.4598067, "lon": -37.0972493}, "nodes": [2030139035, 2030139036, 2030139033, 2030139034, 2030139035], "tags": {"amenity": "hospital", "emergency": "no", "healthcare": "hospital", "name": "Hospital de Oncologia do Serid\u00f3"}}, {"type": "way", "id": 192462451, "center": {"lat": -6.4439531, "lon": -37.0957151}, "nodes": [3887666718, 2030156288, 2030156285, 2030156289, 3887666718], "tags": {"amenity": "hospital", "emergency": "yes", "name": "Hospital Psiqui\u00e1trico Milton Marinho-"}}, {"type": "way", "id": 193187815, "center": {"lat": -3.7125865, "lon": -38.5730157}, "nodes": [9025741856, 9025729399, 9025741909, 9025741838, 9025741912, 9025741885, 10870781707, 10870781706, 9025741824, 9025741826, 10876276667, 9025729402, 10870791053, 9025729406, 9025741916, 9025741856], "tags": {"addr:city": "Fortaleza", "addr:housenumber": "5445", "addr:postcode": "60335-195", "addr:street": "Avenida Francisco S\u00e1", "addr:suburb": "\u00c1lvaro Weyne", "amenity": "hospital", "emergency": "yes", "healthcare": "hospital", "name": "Hospital Fernandes T\u00e1vora", "operator": "Instituto Pr\u00e1xis", "operator:type": "ngo", "phone": "+55 85 3228 2555", "ref:CNES": "3969800", "short_name": "HFT", "source": "Secretaria Municipal da Sa\u00fade de Fortaleza", "source:date": "2019", "website": "https://hospitalfernandestavora.com.br/"}}, {"type": "way", "id": 195040105, "center": {"lat": -7.1329882, "lon": -34.8588012}, "nodes": [2055377571, 2055377524, 2055377539, 2055377554, 2055377549, 2055377545, 2055377572, 2055377550, 2055377573, 2055377587, 2055377538, 2055377592, 2055377578, 2055377530, 2055377565, 2055377558, 2055377563, 2055377576, 2055377552, 2055377534, 2055377537, 2055377555, 2055377548, 2055377586, 2055377571], "tags": {"amenity": "hospital", "building": "yes", "healthcare": "hospital", "name": "Hospital Nossa Senhora das Neves", "name:pt": "Hospital Nossa Senhora das Neves"}}, {"type": "way", "id": 197031934, "center": {"lat": -7.2276196, "lon": -35.8695253}, "nodes": [2073228018, 6428602783, 2073227994, 2073228003, 2073228010, 2073228019, 2073227998, 2073228018], "tags": {"alt_name": "Hospital Doutor Edglay", "amenity": "hospital", "emergency": "yes", "healthcare": "hospital", "name": "Hospital Doutor Edgley", "phone": "+55 83 3077 1441"}}, {"type": "way", "id": 197039287, "center": {"lat": -7.2155119, "lon": -35.8781355}, "nodes": [2073316196, 2073316146, 2073316147, 2073316199, 2073316196], "tags": {"amenity": "hospital", "healthcare": "hospital", "name": "Unimed Campina Grande"}}, {"type": "way", "id": 199254039, "center": {"lat": -4.744377, "lon": -37.9574901}, "nodes": [2092694038, 2092694037, 2092694033, 2092694034, 2092694038], "tags": {"amenity": "hospital", "emergency": "no"}}, {"type": "way", "id": 200523610, "center": {"lat": -5.1546717, "lon": -38.0918854}, "nodes": [2104971920, 2104971918, 2104971915, 2104971913, 2104971920], "tags": {"addr:city": "Limoeiro do Norte", "addr:housename": "PSF - Populares", "addr:postcode": "62930-000", "addr:street": "Rua Coronel Jos\u00e9 Nunes", "amenity": "hospital", "description": "Programa de Sa\u00fade da Fam\u00edlia", "emergency": "no", "healthcare": "hospital", "name": "Posto de Sa\u00fade Jo\u00e3o Eduardo Neto", "source": "GPS"}}, {"type": "way", "id": 202721366, "center": {"lat": -7.221693, "lon": -35.887931}, "nodes": [2126717568, 2126717565, 5206835510, 5206835512, 2126717561, 2126717563, 5206835511, 5206835509, 2126717568], "tags": {"amenity": "hospital", "emergency": "yes", "healthcare": "hospital", "name": "Clipsi Hospital Geral", "opening_hours": "24/7"}}, {"type": "way", "id": 204761197, "center": {"lat": -7.7418928, "lon": -38.1000939}, "nodes": [2147370114, 2147370095, 2147370098, 2147370110, 2147370111, 2147370097, 2147370103, 2147370088, 2147370114], "tags": {"amenity": "hospital", "emergency": "no", "healthcare": "hospital", "name": "Hospital Municipal"}}, {"type": "way", "id": 204920610, "center": {"lat": -7.7410004, "lon": -37.9929692}, "nodes": [2148991090, 2148991127, 2148991128, 2148991043, 2148991131, 2148991082, 2148991090], "tags": {"amenity": "hospital", "emergency": "yes", "healthcare": "hospital", "name": "Hospital S\u00e3o Vicente de Paulo"}}, {"type": "way", "id": 204920624, "center": {"lat": -7.741383, "lon": -37.9949917}, "nodes": [2148991087, 2148991074, 2148991057, 2148991108, 2148991087], "tags": {"amenity": "hospital", "healthcare": "hospital", "name": "PSF Maia"}}, {"type": "way", "id": 207215866, "center": {"lat": -5.0838868, "lon": -37.611225}, "nodes": [2173773710, 2173773711, 2173773712, 2173773713, 2173773714, 2173773710], "tags": {"amenity": "hospital", "emergency": "yes"}}, {"type": "way", "id": 220188965, "center": {"lat": -4.74803, "lon": -37.9614654}, "nodes": [2092750755, 2293194004, 2293194007, 2293194006, 2092750755], "tags": {"amenity": "hospital", "emergency": "no"}}, {"type": "way", "id": 220689267, "center": {"lat": -3.7133123, "lon": -38.5731465}, "nodes": [9025741856, 9025741916, 9025741859, 9025741862, 9025741887, 9025741840, 9025741869, 9025741928, 9025741900, 9025741880, 9025741892, 9025741889, 9025741894, 9025741922, 9025741856], "tags": {"addr:city": "Fortaleza", "addr:housenumber": "1300", "addr:postcode": "60336-232", "addr:street": "Rua Francisco Cala\u00e7a", "addr:suburb": "Floresta", "amenity": "hospital", "emergency": "no", "healthcare": "hospital", "name": "Centro Regional Integrado de Oncologia", "phone": "+55 85 3282 4585", "short_name": "CRIO", "website": "http://crio.com.br/"}}, {"type": "way", "id": 223034418, "center": {"lat": -8.1573992, "lon": -34.9111953}, "nodes": [2319785204, 10104716701, 10104716696, 10104716695, 2319785159, 2319785178, 2319785158, 10104719167, 2319785155, 2319785165, 2319785151, 2319785150, 2319785174, 2319785167, 2319785182, 10104719178, 10104719177, 10104719174, 2319785185, 2319785180, 2319785204], "tags": {"amenity": "hospital", "healthcare": "hospital", "name": "Hospital de Aeron\u00e1utica de Recife (HARF)"}}, {"type": "way", "id": 227228631, "center": {"lat": -8.5963462, "lon": -38.5729975}, "nodes": [2359436655, 2359436663, 2359436653, 2359436642, 2359436655], "tags": {"amenity": "hospital", "emergency": "yes", "name": "Cl\u00ednica Santa Izabel"}}, {"type": "way", "id": 227228636, "center": {"lat": -8.5988763, "lon": -38.5708786}, "nodes": [2359436651, 2359436648, 2359436650, 2359436649, 2359436651], "tags": {"amenity": "hospital", "emergency": "yes", "healthcare": "hospital", "name": "Hospital Cel. Alvaro Ferraz"}}, {"type": "way", "id": 227354974, "center": {"lat": -8.9028803, "lon": -37.8239511}, "nodes": [2360536566, 2360536567, 2360536568, 2360536569, 2360536566], "tags": {"addr:city": "Inaj\u00e1", "addr:street": "Rua C\u00edcero Torres", "addr:suburb": "Centro", "amenity": "hospital", "emergency": "yes", "healthcare": "hospital", "name": "Casa Mista de Sa\u00fade Santa Rita", "operator": "Secretaria Municipal de Sa\u00fade de Inaj\u00e1, SUS", "operator:type": "public"}}, {"type": "way", "id": 235036151, "center": {"lat": -7.2263131, "lon": -39.3254271}, "nodes": [2429725305, 2429725304, 2431426001, 2429725301, 7387351253, 7387351223, 7387351226, 7387351227, 7387351228, 7387351214, 7387351229, 7387351241, 7387351230, 7387351231, 7387351232, 7387351233, 2429725305], "tags": {"amenity": "hospital", "building:levels": "2", "healthcare": "hospital", "name": "Hospital Regional do Cariri"}}, {"type": "way", "id": 238747526, "center": {"lat": -5.1545981, "lon": -38.0966491}, "nodes": [2465468944, 2465468945, 2465468946, 2465468947, 2465468948, 2465468949, 2465468953, 2465468954, 2465468955, 2465468952, 2465468950, 4953495677, 2465468944], "tags": {"addr:street": "Rua Jo\u00e3o Maria de Freitas", "amenity": "hospital", "healthcare": "hospital", "layer": "1", "name": "Policl\u00ednica Regional", "operator": "Sistema \u00danico de Sa\u00fade", "operator:short": "SUS", "operator:wikidata": "Q7531056", "operator:wikipedia": "pt:Sistema \u00danico de Sa\u00fade"}}, {"type": "way", "id": 239140817, "center": {"lat": -5.1405309, "lon": -38.0961655}, "nodes": [2469483318, 2469483319, 2469483320, 2469483321, 2469483318], "tags": {"amenity": "hospital", "healthcare": "hospital", "name": "Hospital Regional Doutor Deocl\u00e9cio Lima Verde", "operator": "Sistema \u00danico de Sa\u00fade", "operator:short": "SUS", "operator:wikidata": "Q7531056", "operator:wikipedia": "pt:Sistema \u00danico de Sa\u00fade"}}, {"type": "way", "id": 241389378, "center": {"lat": -7.2366739, "lon": -39.4156208}, "nodes": [2490395647, 2490395648, 2490395650, 2490395652, 2490395647], "tags": {"amenity": "hospital"}}, {"type": "way", "id": 241574367, "center": {"lat": -7.2201731, "lon": -39.3170415}, "nodes": [2491844221, 2491844222, 2491844223, 2491844224, 2491844221], "tags": {"amenity": "hospital", "building": "yes"}}, {"type": "way", "id": 242435993, "center": {"lat": -7.9481567, "lon": -34.890163}, "nodes": [2499074166, 1522385159, 1522385192, 2499074173, 2499074174, 5600445429, 2499074175, 5600445428, 2499074166], "tags": {"addr:city": "Paulista", "addr:housenumber": "1000", "addr:street": "Estrada do Frio", "addr:suburb": "Aurora", "amenity": "hospital", "email": "paulista.administracao@upa.imip.org.br", "name": "UPA Paulista \u2013 Geraldo Pinho Alves", "phone": "+55 81 3184 - 4255"}}, {"type": "way", "id": 242898202, "center": {"lat": -3.8220914, "lon": -38.4819239}, "nodes": [8981597052, 2503434284, 8981597049, 8981597048, 8981597047, 8981597046, 8981597045, 2503434285, 6011372279, 8981597044, 8981597043, 8981597042, 8981597041, 8981597040, 8981597039, 8981597038, 8981597037, 2503434283, 8981597029, 2503434282, 8981597050, 8981597051, 8981597052], "tags": {"addr:city": "Fortaleza", "addr:housenumber": "7700", "addr:postcode": "60811-341", "addr:street": "Avenida Washinton Soares", "addr:suburb": "Messejana", "amenity": "hospital", "barrier": "wall", "emergency": "yes", "healthcare": "hospital", "loc_name": "Gonzaguinha da Messejana", "name": "Hospital Distrital Gonzaga Mota", "official_name": "Hospital Distrital Gonzaga Mota de Messejana", "operator": "Secretaria Municipal da Sa\u00fade de Fortaleza", "operator:type": "public", "phone": "+55 85 3105 1590", "ref:CNES": "2723212", "source": "Secretaria Municipal da Sa\u00fade de Fortaleza", "source:date": "2019", "website": "http://cnes2.datasus.gov.br/Exibe_Ficha_Estabelecimento.asp?VCo_Unidade=2304402723212"}}, {"type": "way", "id": 242944986, "center": {"lat": -3.8154655, "lon": -38.4997522}, "nodes": [2503832211, 2503832210, 2503832209, 8983563112, 2503832208, 8983563111, 8983563110, 8983563109, 2503832207, 2503832202, 8983563108, 8983563107, 2503832203, 2503832205, 5854177579, 2503832211], "tags": {"addr:city": "Fortaleza", "addr:housenumber": "3480", "addr:postcode": "60160-160", "addr:street": "Avenida Frei Cirilo", "addr:suburb": "Cajazeiras", "amenity": "hospital", "emergency": "yes", "healthcare": "hospital", "healthcare:speciality": "cardiology;emergency", "name": "Hospital de Messejana", "note": "Somente emerg\u00eancias Card\u00edacas e Pulmonares", "official_name": "Hospital de Messejana Doutor Carlos Alberto Studart Gomes", "operator": "Secretaria da Sa\u00fade do Estado do Cear\u00e1", "operator:type": "public", "phone": "+55 85 3101 4075", "ref:CNES": "2479214", "short_name": "HM", "source": "Secretaria Municipal da Sa\u00fade de Fortaleza", "source:date": "2019", "website": "https://www.hm.ce.gov.br/", "wheelchair": "yes"}}, {"type": "way", "id": 243234590, "center": {"lat": -3.8294797, "lon": -38.5090786}, "nodes": [2506547105, 2506547107, 8938962587, 8938962590, 2506547099, 8938962586, 2506547103, 2506547105], "tags": {"addr:city": "Fortaleza", "addr:housenumber": "1578", "addr:postcode": "60863-254", "addr:street": "Avenida Jornalista Thomaz Coelho", "addr:suburb": "Messejana", "amenity": "hospital", "emergency": "yes", "name": "Frotinha da Messejana", "official_name": "Hospital Distrital Edmilson Barros de Oliveira", "operator": "Secretaria Municipal da Sa\u00fade de Fortaleza", "operator:type": "public", "phone": "+55 85 3105 1560", "ref:CNES": "2516667", "source": "Secretaria Municipal da Sa\u00fade de Fortaleza", "source:date": "2019", "website": "http://cnes2.datasus.gov.br/Exibe_Ficha_Estabelecimento.asp?VCo_Unidade=2304402516667", "wheelchair": "yes"}}, {"type": "way", "id": 243311748, "center": {"lat": -3.7532788, "lon": -38.5228481}, "nodes": [6530489855, 10812757754, 10812757758, 10812757757, 10812757756, 10812757755, 6530489857, 6587123102, 6585186329, 6585186330, 2507386638, 6530489855], "tags": {"addr:city": "Fortaleza", "addr:housename": "Hospital Antonio Prudente", "addr:housenumber": "1827", "addr:street": "Avenida Aguanambi", "addr:suburb": "Jos\u00e9 Bonif\u00e1cio", "amenity": "hospital", "emergency": "yes", "healthcare": "hospital", "name": "Hospital Ant\u00f4nio Prudente"}}, {"type": "way", "id": 244114180, "center": {"lat": -7.2221061, "lon": -35.8978987}, "nodes": [2514640664, 2514640666, 2514640668, 6812609675, 2514640670, 2514640664], "tags": {"amenity": "hospital", "building": "yes", "healthcare": "hospital", "name": "Cl\u00ednica Santa Clara"}}, {"type": "way", "id": 244831491, "center": {"lat": -8.0723537, "lon": -34.9505579}, "nodes": [2521005538, 5284080275, 5342526319, 2521005974, 5342526826, 5342526827, 5342526839, 5284080291, 2521005541, 5244130077, 5244130076, 2521005542, 2521005543, 2521005538], "tags": {"addr:city": "Recife", "addr:housenumber": "km 06", "addr:street": "BR 232", "addr:suburb": "Curado", "amenity": "hospital", "healthcare": "hospital", "name": "Hospital Metropolitano Oeste \u2013 Pel\u00f3pidas Silveira", "phone": "+55 81 3183.0300", "website": "http://www.hps.imip.org.br"}}, {"type": "way", "id": 244901691, "center": {"lat": -8.0860039, "lon": -34.9621471}, "nodes": [2521719131, 2521719132, 2521719134, 4751359883, 4751359882, 2521719136, 2521719131], "tags": {"addr:city": "Recife", "addr:street": "Rua Aprigio Guimar\u00e3es", "addr:suburb": "Tejipio", "amenity": "hospital", "email": "diretoriahof@gmail.com", "healthcare": "hospital", "name": "Hospital Geral Ot\u00e1vio de Freitas", "phone": "+55 81 3182.8500"}}, {"type": "way", "id": 245566840, "center": {"lat": -7.0750691, "lon": -36.7323191}, "nodes": [2527452200, 2527452201, 2527452202, 9853357324, 9853350414, 2527452203, 2527452200], "tags": {"addr:street": "Rua Tereza Balduino da N\u00f3brega", "amenity": "hospital", "building": "yes", "healthcare": "hospital"}}, {"type": "way", "id": 247454251, "center": {"lat": -9.3950638, "lon": -38.2159774}, "nodes": [2543348160, 2543348162, 2543348165, 2543348167, 2543348170, 2543348172, 2543348174, 6966761589, 2543348177, 2543348179, 6966761640, 6966761637, 6966761639, 2543348182, 6966761641, 6966761638, 2543348184, 2543348186, 2543348189, 2543348191, 2543348193, 2543348197, 2543348199, 2543348200, 2543348203, 2543348205, 2543348209, 2543348212, 2543348215, 2543348219, 2543348222, 2543348224, 2543348160], "tags": {"amenity": "hospital", "healthcare": "hospital", "name": "Hospital Nair Alves de Souza", "short_name": "HNAS"}}, {"type": "way", "id": 247465719, "center": {"lat": -9.4484345, "lon": -38.2220322},