{"version": 0.6, "generator": "Overpass API 0.7.61.5 4133829e", "osm3s": {"timestamp_osm_base": "2023-10-31T20:49:30Z", "copyright": "The data included in this document is from www.openstreetmap.org. The data is made available under ODbL."}, "elements": [{"type": "node", "id": 35332689, "lat": -19.91788, "lon": -43.951836, "tags": {"amenity": "hospital", "healthcare": "hospital", "name": "Prontocor"}}, {"type": "node", "id": 321510735, "lat": -19.9321119, "lon": -44.0815901, "tags": {"amenity": "hospital", "name": "Posto de Sa\u00fade Bernardo Monteiro"}}, {"type": "node", "id": 453229829, "lat": -19.9398175, "lon": -44.0470889, "tags": {"amenity": "hospital", "name": "Iria Diniz"}}, {"type": "node", "id": 453234829, "lat": -19.9398351, "lon": -44.0441197, "tags": {"addr:city": "Contagem - MG", "addr:housenumber": "64", "addr:street": "Rua Casuarinas", "addr:suburb": "Eldorado", "amenity": "hospital", "healthcare": "hospital", "name": "Hospital Santa Helena"}}, {"type": "node", "id": 453686209, "lat": -19.9490305, "lon": -44.0259611, "tags": {"addr:city": "Contagem", "addr:housenumber": "1695", "addr:street": "Avenida Babita Camargos", "addr:suburb": "Cidade Industrial", "amenity": "hospital", "healthcare": "hospital", "name": "Pronto Socorro Unimed"}}, {"type": "node", "id": 453690483, "lat": -19.9654834, "lon": -44.0150767, "tags": {"amenity": "hospital", "name": "Hospital S\u00e3o Jos\u00e9"}}, {"type": "node", "id": 453690501, "lat": -19.9660607, "lon": -44.0148323, "tags": {"amenity": "hospital", "name": "Hospital Santa Rita"}}, {"type": "node", "id": 880758867, "lat": -19.9040364, "lon": -43.9060023, "tags": {"amenity": "hospital", "name": "Unidade de Pontro Atendimento - Regional Leste"}}, {"type": "node", "id": 955208575, "lat": -18.8911026, "lon": -48.2857099, "tags": {"amenity": "hospital", "name": "UAI Roosevelt"}}, {"type": "node", "id": 1005874823, "lat": -19.9274773, "lon": -43.9272161, "tags": {"amenity": "hospital", "emergency": "no", "healthcare": "hospital", "name": "Mediscan Medicina Diagn\u00f3stica"}}, {"type": "node", "id": 1050298120, "lat": -16.7358243, "lon": -49.2613964, "tags": {"addr:postcode": "74905-350", "addr:street": "Rua Gurupi", "addr:suburb": "Vila Brasilia", "amenity": "hospital", "healthcare": "hospital", "name": "Hospital S\u00e3o Bernardo", "phone": "+55 62 3230 1800", "ref:CNES": "2589761", "ref:vatin": "BR26878439000105"}}, {"type": "node", "id": 1228585870, "lat": -16.368522, "lon": -46.9011825, "tags": {"addr:housenumber": "1585", "addr:postcode": "38616-068", "addr:street": "Rua Virg\u00edlio Justiniano Ribeiro", "amenity": "hospital", "healthcare": "hospital", "name": "Hospital Municipal Doutor Joaquim Brochado", "operator:ref:vatin": "BR18125161000177", "phone": "+55 38 3677 5066", "ref:CNES": "2760924"}}, {"type": "node", "id": 1228586311, "lat": -16.3577708, "lon": -46.9033822, "tags": {"addr:housenumber": "325", "addr:postcode": "38610-066", "addr:street": "Avenida Jos\u00e9 Luiz Adjuto", "amenity": "hospital", "healthcare": "hospital", "name": "Hospital Santa M\u00f4nica", "ref:CNES": "4027612", "ref:vatin": "BR46009318000134", "website": "https://santamonicaunai.com.br/"}}, {"type": "node", "id": 1231540382, "lat": -16.6796754, "lon": -49.3277917, "tags": {"amenity": "hospital", "emergency": "yes", "name": "CAIS Bairro Goi\u00e1"}}, {"type": "node", "id": 1278857490, "lat": -14.205149, "lon": -41.6680062, "tags": {"amenity": "hospital", "check_date": "2022-12-30", "emergency": "yes", "healthcare": "hospital", "name": "IMED Sudoeste"}}, {"type": "node", "id": 1325750001, "lat": -14.2037291, "lon": -41.6751516, "tags": {"amenity": "hospital", "check_date": "2022-12-30", "emergency": "yes", "healthcare": "hospital", "name": "Hospital Professor Magalh\u00e3es Neto", "operator:type": "public"}}, {"type": "node", "id": 1457442328, "lat": -15.8229272, "lon": -48.0687961, "tags": {"addr:street": "QNC \u2013 \u00c1rea Especial n\u00ba 24", "amenity": "hospital", "emergency": "yes", "healthcare": "hospital", "name": "Emerg\u00eancia do Hospital Regional de Taguatinga - HRT", "opening_hours": "24/7", "phone": "(61) 2017-1700"}}, {"type": "node", "id": 1468884972, "lat": -19.7667138, "lon": -43.8526245, "tags": {"amenity": "hospital", "emergency": "no", "healthcare": "hospital", "healthcare:speciality": "general", "name": "Hospital Municipal Madalena Parrillo Calixto", "operator": "Prefeitura de Santa Luzia"}}, {"type": "node", "id": 1582698291, "lat": -19.8746503, "lon": -44.0064092, "tags": {"amenity": "hospital", "healthcare": "hospital"}}, {"type": "node", "id": 1593034711, "lat": -15.2459802, "lon": -40.2453582, "tags": {"addr:city": "Itapetinga", "amenity": "hospital", "emergency": "yes", "healthcare": "hospital", "name": "Cl\u00ednica Policlin", "phone": "+55 77 3261-5498", "wheelchair": "yes"}}, {"type": "node", "id": 1640391821, "lat": -19.9819228, "lon": -49.6776555, "tags": {"amenity": "hospital", "emergency": "yes", "name": "Santa Casa de Misericodia de Riolandia"}}, {"type": "node", "id": 1640404398, "lat": -19.9806819, "lon": -49.6790058, "tags": {"amenity": "hospital", "emergency": "no", "name": "Centro de Sa\u00fade de Riol\u00e2ndia"}}, {"type": "node", "id": 1643692484, "lat": -12.5609058, "lon": -41.3884017, "tags": {"amenity": "hospital", "emergency": "yes", "name": "Hospital Municipal"}}, {"type": "node", "id": 1682708634, "lat": -16.7253587, "lon": -43.8702561, "tags": {"amenity": "hospital", "emergency": "yes", "healthcare": "hospital", "name": "Santa Casa"}}, {"type": "node", "id": 1682727835, "lat": -16.7255833, "lon": -43.8671764, "tags": {"amenity": "hospital", "emergency": "no", "healthcare": "hospital", "name": "Hospital Universit\u00e1rio de Montes Claros"}}, {"type": "node", "id": 1682739554, "lat": -16.7314311, "lon": -43.8714577, "tags": {"amenity": "hospital", "healthcare": "hospital", "name": "IPSEMG"}}, {"type": "node", "id": 1710699166, "lat": -17.7412366, "lon": -48.6166678, "tags": {"amenity": "hospital", "name": "Hospital Municipal"}}, {"type": "node", "id": 1710752771, "lat": -17.7441182, "lon": -48.6302559, "tags": {"addr:housenumber": "13", "addr:postcode": "75680-072", "addr:street": "Rua E\u00e7a de Queir\u00f3s", "amenity": "hospital", "fax": "+55 64 3453 7690", "healthcare": "hospital", "name": "Hospital e Maternidade Nossa Senhora", "phone": "+55 64 3453 1290", "ref:CNES": "2570823", "ref:vatin": "BR02147775000110"}}, {"type": "node", "id": 1724375802, "lat": -15.7356441, "lon": -47.8955006, "tags": {"amenity": "hospital", "emergency": "yes", "healthcare": "hospital", "name": "Santa Lucia Prontonorte"}}, {"type": "node", "id": 1827161812, "lat": -19.9959757, "lon": -44.0203321, "tags": {"amenity": "hospital", "name": "UPA Barreiro"}}, {"type": "node", "id": 1827555331, "lat": -19.9958492, "lon": -44.0053598, "tags": {"amenity": "hospital", "name": "Centro de Sa\u00fade"}}, {"type": "node", "id": 1841665354, "lat": -19.9097832, "lon": -44.0219704, "tags": {"amenity": "hospital", "name": "Centro de Sa\u00fade Pindorama"}}, {"type": "node", "id": 1858114043, "lat": -19.829603, "lon": -43.9721281, "tags": {"addr:city": "Belo Horizonte", "addr:housenumber": "12", "addr:street": "Avenida Desembargador Felippe Immesi", "addr:suburb": "Santa M\u00f4nica", "amenity": "hospital", "name": "Hospital Dia SerCor"}}, {"type": "node", "id": 1859114565, "lat": -14.2078373, "lon": -41.6681031, "tags": {"amenity": "hospital", "emergency": "no", "healthcare": "hospital", "name": "Centro M\u00e9dico S\u00e3o Gabriel", "wheelchair": "yes"}}, {"type": "node", "id": 1867531900, "lat": -19.7848356, "lon": -43.9327318, "tags": {"amenity": "hospital", "healthcare": "hospital", "name": "Pronto Atendimento S\u00e3o Benedito"}}, {"type": "node", "id": 1907538535, "lat": -19.8852141, "lon": -43.9875309, "tags": {"amenity": "hospital", "healthcare": "hospital", "name": "Centro de Sa\u00fade Ouro Preto"}}, {"type": "node", "id": 1993187236, "lat": -15.7835944, "lon": -47.9968413, "tags": {"amenity": "hospital"}}, {"type": "node", "id": 1998856998, "lat": -19.984364, "lon": -43.85576, "tags": {"addr:housenumber": "92", "addr:street": "Rua Professor Aldo Zanini", "amenity": "hospital", "description": "Homeopatic medical", "healthcare": "hospital", "name": "CEMAIS", "phone": "+55 31 3542 2035"}}, {"type": "node", "id": 2012401969, "lat": -18.8442622, "lon": -46.7908735, "tags": {"amenity": "hospital", "healthcare": "hospital", "name": "Unidade Mista de Sa\u00fade Dona In\u00eas", "operator": "Sistema \u00danico de Sa\u00fade", "operator:short": "SUS", "operator:wikidata": "Q7531056"}}, {"type": "node", "id": 2018564792, "lat": -19.9694636, "lon": -44.0370629, "tags": {"amenity": "hospital", "name": "Unidade de Refer\u00eancia para a sa\u00fade da Fam\u00edlia"}}, {"type": "node", "id": 2051860840, "lat": -17.3381346, "lon": -44.9394877, "tags": {"addr:housenumber": "1237", "addr:postcode": "39272-106", "addr:street": "Rua Montes Claros", "amenity": "hospital", "emergency": "yes", "healthcare": "hospital", "name": "Funda\u00e7\u00e3o Doutor Mois\u00e9s Magalh\u00e3es Freire", "ref:CNES": "2119528", "ref:vatin": "BR09152345000135"}}, {"type": "node", "id": 2055779834, "lat": -19.3984855, "lon": -40.061467, "tags": {"amenity": "hospital", "healthcare": "hospital", "name": "HGL", "name:pt": "HGL"}}, {"type": "node", "id": 2086372233, "lat": -19.9274142, "lon": -43.9775714, "tags": {"amenity": "hospital", "healthcare": "hospital"}}, {"type": "node", "id": 2287577494, "lat": -11.3474673, "lon": -41.656466, "tags": {"amenity": "hospital"}}, {"type": "node", "id": 2296573225, "lat": -13.5881591, "lon": -41.8180286, "tags": {"addr:city": "Rio de Contas", "addr:postcode": "46170-970", "addr:street": "Avenida Senhora santana", "addr:suburb": "Centro", "amenity": "hospital", "name": "Hospital Rio de Contas"}}, {"type": "node", "id": 2331999337, "lat": -14.4229337, "lon": -44.3675803, "tags": {"amenity": "hospital"}}, {"type": "node", "id": 2374308339, "lat": -19.7096548, "lon": -42.7384473, "tags": {"amenity": "hospital", "emergency": "no", "healthcare": "hospital", "name": "Posto de sa\u00fade", "source": "alexosmbrasil"}}, {"type": "node", "id": 2379536484, "lat": -11.2914476, "lon": -41.9856666, "tags": {"amenity": "hospital", "name": "Hospital Municipal"}}, {"type": "node", "id": 2410273841, "lat": -15.9476971, "lon": -48.2664698, "tags": {"addr:housenumber": "65", "addr:postcode": "72900-970", "addr:suburb": "Centro", "amenity": "hospital", "email": "smssad@gmail.com", "healthcare": "hospital", "name": "Hospital Municipal de Santo Ant\u00f4nio do Descoberto", "operator:ref:vatin": "BR00097857000171", "ref:CNES": "2437627", "source": "http://cnes.datasus.gov.br/Exibe_Ficha_Estabelecimento.asp?VCo_Unidade=5219752437627"}}, {"type": "node", "id": 2411312556, "lat": -17.2879527, "lon": -42.7139671, "tags": {"amenity": "hospital", "name": "Posto de Sa\u00fade (Novo)"}}, {"type": "node", "id": 2411982147, "lat": -19.9415588, "lon": -40.5924022, "tags": {"IJSN:tipoUnidad": "Hospital Geral", "addr:city": "Santa Teresa", "addr:housenumber": "417", "addr:place": "Jardim da Montanha", "addr:postcode": "29650-000", "addr:street": "Avenida das Ac\u00e1cias", "addr:suburb": "Jardim da Montanha", "amenity": "hospital", "contact:phone": "+55 27 3259-1113", "emergency": "yes", "healthcare": "hospital", "name": "Hospital Madre Regina Protmann"}}, {"type": "node", "id": 2419202140, "lat": -16.7624115, "lon": -47.6107929, "tags": {"amenity": "hospital", "name": "Hospital Municipal de Cristalina"}}, {"type": "node", "id": 2437697356, "lat": -17.1479108, "lon": -49.9899648, "tags": {"addr:postcode": "75955-000", "addr:street": "Rua Simon Bolivar", "addr:suburb": "Alto Da Primavera", "amenity": "hospital", "fax": "+55 64 547 1300", "healthcare": "hospital", "name": "Hospital Municipal de Indiara", "operator:ref:vatin": "BR00005959000110", "phone": "+55 64 547 1300", "ref:CNES": "2343185"}}, {"type": "node", "id": 2440343173, "lat": -17.2213786, "lon": -42.5829906, "tags": {"addr:housenumber": "284", "addr:postcode": "39650-000", "addr:street": "Avenida Israel Pinheiro", "addr:suburb": "Saudade", "amenity": "hospital", "email": "hospital@fhnhbj.com.br", "emergency": "yes", "healthcare": "hospital", "name": "Hospital Doutor Badaro Junior", "phone": "+55 33 3764 1202", "ref:CNES": "2134268", "ref:vatin": "BR21248752000146"}}, {"type": "node", "id": 2464883652, "lat": -16.2515906, "lon": -44.164023, "tags": {"amenity": "hospital"}}, {"type": "node", "id": 2478477722, "lat": -16.9763972, "lon": -40.2410597, "tags": {"addr:street": "Rua Doze de Outubro", "amenity": "hospital", "name": "Posto de Sa\u00fade da Fam\u00edlia"}}, {"type": "node", "id": 2525832430, "lat": -15.799489, "lon": -47.890839, "tags": {"addr:place": "Asa Sul", "addr:street": "SMHS Q 501 Conjunto", "amenity": "hospital", "healthcare": "hospital", "name": "Hospital SARAH", "phone": "+55 61 3319 1111"}}, {"type": "node", "id": 2578270727, "lat": -15.8097898, "lon": -42.2309925, "tags": {"addr:city": "Taiobeiras", "addr:housenumber": "205", "addr:postcode": "39550-000", "addr:street": "Avenida S\u00e3o Jo\u00e3o do Para\u00edso", "addr:suburb": "Centro", "amenity": "hospital", "emergency": "yes", "healthcare": "hospital", "healthcare:speciality": "general", "name": "Pronto Socorro Municipal"}}, {"type": "node", "id": 2579649375, "lat": -16.036829, "lon": -48.0610962, "tags": {"amenity": "hospital", "name": "Centro de Sa\u00fade 2 do gama"}}, {"type": "node", "id": 2579649378, "lat": -16.0115414, "lon": -48.0739784, "tags": {"amenity": "hospital", "name": "Centro de Sa\u00fade 6 do Gama"}}, {"type": "node", "id": 2579649379, "lat": -16.0138187, "lon": -48.0675316, "tags": {"amenity": "hospital", "healthcare": "hospital", "name": "Centro de Sa\u00fade 8 do Gama"}}, {"type": "node", "id": 2585838730, "lat": -15.67731, "lon": -48.1951561, "tags": {"amenity": "hospital", "name": "Centro de Sa\u00fade 01"}}, {"type": "node", "id": 2585838731, "lat": -15.6589303, "lon": -48.1930084, "tags": {"amenity": "hospital", "name": "Unidade B\u00e1sica de Sa\u00fade n\u00ba 2 Brazl\u00e2ndia", "operator": "Secretaria de Estado de Sa\u00fade do Distrito Federal"}}, {"type": "node", "id": 2585838750, "lat": -15.675078, "lon": -48.203674, "tags": {"amenity": "hospital", "emergency": "yes", "name": "Hospital Regional de Brazl\u00e2ndia"}}, {"type": "node", "id": 2587338030, "lat": -15.9023697, "lon": -48.0602228, "tags": {"amenity": "hospital", "name": "Centro de Sa\u00fade 2 Recanto das Emas- DF"}}, {"type": "node", "id": 2593214392, "lat": -19.5265953, "lon": -42.6240217, "tags": {"amenity": "hospital", "healthcare": "hospital", "name": "Hospital Jos\u00e9 Maria de Morais"}}, {"type": "node", "id": 2595350534, "lat": -10.1753456, "lon": -48.882829, "tags": {"addr:city": "Para\u00edso do Tocantins", "addr:postcode": "77600-000", "addr:suburb": "Centro", "amenity": "hospital", "healthcare": "hospital", "name": "Hospital e Maternidade Modelo", "operator": "Sistema \u00danico de Sa\u00fade", "operator:short": "SUS", "operator:wikidata": "Q7531056", "operator:wikipedia": "pt:Sistema \u00danico de Sa\u00fade", "ref:CNES": "7653948", "ref:vatin": "BR06180514000152"}}, {"type": "node", "id": 2598979740, "lat": -19.9690672, "lon": -44.1964921, "tags": {"amenity": "hospital", "emergency": "no", "name": "Hospital Unimed Betim"}}, {"type": "node", "id": 2602414588, "lat": -13.7925318, "lon": -47.4552827, "tags": {"addr:postcode": "73790-000", "addr:street": "Avenida Elias Jorge Cheim", "addr:suburb": "Centro", "amenity": "hospital", "email": "smscavalcante@gmail.com", "fax": "+55 62 3644 1322", "healthcare": "hospital", "name": "Hospital Municipal de Cavalcante", "operator:ref:vatin": "BR01738772000198", "phone": "+55 62 3644 1322", "ref:CNES": "2382709"}}, {"type": "node", "id": 2667915453, "lat": -15.8220712, "lon": -48.0688106, "tags": {"addr:street": "QNC \u2013 \u00c1rea Especial n\u00ba 24", "amenity": "hospital", "healthcare": "hospital", "name": "Ambulat\u00f3rio do Hospital Regional de Taguatinga - HRT"}}, {"type": "node", "id": 2668720684, "lat": -14.26768, "lon": -49.6569843, "tags": {"amenity": "hospital", "name": "Hospital Municipal de Campos Verdes"}}, {"type": "node", "id": 2670272713, "lat": -18.7568458, "lon": -44.4214964, "tags": {"amenity": "hospital", "name": "Pronto Atendimento Municipal"}}, {"type": "node", "id": 2731342397, "lat": -15.616225, "lon": -47.6548139, "tags": {"addr:street": "Avenida Independencia Quadra 01 Bloco G 01 Setor Comercial Local - Planaltina", "amenity": "hospital", "name": "Hospital Santa Paula"}}, {"type": "node", "id": 2731342398, "lat": -15.655, "lon": -47.6694444, "tags": {"amenity": "hospital", "name": "Centro de Recupera\u00e7\u00e3o Le\u00e3o de Jud\u00e1"}}, {"type": "node", "id": 2731342399, "lat": -15.7954898, "lon": -48.0594312, "tags": {"amenity": "hospital", "name": "Centro de Sa\u00fade 01 de Taguatinga"}}, {"type": "node", "id": 2731342409, "lat": -15.745556, "lon": -47.769722, "tags": {"amenity": "hospital", "name": "Centro de Sa\u00fade 1 - Itapo\u00e3"}}, {"type": "node", "id": 2731342420, "lat": -15.7725624, "lon": -47.9300092, "tags": {"amenity": "hospital", "healthcare": "hospital", "name": "Hospital Militar de \u00c1rea de Bras\u00edlia"}}, {"type": "node", "id": 2731342422, "lat": -15.6247833, "lon": -47.6527389, "tags": {"addr:street": "Avenida WL 04 Setor Hospitalar Oeste- \u00c1rea Especial 73 310-000", "amenity": "hospital", "healthcare": "hospital", "name": "Hospital Regional de Planaltina - HRP", "phone": "+55 61 3388 9700"}}, {"type": "node", "id": 2731342438, "lat": -15.6707667, "lon": -47.8452389, "tags": {"amenity": "hospital", "healthcare": "hospital", "name": "Unidade IOLB Instituto Odontol\u00f3gico"}}, {"type": "node", "id": 2731342439, "lat": -15.90243, "lon": -47.772581, "tags": {"amenity": "hospital", "name": "Unidade Mista de Sa\u00fade - UMSS"}}, {"type": "node", "id": 2764066638, "lat": -15.3298128, "lon": -49.1154888, "tags": {"addr:housenumber": "416", "addr:postcode": "76380-013", "addr:street": "Rua 33", "addr:suburb": "Centro", "amenity": "hospital", "email": "saude@goianesia.go.gov.br", "emergency": "yes", "healthcare": "hospital", "name": "Hospital Municipal Irm\u00e3 Fanny Duran", "operator:ref:vatin": "BR01065846000172", "phone": "+55 62 3935 1038", "ref:CNES": "2534584"}}, {"type": "node", "id": 2764068109, "lat": -15.3341513, "lon": -49.1146792, "tags": {"addr:city": "Goian\u00e9sia", "addr:housenumber": "293", "addr:postcode": "76380000", "addr:street": "Rua 10", "addr:suburb": "Setor Sul", "amenity": "hospital", "emergency": "yes", "healthcare": "hospital", "name": "Hospital Universit\u00e1rio Evang\u00e9lico de Goian\u00e9sia", "operator": "UniEvang\u00e9lica", "ref:CNES": "7577168", "ref:vatin": "BR07776237000370"}}, {"type": "node", "id": 2764075365, "lat": -15.31918, "lon": -49.1160089, "tags": {"amenity": "hospital", "healthcare": "hospital", "name": "Hospital s\u00e3o francisco"}}, {"type": "node", "id": 2767135183, "lat": -13.639826, "lon": -41.8396033, "tags": {"addr:city": "Livramento de Nossa Senhora", "addr:housenumber": "829", "addr:postcode": "46140-000", "addr:street": "Avenida Presidente Vargas", "addr:suburb": "Bairro Jos\u00e9 Maria Tanajura", "amenity": "hospital", "emergency": "yes", "name": "Hospital Municipal de Livramento de Nossa Senhora", "operator": "Municipal", "wheelchair": "yes"}}, {"type": "node", "id": 2779865270, "lat": -17.3343257, "lon": -44.92548, "tags": {"addr:city": "Pirapora", "addr:housenumber": "1054", "addr:postcode": "39270-000", "addr:street": "Avenida Jeferson Gitirana", "amenity": "hospital", "name": "Hospital S\u00e3o Sebasti\u00e3o"}}, {"type": "node", "id": 2797563200, "lat": -19.4653673, "lon": -44.2396985, "tags": {"amenity": "hospital", "name": "Hospital Nossa Senhora das Gra\u00e7as"}}, {"type": "node", "id": 2819280636, "lat": -17.8589669, "lon": -41.5084532, "tags": {"addr:city": "Te\u00f3filo Otoni", "addr:housenumber": "1290", "addr:street": "Avenida Get\u00falio Vargas", "amenity": "hospital", "emergency": "yes", "healthcare": "hospital", "healthcare:speciality": "general", "name": "UPA 24 Horas"}}, {"type": "node", "id": 2819280637, "lat": -17.862821, "lon": -41.5065668, "tags": {"addr:city": "Te\u00f3filo Otoni", "addr:housenumber": "575", "addr:postcode": "39800-022", "addr:street": "Rua Doutor Onofre", "addr:suburb": "Centro", "amenity": "hospital", "emergency": "yes", "fax": "+55 33 3529 1620", "healthcare": "hospital", "name": "Hospital Santa Ros\u00e1lia", "ref:CNES": "2208172", "ref:vatin": "BR25104902000107"}}, {"type": "node", "id": 2819280638, "lat": -17.8767196, "lon": -41.5076889, "tags": {"addr:city": "Te\u00f3filo Otoni", "addr:housenumber": "475", "addr:postcode": "39803-145", "addr:street": "Avenida Doutor J\u00falio Rodrigues", "addr:suburb": "Marajoara", "amenity": "hospital", "emergency": "yes", "healthcare": "hospital", "name": "Hospital Philadelfia", "operator:ref:vatin": "BR20942819000347", "phone": "+55 33 3529-5500", "ref:CNES": "2210924", "ref:vatin": "BR02267239000158"}}, {"type": "node", "id": 2819306293, "lat": -17.8693139, "lon": -41.5134781, "tags": {"addr:city": "Te\u00f3filo Otoni", "addr:housenumber": "50", "addr:postcode": "39800", "addr:street": "Av Adib Cadah", "amenity": "hospital", "emergency": "yes", "healthcare": "hospital", "name": "Hospital Municipal Raimundo Gobira", "phone": "+55 33 3529-2300"}}, {"type": "node", "id": 2822791800, "lat": -17.7398543, "lon": -46.1745798, "tags": {"addr:housenumber": "36", "addr:postcode": "38770-000", "addr:street": "Pra\u00e7a Coronel Hermogenes", "addr:suburb": "Centro", "amenity": "hospital", "healthcare": "hospital", "name": "Hospital Maternidade Santana", "phone": "+55 38 3561 1362", "ref:CNES": "2118335", "ref:vatin": "BR18448738000181"}}, {"type": "node", "id": 2830502939, "lat": -15.3199433, "lon": -49.1166399, "tags": {"amenity": "hospital", "healthcare": "hospital", "name": "Hospital e Maternidade Santa Luzia", "ref:CNES": "2570076", "ref:vatin": "BR01825603000195"}}, {"type": "node", "id": 2832492042, "lat": -11.5439395, "lon": -41.9781951, "tags": {"amenity": "hospital", "emergency": "yes", "name": "Hospital Municipal"}}, {"type": "node", "id": 2845107945, "lat": -15.9338889, "lon": -48.2291667, "tags": {"amenity": "hospital", "name": "Mans\u00e3o Vida"}}, {"type": "node", "id": 2849493481, "lat": -19.9125372, "lon": -43.9044067, "tags": {"addr:city": "Belo Horizonte", "addr:street": "Rua Leopoldo Gomes", "amenity": "hospital", "name": "Posto de Saude Pompeia"}}, {"type": "node", "id": 2859343358, "lat": -19.8191255, "lon": -40.2816993, "tags": {"amenity": "hospital", "healthcare": "hospital", "name": "Pronto Socorro do Hospital S\u00e3o Camilo"}}, {"type": "node", "id": 2863229626, "lat": -19.4609101, "lon": -44.2432948, "tags": {"amenity": "hospital", "name": "Hospital Unimed"}}, {"type": "node", "id": 2873746727, "lat": -16.7098864, "lon": -49.3037708, "tags": {"addr:street": "Rua U-47", "amenity": "hospital", "emergency": "yes", "healthcare": "hospital", "name": "Cais Vila Uni\u00e3o"}}, {"type": "node", "id": 2874381154, "lat": -19.9538089, "lon": -44.340733, "tags": {"amenity": "hospital"}}, {"type": "node", "id": 2888233991, "lat": -14.2199208, "lon": -42.7769979, "tags": {"amenity": "hospital", "name": "Hospital Policlinica"}}, {"type": "node", "id": 2888281187, "lat": -14.2232626, "lon": -42.7827725, "tags": {"amenity": "hospital", "healthcare": "hospital", "name": "Hospital Polimeg"}}, {"type": "node", "id": 2889178328, "lat": -16.5656459, "lon": -45.9855019, "tags": {"amenity": "hospital"}}, {"type": "node", "id": 2889293438, "lat": -14.226632, "lon": -42.7810267, "tags": {"addr:city": "Guanambi", "addr:postcode": "46430-000", "addr:street": "Pra\u00e7a Jos\u00e9 Ferreira", "addr:suburb": "Centro", "amenity": "hospital", "contact:mobile": "+55 77 99961-1617", "name": "Pronto Atendimento Covid-19"}}, {"type": "node", "id": 2889293439, "lat": -14.2241204, "lon": -42.7794416, "tags": {"amenity": "hospital", "name": "Hospital S\u00e3o Lucas"}}, {"type": "node", "id": 2889454185, "lat": -16.5687401, "lon": -45.9888753, "tags": {"addr:housenumber": "300", "addr:postcode": "38650-000", "addr:street": "Rua Manoel Luiz Brand\u00e3o", "addr:suburb": "Centro", "amenity": "hospital", "email": "secsaudebfs@yahoo.com.br", "healthcare": "hospital", "name": "Hospital de Pequeno porte de Bonfin\u00f3polis de Minas", "operator:ref:vatin": "BR18125138000182", "phone": "+55 38 3675 1166", "ref:CNES": "2776847", "source:name": "DATASUS"}}, {"type": "node", "id": 2889583526, "lat": -16.5555146, "lon": -45.9814712, "tags": {"amenity": "hospital"}}, {"type": "node", "id": 2895371586, "lat": -19.7474189, "lon": -45.259642, "tags": {"addr:city": "Bom Despacho - MG", "addr:postcode": "35600-000", "addr:street": "R. Od\u00edlio Ant\u00f4nio Silva", "amenity": "hospital", "healthcare": "hospital", "name": "Hospital Dia Visualle", "note": "Hospital Oftalmol\u00f3gico"}}, {"type": "node", "id": 2897180597, "lat": -16.1248689, "lon": -45.7407011, "tags": {"amenity": "hospital", "healthcare": "hospital"}}, {"type": "node", "id": 2908365149, "lat": -19.4655493, "lon": -44.2352522, "tags": {"amenity": "hospital", "name": "UPA - Unidade de Pronto Atendimento"}}, {"type": "node", "id": 2914381210, "lat": -15.3214193, "lon": -49.113806, "tags": {"addr:city": "goianesia", "addr:housenumber": "311", "addr:postcode": "76380000", "addr:street": "rua 35", "amenity": "hospital", "emergency": "no", "healthcare": "hospital", "name": "unidade central de sa\u00fade doutor noraldino rodregues porto"}}, {"type": "node", "id": 2914386948, "lat": -15.323555, "lon": -49.1059532, "tags": {"amenity": "hospital"}}, {"type": "node", "id": 2914390303, "lat": -15.3107993, "lon": -49.1256533, "tags": {"addr:city": "goianesia", "addr:postcode": "76380000", "addr:street": "Avenida Contorno", "amenity": "hospital", "emergency": "no", "name": "unidade de saude da familia pedro miguel"}}, {"type": "node", "id": 2914392214, "lat": -15.3267545, "lon": -49.1321459, "tags": {"addr:city": "goianesia", "addr:housenumber": "491", "addr:postcode": "76380000", "addr:street": "Avenida Brasil", "amenity": "hospital", "emergency": "no", "name": "posto de saude maria beralda"}}, {"type": "node", "id": 2918709139, "lat": -15.8279145, "lon": -47.9285471, "tags": {"amenity": "hospital", "emergency": "yes", "healthcare": "hospital", "name": "PAI - Pronto Atendimento Infantil"}}, {"type": "node", "id": 2919236120, "lat": -14.2128713, "lon": -42.7677935, "tags": {"amenity": "hospital", "name": "Samu 192"}}, {"type": "node", "id": 2925771206, "lat": -17.7465756, "lon": -48.627909, "tags": {"addr:city": "Caldas Novas", "addr:postcode": "75690-000", "amenity": "hospital", "name": "UPA - Unidade de Pronto Atendimento"}}, {"type": "node", "id": 2925771208, "lat": -17.7472801, "lon": -48.6285779, "tags": {"addr:city": "Caldas Novas", "addr:housenumber": "600", "addr:postcode": "75680-210", "addr:street": "Rua Doutor Ciro Palmerston", "amenity": "hospital", "healthcare": "hospital", "name": "Centro M\u00e9dico Municipal", "ref:CNES": "3893227"}}, {"type": "node", "id": 2942289138, "lat": -14.2214792, "lon": -42.7762124, "tags": {"amenity": "hospital", "name": "Centro de Sa\u00fade.Dep.Gercino Coelho"}}, {"type": "node", "id": 2942289139, "lat": -14.2133254, "lon": -42.7681015, "tags": {"amenity": "hospital", "name": "Posto de Sa\u00fade da Fam\u00edlia S\u00e3o Francisco"}}, {"type": "node", "id": 2951096261, "lat": -19.5729645, "lon": -45.3051642, "tags": {"addr:postcode": "35600-000", "addr:street": "Engenho do Ribeiro", "amenity": "hospital", "emergency": "no", "name": "PSF Engenho do Ribeiro"}}, {"type": "node", "id": 2966209930, "lat": -19.2180305, "lon": -45.004467, "tags": {"amenity": "hospital", "emergency": "yes", "healthcare": "hospital", "name": "Santa Casa de Miseric\u00f3rdia"}}, {"type": "node", "id": 2966394693, "lat": -18.0387782, "lon": -41.6708667, "tags": {"addr:city": "Itambacuri", "addr:housenumber": "1308", "addr:postcode": "39830-000", "addr:street": "Avenida Farmac\u00eautico Joviano", "addr:suburb": "V\u00e1rzea", "amenity": "hospital", "healthcare": "hospital", "healthcare:speciality": "general", "name": "Hospital S\u00e3o Vicente de Paula", "source": "IBGE"}}, {"type": "node", "id": 2973100794, "lat": -19.4745863, "lon": -42.6443784, "tags": {"amenity": "hospital", "healthcare": "hospital", "name": "Unidade B\u00e1sica de Sa\u00fade - Calad\u00e3o"}}, {"type": "node", "id": 2973100795, "lat": -19.4887886, "lon": -42.6219101, "tags": {"amenity": "hospital", "healthcare": "hospital", "name": "Unidade B\u00e1sica de Sa\u00fade - Santa Cruz"}}, {"type": "node", "id": 2974821338, "lat": -19.510118, "lon": -42.6270872, "tags": {"amenity": "hospital", "healthcare": "hospital", "name": "Unidade B\u00e1sica de Sa\u00fade - JK"}}, {"type": "node", "id": 2975038210, "lat": -14.2115726, "lon": -42.7668727, "tags": {"amenity": "hospital", "name": "Hospital dos Rins"}}, {"type": "node", "id": 2975633812, "lat": -19.5606108, "lon": -44.0810281, "tags": {"addr:housenumber": "210", "addr:postcode": "35720-000", "addr:street": "Avenida Caio Martins", "addr:suburb": "Centro", "amenity": "hospital", "email": "hospitalwandaandradedrumonnd@yahoo.com.br", "fax": "+55 31 3712 1307", "healthcare": "hospital", "name": "Hospital Wanda Andrade Drumond", "phone": "+55 31 3712 1386", "ref:CNES": "2157063", "ref:vatin": "BR20984258000187"}}, {"type": "node", "id": 2978197972, "lat": -16.6407296, "lon": -49.2950728, "tags": {"addr:city": "Goiania", "addr:street": "Rua 11 de Junho", "addr:suburb": "Vila Maria Dilce", "amenity": "hospital", "name": "Posto de S\u00e1ude Da Vila Maria Dilce"}}, {"type": "node", "id": 3030287102, "lat": -14.2029637, "lon": -42.7616268, "tags": {"amenity": "hospital", "name": "Posto de Sa\u00fade da Fam\u00edlia S\u00e3o Sebasti\u00e3o"}}, {"type": "node", "id": 3082343023, "lat": -18.9205507, "lon": -48.3301704, "tags": {"amenity": "hospital", "name": "UAI Luizote"}}, {"type": "node", "id": 3084820013, "lat": -11.5255448, "lon": -40.3088431, "tags": {"amenity": "hospital"}}, {"type": "node", "id": 3096247639, "lat": -19.4818444, "lon": -42.5597458, "tags": {"amenity": "hospital", "healthcare": "hospital", "name": "COR - Hospital M\u00e1rcio Cunha"}}, {"type": "node", "id": 3165838933, "lat": -13.4366652, "lon": -49.1347491, "tags": {"amenity": "hospital", "name": "Hospital de Urg\u00eancia"}}, {"type": "node", "id": 3165869382, "lat": -13.4566353, "lon": -49.1514606, "tags": {"amenity": "hospital", "name": "Hospital"}}, {"type": "node", "id": 3189357215, "lat": -18.8650878, "lon": -41.1240384, "tags": {"IJSN:tipoUnidad": "Unidade Mista", "addr:city": "Manten\u00f3polis", "addr:housenumber": "1", "addr:place": "Centro", "addr:postcode": "29770-000", "addr:street": "Rua Jaime dos Santos Neves", "amenity": "hospital", "contact:phone": "+55 27 3758-1122", "healthcare": "hospital", "name": "Hospital e Maternidade Nossa Senhora das Dores"}}, {"type": "node", "id": 3191642218, "lat": -18.4170196, "lon": -49.216669, "tags": {"addr:housenumber": "335", "addr:postcode": "75503-520", "addr:street": "Pra\u00e7a da Bandeira", "addr:suburb": "Centro", "amenity": "hospital", "healthcare": "hospital", "name": "Hospital Santa Maria", "phone": "+55 64 3431 8000", "ref:CNES": "2589281", "ref:vatin": "BR02197747000107"}}, {"type": "node", "id": 3227955621, "lat": -18.4317161, "lon": -49.1880777, "tags": {"addr:housenumber": "22", "addr:postcode": "38465-000", "addr:street": "Pra\u00e7a Dona Valdomira Neves Ferreira", "addr:suburb": "Alvorada", "amenity": "hospital", "fax": "+55 34 3284 9551", "healthcare": "hospital", "name": "Hospital Jo\u00e3o Paulo II", "operator:ref:vatin": "BR23098510000149", "phone": "+55 34 3284 9551", "ref:CNES": "2760916"}}, {"type": "node", "id": 3326898430, "lat": -14.7175301, "lon": -49.7531226, "tags": {"amenity": "hospital", "name": "RS. ZAINAB", "operator": "14075006"}}, {"type": "node", "id": 3329731297, "lat": -18.7448733, "lon": -47.6912887, "tags": {"addr:city": "Estrela do Sul", "addr:postcode": "38525000", "addr:street": "Avenida Padre Julio Raz", "amenity": "hospital", "healthcare": "hospital", "name": "Policl\u00ednica Dr. Amaury Ferreira Da Silva"}}, {"type": "node", "id": 3329752064, "lat": -18.7233609, "lon": -47.6992821, "tags": {"amenity": "hospital", "name": "Hospital"}}, {"type": "node", "id": 3342875162, "lat": -18.2388057, "lon": -43.5985631, "tags": {"addr:city": "Diamantina", "addr:housenumber": "564", "addr:postcode": "39100-000", "addr:street": "Rua Paula Vieira", "addr:suburb": "Centro", "amenity": "hospital", "healthcare": "hospital", "name": "Hospital Nossa Senhora da Sa\u00fade", "source": "IBGE"}}, {"type": "node", "id": 3358893476, "lat": -16.807093, "lon": -42.3400354, "tags": {"amenity": "hospital", "source": "IBGE"}}, {"type": "node", "id": 3385395428, "lat": -19.7576749, "lon": -47.9094203, "tags": {"addr:city": "Uberaba", "addr:street": "Avenida Leopoldino de Oliveira", "amenity": "hospital", "name": "UPA - Parque do Mirante"}}, {"type": "node", "id": 3396719151, "lat": -19.6211592, "lon": -43.43451, "tags": {"amenity": "hospital", "name": "Posto de Sa\u00fade - PSF"}}, {"type": "node", "id": 3396719152, "lat": -19.6178315, "lon": -43.4390305, "tags": {"amenity": "hospital"}}, {"type": "node", "id": 3404190246, "lat": -19.512095, "lon": -43.37157, "tags": {"amenity": "hospital", "name": "Posto de Sa\u00fade - PSF"}}, {"type": "node", "id": 3407823675, "lat": -17.7336691, "lon": -49.806034, "tags": {"amenity": "hospital", "source": "IBGE"}}, {"type": "node", "id": 3470702458, "lat": -17.8080971, "lon": -49.6144745, "tags": {"addr:city": "Jovi\u00e2nia", "addr:housenumber": "30", "addr:postcode": "75610-000", "addr:street": "Rua Clarindo Vieira do Carmo", "addr:suburb": "Centro", "amenity": "hospital", "emergency": "yes", "healthcare": "hospital", "name": "Hospital Municipal S\u00e3o Sebasti\u00e3o", "operator:ref:vatin": "BR02029957000196", "phone": "+55 64 408 7023", "ref:CNES": "2536021"}}, {"type": "node", "id": 3471349367, "lat": -19.7681432, "lon": -43.0313466, "tags": {"addr:housenumber": "197", "addr:postcode": "35920-000", "addr:street": "Rua Oscar de Ara\u00fajo", "addr:suburb": "Centenario", "amenity": "hospital", "fax": "+55 31 3861 1445", "healthcare": "hospital", "name": "Hospital S\u00e3o Jos\u00e9", "phone": "+55 31 3861 1445", "ref:CNES": "2144549", "ref:vatin": "BR22913347000168"}}, {"type": "node", "id": 3475024631, "lat": -13.6502088, "lon": -41.842632, "tags": {"addr:city": "Livramento de Nossa Senhora", "addr:housenumber": "212", "addr:postcode": "46140-000", "addr:street": "Avenida Doutor Edilson R. Pontes", "addr:suburb": "Centro", "amenity": "hospital", "name": "Clinica Santa Rita"}}, {"type": "node", "id": 3483080334, "lat": -17.7227908, "lon": -48.1649359, "tags": {"addr:housenumber": "29", "addr:postcode": "75780-000", "addr:street": "Rua Intendente Jos\u00e9 Vaz", "addr:suburb": "Centro", "amenity": "hospital", "email": "hsaopaulo@hotmail.com", "healthcare": "hospital", "name": "Hospital S\u00e3o Paulo", "ref:CNES": "2442531", "ref:vatin": "BR01916808000186"}}, {"type": "node", "id": 3491299258, "lat": -18.3757078, "lon": -40.8288365, "tags": {"IJSN:tipoUnidad": "Hospital Geral", "addr:housenumber": "279", "addr:postcode": "29850-000", "addr:street": "Rua Floriano Rubim", "amenity": "hospital", "contact:phone": "(27) 3755-1025", "healthcare": "hospital", "name": "Cl\u00ednica Santa Paula"}}, {"type": "node", "id": 3491299262, "lat": -19.0204664, "lon": -40.5333735, "tags": {"IJSN:tipoUnidad": "Hospital Geral", "addr:city": "S\u00e3o Gabriel da Palha", "addr:housenumber": "90", "addr:place": "Gl\u00f3ria", "addr:postcode": "29780-000", "addr:street": "Rua 14 de Maio", "amenity": "hospital", "contact:phone": "(27) 3727-1387", "healthcare": "hospital", "name": "Hospital Doutor Fernando Serra"}}, {"type": "node", "id": 3491299263, "lat": -18.7552225, "lon": -40.8936085, "tags": {"IJSN:tipoUnidad": "Hospital Geral", "addr:city": "Barra de S\u00e3o Francisco", "addr:country": "BR", "addr:housenumber": "825", "addr:place": "Centro", "addr:postcode": "29800-000", "addr:state": "ES", "addr:street": "Avenida Prefeito Manoel Gon\u00e7alves", "addr:suburb": "Centro", "amenity": "hospital", "contact:phone": "(27) 3756-1211", "healthcare": "hospital", "healthcare:speciality": "general;gynaecology;paediatrics;orthopaedics", "name": "Hospital Doutora Rita de C\u00e1ssia - HDRC", "operator": "Secretaria de Estado da Sa\u00fade", "operator:type": "public"}}, {"type": "node", "id": 3491299264, "lat": -18.3688722, "lon": -40.8305962, "tags": {"IJSN:tipoUnidad": "Hospital Geral", "addr:city": "Ecoporanga", "addr:housenumber": "195", "addr:place": "Nossa Senhora de Aparecida", "addr:postcode": "29850-000", "addr:street": "Rua Idalino Monteiro", "addr:suburb": "Nossa Senhora Aparecida", "alt_name": "Funda\u00e7\u00e3o M\u00e9dico Assistencial do Trabalhador Rural", "amenity": "hospital", "contact:phone": "(27) 3755-1131", "healthcare": "hospital", "name": "Hospital FUMATRE", "operator": "Funda\u00e7\u00e3o M\u00e9dico Assist\u00eancial do Trabalhadores Rurais de Ecoporanga - Fumatre", "operator:type": "private", "short_name": "FUMATRE"}}, {"type": "node", "id": 3491299270, "lat": -19.8049504, "lon": -40.8544289, "tags": {"IJSN:tipoUnidad": "Hospital Geral", "addr:city": "Itagua\u00e7u", "addr:housenumber": "1", "addr:place": "Centro", "addr:postcode": "29690-000", "addr:street": "Alameda Matheus Ant\u00f4nio Prederigo", "addr:suburb": "Centro", "amenity": "hospital", "contact:phone": "+55 27 3725 1261", "healthcare": "hospital", "healthcare:speciality": "general", "name": "Hospital Nossa Senhora da Boa Fam\u00edlia", "operator": "Funda\u00e7\u00e3o Jos\u00e9 Theodoro de Andrade", "operator:type": "private"}}, {"type": "node", "id": 3491299273, "lat": -19.0131413, "lon": -40.5434247, "tags": {"IJSN:tipoUnidad": "Hospital Geral", "addr:city": "S\u00e3o Gabriel da Palha", "addr:housenumber": "25", "addr:place": "Santa Rita", "addr:postcode": "29780-000", "addr:street": "Pra\u00e7a Maria da Penha do Nascimento", "amenity": "hospital", "contact:phone": "(27) 3727-1200", "healthcare": "hospital", "name": "Hospital Santa Rita"}}, {"type": "node", "id": 3491299278, "lat": -19.2728742, "lon": -40.3229178, "tags": {"IJSN:tipoUnidad": "Hospital Geral", "addr:city": "Rio Bananal", "addr:housenumber": "500", "addr:place": "S\u00e3o Sebasti\u00e3o", "addr:postcode": "29920-000", "addr:street": "Rua Jo\u00e3o Cipriano", "amenity": "hospital", "contact:phone": "(27) 3265-1101", "healthcare": "hospital", "name": "Hospital e Maternidade Alfredo Pinto Santana"}}, {"type": "node", "id": 3491299281, "lat": -19.755696, "lon": -40.385475, "tags": {"IJSN:tipoUnidad": "Hospital Geral", "amenity": "hospital", "contact:phone": "(27) 3258-1050", "healthcare": "hospital", "name": "Hospital e Maternidade Sagrado Cora\u00e7\u00e3o de Maria"}}, {"type": "node", "id": 3491299286, "lat": -19.5229653, "lon": -40.6343847, "tags": {"IJSN:tipoUnidad": "Hospital Geral", "addr:city": "Colatina", "addr:place": "Padre Jos\u00e9 de Anchieta", "addr:postcode": "29703-910", "addr:street": "Rua Reinaldo Ferrari Primo", "amenity": "hospital", "contact:phone": "(27) 3177-7466", "healthcare": "hospital", "name": "Santa Casa de Miseric\u00f3rdia de Colatina"}}, {"type": "node", "id": 3548396837, "lat": -14.4046467, "lon": -42.6155958, "tags": {"addr:street": "Rua Monteiro Lobato", "amenity": "hospital", "name": "PSF Vereador Franco Pl\u00ednio Nogueira", "old_name": "Unidade de Sa\u00fade da Fam\u00edlia", "source": "Lei Municipal 467 de 30 de Abril de 2020"}}, {"type": "node", "id": 3623138907, "lat": -19.0031693, "lon": -41.5368641, "tags": {"addr:city": "Galil\u00e9ia", "addr:street": "Rua Ant\u00f4nio Alves", "amenity": "hospital", "name": "Hospital de Galil\u00e9ia"}}, {"type": "node", "id": 3633644419, "lat": -16.6476542, "lon": -49.337617, "tags": {"amenity": "hospital", "emergency": "yes", "name": "Hospital de Urg\u00eancias - Noroeste", "phone": "+556232323000", "short_name": "HUGOL"}}, {"type": "node", "id": 3645727106, "lat": -17.189586, "lon": -41.6986357, "tags": {"addr:housenumber": "80", "addr:postcode": "39810-000", "addr:street": "Travessa Djalma Barbosa de Freitas", "addr:suburb": "Centro", "amenity": "hospital", "email": "hospitalsjb@uai.com.br", "fax": "+55 33 3531 1255", "healthcare": "hospital", "name": "Hospital S\u00e3o Jo\u00e3o Batista", "operator:ref:vatin": "BR18404848000141", "phone": "+55 33 3531 1626", "ref:CNES": "2179172"}}, {"type": "node", "id": 3655051182, "lat": -13.6304145, "lon": -42.2843453, "tags": {"amenity": "hospital", "name": "Programa Sa\u00fade da Fam\u00edlia Sr. Francisco Marques dos Santos", "source": "Decreto Legislativo N\u00ba 681 de 24 de maio de 2011."}}, {"type": "node", "id": 3666288250, "lat": -14.5264682, "lon": -49.1435665, "tags": {"addr:city": "Urua\u00e7u", "addr:housenumber": "26", "addr:postcode": "76400-000", "addr:street": "Rua Quatro de Julho", "addr:suburb": "Centro", "amenity": "hospital", "healthcare": "hospital", "name": "Hospital Santana", "phone": "+55 62 3357 1000", "ref:CNES": "2337142", "ref:vatin": "BR02776458000162"}}, {"type": "node", "id": 3666288251, "lat": -14.5260924, "lon": -49.1436836, "tags": {"addr:postcode": "76400-000", "addr:street": "Rua Adelino Fernandes de Carvalho", "addr:suburb": "Centro", "amenity": "hospital", "healthcare": "hospital", "name": "Hospital Ortop\u00e9dico e Especialidades", "phone": "+55 62 3357 1574", "ref:CNES": "2337126", "ref:vatin": "BR01715614000112"}}, {"type": "node", "id": 3674052726, "lat": -13.432364, "lon": -49.1414947, "tags": {"amenity": "hospital", "name": "Instituto M\u00e9dico Samaritano"}}, {"type": "node", "id": 3674052789, "lat": -13.4551878, "lon": -49.1519955, "tags": {"amenity": "hospital"}}, {"type": "node", "id": 3674274121, "lat": -12.0911147, "lon": -41.6448764, "tags": {"amenity": "hospital"}}, {"type": "node", "id": 3678380309, "lat": -13.5526716, "lon": -42.483683, "tags": {"addr:city": "Tanque Novo", "addr:street": "Travessa dos Pimentas 1", "amenity": "hospital", "source": "IBGE mapa de setores urbanos"}}, {"type": "node", "id": 3678380317, "lat": -13.5503812, "lon": -42.491796, "tags": {"addr:city": "Tanque Novo", "addr:street": "Rua \u00c2ngelo Marques da silva", "amenity": "hospital", "emergency": "yes", "source": "IBGE mapa de setores urbanos"}}, {"type": "node", "id": 3678380528, "lat": -13.5321053, "lon": -42.4856826, "tags": {"addr:city": "Tanque Novo", "addr:suburb": "Alto dos Coqueiros", "amenity": "hospital", "source": "IBGE mapa de setores urbanos"}}, {"type": "node", "id": 3680887512, "lat": -19.9539103, "lon": -41.8333007, "tags": {"amenity": "hospital"}}, {"type": "node", "id": 3688784204, "lat": -16.6760979, "lon": -49.273171, "tags": {"amenity": "hospital", "healthcare": "hospital"}}, {"type": "node", "id": 3690637670, "lat": -13.7775334, "lon": -42.7221009, "tags": {"amenity": "hospital", "name": "Unidade do PSF", "source": "IBGE Mapa de Setores Urbanos"}}, {"type": "node", "id": 3690743662, "lat": -13.9102692, "lon": -42.8433483, "tags": {"addr:city": "Matina", "amenity": "hospital", "emergency": "yes"}}, {"type": "node", "id": 3690747946, "lat": -13.908287, "lon": -42.8454118, "tags": {"addr:city": "Matina", "amenity": "hospital", "name": "Samu", "source": "IBGE Mapa de Setores Urbanos"}}, {"type": "node", "id": 3690747952, "lat": -13.9083755, "lon": -42.8480872, "tags": {"addr:city": "Matina", "amenity": "hospital", "name": "Programa de Sa\u00fade da Fam\u00edlia - PSF", "source": "IBGE Mapa de Setores Urbanos"}}, {"type": "node", "id": 3707573539, "lat": -19.8989754, "lon": -49.3690453, "tags": {"amenity": "hospital"}}, {"type": "node", "id": 3712428152, "lat": -14.772545, "lon": -42.6530273, "tags": {"amenity": "hospital", "emergency": "yes", "source": "IBGE Mapa de Setores Urbanos"}}, {"type": "node", "id": 3746085753, "lat": -15.3345473, "lon": -49.1300376, "tags": {"amenity": "hospital", "name": "upa unidade de pronto atendimento"}}, {"type": "node", "id": 3761263691, "lat": -17.6284563, "lon": -41.7390432, "tags": {"amenity": "hospital", "healthcare": "hospital"}}, {"type": "node", "id": 3765166643, "lat": -18.824059, "lon": -42.7080874, "tags": {"addr:city": "Virgin\u00f3polis", "addr:housenumber": "46", "addr:postcode": "39730-000", "addr:street": "Rua Padre F\u00e9lix", "addr:suburb": "Centro", "amenity": "hospital", "healthcare": "hospital", "healthcare:speciality": "general", "name": "Hospital S\u00e3o Jos\u00e9", "operator": "Associa\u00e7\u00e3o de Prote\u00e7\u00e3o e Assist\u00eancia a Maternidade e a Inf\u00e2ncia e Hospital S\u00e3o Jos\u00e9", "operator:type": "community", "phone": "+55 33 3416 1244", "ref:CNES": "2144557", "ref:vatin": "BR18392993000150"}}, {"type": "node", "id": 3766981788, "lat": -18.032514, "lon": -41.676202, "tags": {"addr:city": "Itambacuri", "addr:housenumber": "578", "addr:postcode": "39830-000", "addr:street": "Avenida Frei Arc\u00e2ngelo de M\u00f3dica", "addr:suburb": "Centro", "amenity": "hospital", "healthcare": "hospital", "healthcare:speciality": "pediatric;general", "name": "Hospital Trist\u00e3o da Cunha", "operator": "Associa\u00e7\u00e3o Protetora da Inf\u00e2ncia de Itambacuri", "operator:type": "private", "phone": "+55 33 3511 3030", "ref:CNES": "2697548", "ref:vatin": "BR21163811000183"}}, {"type": "node", "id": 3773048672, "lat": -17.0630687, "lon": -43.307728, "tags": {"amenity": "hospital"}}, {"type": "node", "id": 3774676615, "lat": -16.6043536, "lon": -41.7723504, "tags": {"amenity": "hospital"}}, {"type": "node", "id": 3786157000, "lat": -17.7297216, "lon": -49.8115253, "tags": {"amenity": "hospital"}}, {"type": "node", "id": 3787714054, "lat": -16.1786889, "lon": -40.6968114, "tags": {"addr:housenumber": "549", "addr:postcode": "39900-000", "addr:street": "Rua Hermano de Souza", "addr:suburb": "Centro", "amenity": "hospital", "healthcare": "hospital", "name": "Hospital Deraldo Guimar\u00e3es", "phone": "+55 33 3721 1222", "ref:CNES": "2108992", "ref:vatin": "BR20180634000180"}}, {"type": "node", "id": 3787714172, "lat": -16.1709638, "lon": -40.6972437, "tags": {"addr:housenumber": "01", "addr:postcode": "39900-000", "addr:street": "Rua Alberto Viana Abreu", "addr:suburb": "Cidade Verde", "amenity": "hospital", "email": "hbs@byalnet.com.br", "fax": "+55 33 3721 1248", "healthcare": "hospital", "name": "Hospital Bemvindo Sa\u00fade", "phone": "+55 33 3721 1280", "ref:CNES": "2139022", "ref:vatin": "BR19564137000105"}}, {"type": "node", "id": 3787714199, "lat": -16.1789566, "lon": -40.6977716, "tags": {"amenity": "hospital"}}, {"type": "node", "id": 3791219066, "lat": -16.9045741, "lon": -42.6832347, "tags": {"amenity": "hospital"}}, {"type": "node", "id": 3791232140, "lat": -16.8550842, "lon": -42.4442004, "tags": {"amenity": "hospital"}}, {"type": "node", "id": 3793925817, "lat": -16.7879298, "lon": -42.5551552, "tags": {"amenity": "hospital", "healthcare": "hospital"}}, {"type": "node", "id": 3812398696, "lat": -14.3765857, "lon": -40.5039679, "tags": {"amenity": "hospital"}}, {"type": "node", "id": 3812398701, "lat": -14.3726052, "lon": -40.5080878, "tags": {"amenity": "hospital"}}, {"type": "node", "id": 3812398738, "lat": -14.3761076, "lon": -40.5045794, "tags": {"amenity": "hospital"}}, {"type": "node", "id": 3814083215, "lat": -12.0777817, "lon": -41.0926239, "tags": {"amenity": "hospital"}}, {"type": "node", "id": 3814083784, "lat": -12.0776028, "lon": -41.094727, "tags": {"amenity": "hospital"}}, {"type": "node", "id": 3814125413, "lat": -10.9576868, "lon": -40.5741196, "tags": {"amenity": "hospital"}}, {"type": "node", "id": 3816795901, "lat": -13.333739, "lon": -42.2919239, "tags": {"addr:city": "Caturama", "addr:postcode": "46575000", "addr:street": "Avenida Rio do Pires", "amenity": "hospital", "emergency": "yes", "healthcare": "hospital", "healthcare:speciality": "general;emergency;diagnostic_radiology", "name": "Hospital Municipal S. Sebasti\u00e3o", "operator": "Sec. Municipal de Sa\u00fade de Caturama", "operator:type": "public", "wheelchair": "yes"}}, {"type": "node", "id": 3818512815, "lat": -13.2513293, "lon": -40.0834833, "tags": {"amenity": "hospital"}}, {"type": "node", "id": 3821047384, "lat": -11.4528651, "lon": -41.4369057, "tags": {"amenity": "hospital"}}, {"type": "node", "id": 3822451924, "lat": -10.7160927, "lon": -44.0357764, "tags": {"amenity": "hospital"}}, {"type": "node", "id": 3826824295, "lat": -10.5755399, "lon": -40.2747315, "tags": {"amenity": "hospital"}}, {"type": "node", "id": 3826824316, "lat": -10.5754133, "lon": -40.2743989, "tags": {"amenity": "hospital"}}, {"type": "node", "id": 3829135389, "lat": -16.059108, "lon": -47.983551, "tags": {"amenity": "hospital", "healthcare": "hospital", "name": "Hospital Nossa Senhora Aparecida", "ref:CNES": "2570300", "ref:vatin": "BR00113183000151"}}, {"type": "node", "id": 3837243943, "lat": -13.3822246, "lon": -42.522841, "tags": {"amenity": "hospital", "name": "Centro de Sa\u00fade"}}, {"type": "node", "id": 3858602592, "lat": -13.2620116, "lon": -40.3692791, "tags": {"amenity": "hospital"}}, {"type": "node", "id": 3858602613, "lat": -13.2591505, "lon": -40.370985, "tags": {"amenity": "hospital"}}, {"type": "node", "id": 3859137025, "lat": -10.8405348, "lon": -40.1128553, "tags": {"amenity": "hospital"}}, {"type": "node", "id": 3901470930, "lat": -15.5643326, "lon": -47.3366213, "tags": {"amenity": "hospital"}}, {"type": "node", "id": 3908512388, "lat": -11.9697306, "lon": -41.2632823, "tags": {"addr:city": "Bonito", "addr:street": "Rua Tancredo Neves", "addr:suburb": "Centro", "amenity": "hospital", "emergency": "yes", "healthcare": "hospital", "name": "Maternidade Deputado Jos\u00e9 Carlos Araujo", "operator": "Secretaria de Sa\u00fade", "operator:type": "public"}}, {"type": "node", "id": 3925692852, "lat": -19.5204474, "lon": -45.7895035, "tags": {"amenity": "hospital", "name": "Hospital Municipal", "source": "IBGE"}}, {"type": "node", "id": 3925763152, "lat": -18.6505184, "lon": -48.1932642, "tags": {"addr:city": "Araguari", "addr:housenumber": "1395", "addr:postcode": "38440-062", "addr:street": "Avenida Coronel Theodolino Pereira de Ara\u00fajo", "addr:suburb": "Centro", "amenity": "hospital", "email": "hospsant@outlook.com", "fax": "+55 34 3249 1400", "healthcare": "hospital", "name": "Hospital Santo Ant\u00f4nio", "phone": "+55 34 3249 1400", "ref:CNES": "2146088", "ref:vatin": "BR16828915000120"}}, {"type": "node", "id": 3949663516, "lat": -11.6933707, "lon": -41.4727177, "tags": {"amenity": "hospital"}}, {"type": "node", "id": 3964642012, "lat": -11.3325369, "lon": -42.1265243, "tags": {"amenity": "hospital", "source": "IBGE Mapa de Setores Urbanos"}}, {"type": "node", "id": 3992362132, "lat": -14.2125636, "lon": -42.767665, "tags": {"amenity": "hospital", "emergency": "yes", "healthcare": "hospital", "name": "Unidade de Pronto Atendimento de Guanambi", "short_name": "UPA"}}, {"type": "node", "id": 4024200212, "lat": -16.6812537, "lon": -49.2652088, "tags": {"amenity": "hospital", "healthcare": "hospital", "name": "Hospital de Queimaduras"}}, {"type": "node", "id": 4053973715, "lat": -14.2596168, "lon": -42.2608409, "tags": {"amenity": "hospital", "name": "Hospital Municipal S\u00e3o Sebasti\u00e3o"}}, {"type": "node", "id": 4106696113, "lat": -17.7211947, "lon": -48.1638727, "tags": {"addr:city": "Ipameri", "addr:housenumber": "7", "addr:postcode": "75780-000", "addr:street": "Avenida Doutor Gomes da Frota", "addr:suburb": "Centro", "amenity": "hospital", "emergency": "yes", "name": "Pronto Socorro Mun. de Ipameri", "operator": "Prefeitura Municipal de Ipameri"}}, {"type": "node", "id": 4114337175, "lat": -17.7303227, "lon": -42.2796743, "tags": {"amenity": "hospital"}}, {"type": "node", "id": 4119099158, "lat": -13.5335466, "lon": -40.1583989, "tags": {"amenity": "hospital"}}, {"type": "node", "id": 4123693083, "lat": -15.9072872, "lon": -44.2967738, "tags": {"amenity": "hospital"}}, {"type": "node", "id": 4146686178, "lat": -15.3094374, "lon": -49.5933733, "tags": {"addr:city": "Ceres", "addr:housenumber": "100", "addr:postcode": "76300-000", "addr:street": "Rua S\u00e3o Patr\u00edcio", "amenity": "hospital", "healthcare": "hospital", "name": "Hospital S\u00e3o Patr\u00edcio", "ref:CNES": "2337495", "ref:vatin": "BR01380237000108"}}, {"type": "node", "id": 4146840354, "lat": -10.8270517, "lon": -40.4966467, "tags": {"amenity": "hospital"}}, {"type": "node", "id": 4146850535, "lat": -10.8904667, "lon": -40.703188, "tags": {"amenity": "hospital"}}, {"type": "node", "id": 4183486016, "lat": -15.0479849, "lon": -42.9466446, "tags": {"amenity": "hospital"}}, {"type": "node", "id": 4186511779, "lat": -16.6529047, "lon": -41.0268129, "tags": {"addr:housenumber": "140", "addr:postcode": "39890-000", "addr:street": "Rua Get\u00falio Vargas", "addr:suburb": "Centro", "amenity": "hospital", "fax": "+55 33 3745 1202", "healthcare": "hospital", "name": "Hospital Municipal de Joa\u00edma", "operator:ref:vatin": "BR18495812000110", "phone": "+55 33 3745 1395", "ref:CNES": "2139057"}}, {"type": "node", "id": 4206133992, "lat": -18.6222973, "lon": -42.2840867, "tags": {"addr:city": "Coroaci", "addr:housenumber": "15", "addr:postcode": "39710-000", "addr:street": "Pra\u00e7a Coronel Manoel Laje", "addr:suburb": "Centro", "amenity": "hospital", "healthcare": "hospital", "healthcare:speciality": "general", "name": "Pronto Atendimento Municipal Gentil Ferreira de Oliveira", "operator": "Munic\u00edpio de Coroaci", "operator:type": "public", "source": "IBGE"}}, {"type": "node", "id": 4233327575, "lat": -11.0494974, "lon": -41.9695332, "tags": {"amenity": "hospital"}}, {"type": "node", "id": 4240980851, "lat": -13.006387, "lon": -40.5316709, "tags": {"amenity": "hospital"}}, {"type": "node", "id": 4240980883, "lat": -13.0012749, "lon": -40.531231, "tags": {"amenity": "hospital"}}, {"type": "node", "id": 4240980888, "lat": -13.0032245, "lon": -40.5334143, "tags": {"amenity": "hospital"}}, {"type": "node", "id": 4264573256, "lat": -12.529646, "lon": -40.3099144, "tags": {"addr:housenumber": "189", "addr:postcode": "46880-000", "addr:street": "Avenida Brigadeiro Eduardo Gomes", "amenity": "hospital", "healthcare": "hospital", "name": "Hospital da Chapada", "opening_hours": "24/7", "phone": "+55 75 3251 7111", "website": "https://hospitaldachapada.com.br/novo/"}}, {"type": "node", "id": 4274291513, "lat": -19.3477118, "lon": -47.2935006, "tags": {"addr:city": "Perdizes", "addr:housenumber": "10", "addr:postcode": "38170000", "addr:street": "Pra\u00e7a Get\u00falio Borges Prado", "addr:suburb": "Divineia", "amenity": "hospital", "emergency": "yes", "name": "Santa Casa de Miseric\u00f3rdia de Perdizes", "operator": "Criar Net"}}, {"type": "node", "id": 4327249405, "lat": -19.886973, "lon": -44.0307217, "tags": {"addr:city": "Contagem", "addr:housenumber": "200", "addr:street": "Rua Extrema", "addr:suburb": "Guanabara", "amenity": "hospital", "emergency": "yes", "healthcare": "hospital", "name": "UPA Ressaca"}}, {"type": "node", "id": 4359224637, "lat": -17.2173309, "lon": -46.8753067, "tags": {"amenity": "hospital", "name": "Hospital Municipal de Paracatu"}}, {"type": "node", "id": 4380596991, "lat": -14.853117, "lon": -40.8384152, "tags": {"amenity": "hospital", "name": "Hospital das Clinicas - HCC", "name:pt": "Hospital das Clinicas - HCC"}}, {"type": "node", "id": 4398248989, "lat": -16.290402, "lon": -48.9413196, "tags": {"amenity": "hospital", "healthcare": "hospital", "name": "Associa\u00e7\u00e3o de combate ao c\u00e2ncer em Goi\u00e1s", "name:pt": "Associa\u00e7\u00e3o de combate ao c\u00e2ncer em Goi\u00e1s"}}, {"type": "node", "id": 4423973720, "lat": -12.1429962, "lon": -44.9958762, "tags": {"addr:city": "Barreiras", "addr:housenumber": "203", "addr:postcode": "47800-020", "addr:street": "Rua Guadalajara", "addr:suburb": "Vila Dulce", "amenity": "hospital", "healthcare": "hospital", "name": "Hospital Central de Barreiras", "phone": "+55 77 3612-2555"}}, {"type": "node", "id": 4423976164, "lat": -12.1425576, "lon": -44.9943811, "tags": {"addr:city": "Barreiras", "addr:housenumber": "348", "addr:postcode": "47800-020", "addr:suburb": "Vila Dulce", "amenity": "hospital", "healthcare": "hospital", "name": "CAM-Centro de Atendimento \u00e0 Mulher"}}, {"type": "node", "id": 4469859785, "lat": -10.7397698, "lon": -40.1301494, "tags": {"amenity": "hospital"}}, {"type": "node", "id": 4539225392, "lat": -16.6895559, "lon": -49.2893204, "tags": {"addr:housenumber": "1135", "addr:postcode": "74230-285", "addr:street": "Rua Campinas", "amenity": "hospital", "healthcare": "hospital", "name": "Santa Casa de Miseric\u00f3rdia de Goi\u00e2nia", "name:pt": "Santa Casa de Miseric\u00f3rdia de Goi\u00e2nia", "ref:CNES": "2338351", "ref:vatin": "BR01619790000150"}}, {"type": "node", "id": 4550706704, "lat": -16.6605001, "lon": -49.2735332, "tags": {"addr:housenumber": "76", "addr:postcode": "74560-390", "addr:street": "Rua 10", "amenity": "hospital", "healthcare": "hospital", "name": "Centro de Sa\u00fade Fama", "ref:CNES": "2338521"}}, {"type": "node", "id": 4557494192, "lat": -16.7915195, "lon": -49.3248456, "tags": {"amenity": "hospital", "name": "Buriti Sereno", "name:pt": "Buriti Sereno"}}, {"type": "node", "id": 4558655097, "lat": -16.8282976, "lon": -49.2455392, "tags": {"addr:street": "Avenida Das Na\u00e7\u00f5es", "amenity": "hospital", "healthcare": "hospital", "name": "Hospital s\u00e3o silvestre", "name:pt": "Hospital s\u00e3o silvestre"}}, {"type": "node", "id": 4561692175, "lat": -19.8958266, "lon": -44.0260436, "tags": {"addr:city": "Contagem", "addr:housenumber": "1643", "addr:postcode": "32115-160", "addr:street": "Rua Alvimar Rezende", "addr:suburb": "Novo Progresso", "amenity": "hospital", "name": "Posto de sa\u00fade"}}, {"type": "node", "id": 4562644061, "lat": -19.9107839, "lon": -44.082188, "tags": {"addr:city": "Contagem", "addr:housenumber": "47", "addr:street": "Rua Joaquim Camargos", "addr:suburb": "Centro", "amenity": "hospital", "emergency": "yes", "healthcare": "hospital", "internet_access": "no", "name": "Unidade de Pronto Atendimento Contagem", "phone": "+553131987155", "short_name": "UPA Contagem", "source": "survey", "website": "https://www.contagem.mg.gov.br/"}}, {"type": "node", "id": 4565596994, "lat": -19.9216975, "lon": -43.9263578, "tags": {"amenity": "hospital", "healthcare": "hospital", "name": "IEP - Santa Casa", "name:pt": "IEP - Santa Casa"}}, {"type": "node", "id": 4573189057, "lat": -13.152426, "lon": -41.7700119, "tags": {"amenity": "hospital"}}, {"type": "node", "id": 4582057324, "lat": -19.6951106, "lon": -46.1685502, "tags": {"amenity": "hospital", "source": "IBGE"}}, {"type": "node", "id": 4583907740, "lat": -16.7226837, "lon": -49.3279852, "tags": {"amenity": "hospital", "description": "Hospital Esp\u00edrita Eur\u00edpedes Barsanulfo\nInterna\u00e7\u00e3o de Dependentes Qu\u00edmicos", "healthcare": "hospital", "name": "Casa de Eur\u00edpedes"}}, {"type": "node", "id": 4585333189, "lat": -14.2399457, "lon": -40.7639549, "tags": {"amenity": "hospital"}}, {"type": "node", "id": 4594730751, "lat": -13.6634598, "lon": -41.8594021, "tags": {"addr:postcode": "46.140000", "addr:suburb": "Bairro Jurema", "amenity": "hospital", "emergency": "yes", "name": "UPA 24 Horas (Marilton Tanajura Matias)", "wheelchair": "yes"}}, {"type": "node", "id": 4596518393, "lat": -16.682692, "lon": -49.3011799, "tags": {"amenity": "hospital", "healthcare": "hospital", "name": "HPM", "name:pt": "HPM"}}, {"type": "node", "id": 4620742323, "lat": -12.2846661, "lon": -41.1684335, "tags": {"amenity": "hospital"}}, {"type": "node", "id": 4620742327, "lat": -12.2827532, "lon": -41.1665828, "tags": {"amenity": "hospital"}}, {"type": "node", "id": 4661997698, "lat": -16.1005693, "lon": -49.3361007, "tags": {"addr:city": "Petrolina de Goi\u00e1s", "addr:housenumber": "100", "addr:postcode": "75480-000", "addr:street": "Pra\u00e7a Te\u00f3filo Vieira Mota", "addr:suburb": "Centro", "amenity": "hospital", "healthcare": "hospital", "name": "Hospital S\u00e3o Jos\u00e9", "name:en": "Hospital Sao Jose", "name:pt": "Hospital S\u00e3o Jos\u00e9", "phone": "+55 62 334 6310", "ref:CNES": "2442027", "ref:vatin": "BR01299825000111"}}, {"type": "node", "id": 4673702292, "lat": -16.7443356, "lon": -48.5183754, "tags": {"addr:city": "Vian\u00f3polis", "addr:housenumber": "99", "addr:postcode": "75265-000", "addr:street": "Avenida Doutor Eugenio Jardim", "addr:suburb": "Centro", "amenity": "hospital", "fax": "+55 62 335 1557", "healthcare": "hospital", "name": "Hospital S\u00e3o Sebasti\u00e3o", "phone": "+55 62 335 1160", "ref:CNES": "2441969", "ref:vatin": "BR01206960000175"}}, {"type": "node", "id": 4675792859, "lat": -16.7405389, "lon": -49.194006, "tags": {"amenity": "hospital", "healthcare": "hospital", "name": "PSF - Parque Atheneu"}}, {"type": "node", "id": 4675800153, "lat": -16.7516681, "lon": -49.2222406, "tags": {"amenity": "hospital", "emergency": "no", "healthcare": "hospital", "name": "UBS - JD OLIMPICO"}}, {"type": "node", "id": 4720623989, "lat": -14.4668476, "lon": -48.4583931, "tags": {"addr:housenumber": "86", "addr:postcode": "76420-000", "addr:street": "Avenida Anhanguera", "amenity": "hospital", "email": "niquelandia.saude@bol.com.br", "fax": "+55 62 354 1421", "healthcare": "hospital", "name": "Hospital Municipal Santa Efig\u00eania Niquel\u00e2ndia", "official_name": "Prefeitura Municipal De Niquelandia", "operator:ref:vatin": "BR02215895000107", "phone": "+55 62 354 2254", "ref:CNES": "2534789"}}, {"type": "node", "id": 4810712639, "lat": -16.0282893, "lon": -48.0243617, "tags": {"amenity": "hospital", "name": "BASE SAMU"}}, {"type": "node", "id": 4880824768, "lat": -16.5658388, "lon": -42.8932462, "tags": {"addr:city": "Gr\u00e3o Mogol", "addr:housenumber": "147", "addr:postcode": "39570-000", "addr:street": "Pra\u00e7a S\u00e3o Sebasti\u00e3o", "addr:suburb": "Centro", "amenity": "hospital", "healthcare": "hospital", "healthcare:speciality": "general", "name": "Hospital Santo Ant\u00f4nio", "operator": "Funda\u00e7\u00e3o Hospitalar Santo Ant\u00f4nio de Gr\u00e3o Mogol", "operator:type": "private", "phone": "+55 38 3238 1109", "ref:CNES": "2205866", "ref:vatin": "BR22680375000182"}}, {"type": "node", "id": 4890486221, "lat": -19.9125764, "lon": -43.920568, "tags": {"addr:housenumber": "407", "addr:street": "rua pouso alegre", "amenity": "hospital", "fixme": "25320999 precisa do ddd", "healthcare": "hospital", "name": "Instituto de olhos - hospital universit\u00e1rio"}}, {"type": "node", "id": 4957300298, "lat": -18.1705543, "lon": -47.9521786, "tags": {"addr:housenumber": "63", "addr:postcode": "75701-150", "addr:street": "Rua Nilo Margon", "addr:suburb": "Centro", "amenity": "hospital", "email": "controladoria@hospitalsaonicolau.com.br", "fax": "+55 64 3442 9200", "healthcare": "hospital", "name": "Hospital e Maternidade S\u00e3o Nicolau", "phone": "+55 64 3442 9200", "ref:CNES": "2442620", "ref:vatin": "BR01326206000179"}}, {"type": "node", "id": 4975582404, "lat": -19.5899319, "lon": -46.9377217, "tags": {"addr:housenumber": "68", "addr:postcode": "38183-085", "addr:street": "Pra\u00e7a Coronel Jos\u00e9 Adolfo", "addr:suburb": "Centro", "amenity": "hospital", "healthcare": "hospital", "name": "Hospital Regional Dom Bosco", "ref:CNES": "2164612", "ref:vatin": "BR16906935000171", "source": "IBGE;DATASUS"}}, {"type": "node", "id": 5009498621, "lat": -12.1515835, "lon": -44.9955598, "tags": {"addr:street": "Rua Aymor\u00e9", "amenity": "hospital", "healthcare": "hospital", "name": "Formed", "name:pt": "Formed"}}, {"type": "node", "id": 5029150222, "lat": -19.4185113, "lon": -43.3212116, "tags": {"addr:city": "Itamb\u00e9 do Mato Dentro", "addr:housenumber": "100", "addr:postcode": "35820000", "addr:street": "Rua Olivier C\u00e2ndido Gomes", "addr:suburb": "Centro", "amenity": "hospital", "emergency": "yes", "healthcare:speciality": "general", "name": "Unidade de Sa\u00fade Municipal de Itamb\u00e9 do Mato Dentro", "phone": "+55 31 3836 5262"}}, {"type": "node", "id": 5043730321, "lat": -16.6714587, "lon": -49.2918884, "tags": {"addr:housenumber": "681", "addr:postcode": "74525-060", "addr:street": "Rua Rio Verde", "amenity": "hospital", "healthcare": "hospital", "name": "Hospital Santa Rosa", "name:en": "Santa Rosa Hospital", "name:pt": "Hospital Santa Rosa", "opening_hours": "24/7", "phone": "+55 62 4008 5533", "ref:CNES": "2338173", "ref:vatin": "BR01531714000199"}}, {"type": "node", "id": 5053557391, "lat": -19.5072425, "lon": -42.5539151, "tags": {"addr:street": "Avenida Usiminas", "amenity": "hospital", "healthcare": "hospital", "name": "Central de Resultados - HMC"}}, {"type": "node", "id": 5076407635, "lat": -14.9340844, "lon": -42.8240633, "tags": {"addr:housenumber": "725", "addr:postcode": "39510-000", "addr:street": "Avenida Juscelino Kubitschek", "addr:suburb": "Santa Tereza", "amenity": "hospital", "email": "smes@ligbr.com.br", "fax": "+55 38 3812 1208", "healthcare": "hospital", "name": "Fundacao Hospitalar do Munic\u00edpio de Espinosa", "operator:ref:vatin": "BR18650952000116", "phone": "+55 38 3812 1208", "ref:CNES": "2105365", "ref:vatin": "BR04417906000167"}}, {"type": "node", "id": 5206778602, "lat": -16.6675041, "lon": -48.6133333, "tags": {"addr:city": "Silv\u00e2nia", "addr:housenumber": "978", "addr:postcode": "75180-000", "addr:street": "Avenida Dom Bosco", "addr:suburb": "Centro", "amenity": "hospital", "fax": "+55 62 3332 1616", "healthcare": "hospital", "name": "Hospital Nosso Senhor do Bonfim", "operator:ref:vatin": "BR01068030000100", "phone": "+55 62 3332 1761", "ref:CNES": "2769603"}}, {"type": "node", "id": 5256214652, "lat": -15.0333074, "lon": -41.9312232, "tags": {"amenity": "hospital", "emergency": "yes", "healthcare": "hospital", "healthcare:speciality": "general;internal", "name": "Hospital Municipal Joaquim Mutte de Carvalho", "operator": "Prefeitura de Cordeiros"}}, {"type": "node", "id": 5282071596, "lat": -18.4864145, "lon": -47.404595, "tags": {"addr:housenumber": "367", "addr:postcode": "38540-000", "addr:street": "Avenida Benedito Teodoro da Silva", "addr:suburb": "Centro", "amenity": "hospital", "healthcare": "hospital", "name": "Hospital Santa Casa De Miseric\u00f3rdia", "operator:ref:vatin": "BR18593111000114", "ref:CNES": "491632"}}, {"type": "node", "id": 5306925554, "lat": -11.7124978, "lon": -40.1487572, "tags": {"amenity": "hospital", "name": "Cl\u00ednica IOM"}}, {"type": "node", "id": 5349173295, "lat": -19.5270293, "lon": -42.6281504, "tags": {"amenity": "hospital", "healthcare": "hospital", "name": "UBS - Nossa Senhora do Carmo"}}, {"type": "node", "id": 5364344748, "lat": -15.1513479, "lon": -49.5739423, "tags": {"amenity": "hospital", "emergency": "yes", "healthcare": "hospital", "name": "Centro e Sa\u00fade", "opening_hours": "Atendimento normal 07:00-11:00 e 13:00-27:00 , ap\u00f3s apenas emergencias", "operator": "Luciana de Cassia Coutinho"}}, {"type": "node", "id": 5364780296, "lat": -16.0400714, "lon": -48.0306294, "tags": {"amenity": "hospital", "healthcare": "hospital", "name": "Posto de sa\u00fade da 202"}}, {"type": "node", "id": 5436124373, "lat": -15.7701994, "lon": -47.8734075, "tags": {"amenity": "hospital", "healthcare": "hospital", "name": "Ambulat\u00f3rio II"}}, {"type": "node", "id": 5452187420, "lat": -14.4083998, "lon": -42.8611783, "tags": {"addr:street": "Rua Piaui", "amenity": "hospital", "healthcare": "hospital"}}, {"type": "node", "id": 5461965121, "lat": -16.7157454, "lon": -49.2837344, "tags": {"addr:housenumber": "1280", "addr:postcode": "74280-060", "addr:street": "Avenida C-148", "amenity": "hospital", "healthcare": "hospital", "name": "Hospital e Maternidade Jardim Am\u00e9rica", "name:en": "Hospital and Maternity Jardim America", "opening_hours": "24/7", "phone": "+55 61 3269 7900", "website": "https://www.hospitaljardimamerica.com.br/"}}, {"type": "node", "id": 5528674751, "lat": -12.2486603, "lon": -41.6174055, "tags": {"addr:city": "Iraqaura", "addr:housenumber": "86", "addr:street": "Rua das Palmeiras", "amenity": "hospital", "contact:phone": "+55 75 3364 2140", "email": "haciraquara@hotmail.com", "healthcare": "hospital", "name": "Hospital Am\u00e9rico Chagas", "phone": "+55 75 3364 2112"}}, {"type": "node", "id": 5583452996, "lat": -16.6292664, "lon": -45.0623675, "tags": {"amenity": "hospital", "healthcare": "hospital"}}, {"type": "node", "id": 5610489634, "lat": -19.008407, "lon": -44.0427422, "tags": {"amenity": "hospital", "description": "Hospital Municipal", "healthcare": "hospital"}}, {"type": "node", "id": 5618352121, "lat": -19.8055229, "lon": -44.0248037, "tags": {"amenity": "hospital", "name": "Caad"}}, {"type": "node", "id": 5672980721, "lat": -18.5967372, "lon": -49.1959163, "tags": {"amenity": "hospital", "name": "Posto de Saude", "opening_hours": "24/7"}}, {"type": "node", "id": 5673369784, "lat": -16.704227, "lon": -49.2626557, "tags": {"addr:city": "Goi\u00e2nia", "addr:housenumber": "730", "addr:postcode": "74110-030", "addr:street": "Rua 1129", "addr:suburb": "setor Marista", "amenity": "hospital", "description": "Dermatologia est\u00e9tica em Goi\u00e2nia. Preenchimento, harmoniza\u00e7\u00e3o facial e corporal, laser, fios e botox.", "email": "anacarolina@anacarolinarocha.com.br", "emergency": "no", "healthcare": "hospital", "healthcare:speciality": "dermatology;laser_therapy", "name": "Dr Ana Carolina Rocha", "operator": "dermatologista goiania CO2", "phone": "+55 62 3946 9090", "website": "https://anacarolinarocha.com.br/"}}, {"type": "node", "id": 5691877689, "lat": -15.8212803, "lon": -47.9282777, "tags": {"amenity": "hospital", "healthcare": "hospital", "name": "Urocentro"}}, {"type": "node", "id": 5735125294, "lat": -16.0081466, "lon": -41.2827917, "tags": {"amenity": "hospital", "healthcare": "hospital", "name": "Hospital Ester Farias de Almeida"}}, {"type": "node", "id": 5735710656, "lat": -15.8265631, "lon": -47.9307571, "tags": {"addr:city": "Brasilia", "addr:housenumber": "716", "addr:postcode": "70390-900", "addr:street": "SHLS", "addr:street_1": "Clinical Center Oswaldo Cruz, Terreo - SHLS 716", "addr:suburb": "Terreo", "amenity": "hospital", "contact:blogspot": "http://otorrinobrasiliadf.blogspot.com", "contact:facebook": "https://www.facebook.com/otorrinoclinicadf", "contact:instagram": "https://www.instagram.com/otorrinobrasilia9/", "contact:pinterest": "https://br.pinterest.com/brasiliaotorrino/", "contact:tumblr": "https://otorrino.tumblr.com", "contact:twitter": "https://twitter.com/clinica_df", "contact:vimeo": "https://vimeo.com/otorrinobrasilia", "contact:youtube": "https://www.youtube.com/channel/UCPnNiYQLTkeZwBs51dfm7zA", "email": "otorrino@otorrinobrasiliadf.bsb.br", "emergency": "yes", "healthcare": "hospital", "healthcare:speciality": "orthodontics;otolaryngology;plastic_surgery", "name": "Clinica de Otorrino Brasilia DF - Asa Sul | Otorrinolaringologia", "opening_hours": "Mo-Fr 07:00-19:00", "phone": "+55 61 3521 5728", "website": "https://www.otorrinobrasiliadf.bsb.br/"}}, {"type": "node", "id": 5826230337, "lat": -15.8412205, "lon": -48.028152, "tags": {"addr:city": "Bras\u00edlia", "addr:housenumber": "11 - loja 7", "addr:postcode": "71926-001", "addr:street": "Avenida Pau Brasil", "addr:suburb": "Sul", "amenity": "hospital", "description": "Clinica do Sono em Aguas Claras - Taguatinga - DF. Ao lado do Metr\u00f4 Aguas Claras. Realiza polissonografia. Estacionamento coberto e gratuito.", "email": "sonoaguasclaras@sonoaguasclaras.com.br", "healthcare": "hospital", "healthcare:speciality": "sonografia;polissonografia_aguas_claras;clinic;dentist", "logo": "https://sonoaguasclaras.com.br/wp-content/themes/sonoaguasclaras/assets/img/logo.png", "name": "Cl\u00ednica do Sono \u00c1guas Claras - Taguatinga - DF", "operator": "polissonografia taguatinga", "phone": "+55 (61) 3346-0081", "website": "https://sonoaguasclaras.com.br/"}}, {"type": "node", "id": 5913698946, "lat": -16.5445992, "lon": -49.2680177, "tags": {"addr:city": "Goi\u00e2nia", "addr:postcode": "7500000", "addr:street": "Rua ACP-4 com ACP-2", "addr:suburb": "Residencial Antonio Carlos Pires", "amenity": "hospital", "healthcare": "hospital", "healthcare:speciality": "clinic", "name": "Posto de Sa\u00fade Ant\u00f4nio Carlos Pires"}}, {"type": "node", "id": 5915877851, "lat": -17.9957667, "lon": -42.38818, "tags": {"addr:city": "\u00c1gua Boa", "addr:housenumber": "138", "addr:postcode": "39790-000", "addr:street": "Rua Felix Couy", "addr:suburb": "Divin\u00e9sia", "amenity": "hospital", "emergency": "yes", "healthcare": "hospital", "healthcare:speciality": "general", "name": "Hospital Santana", "operator": "Funda\u00e7\u00e3o de Assist\u00eancia Social Santana de \u00c1gua Boa", "operator:type": "private", "phone": "+55 33 3515 1114", "ref:CNES": "2102404", "ref:vatin": "BR20974705000117", "source": "IBGE;DATASUS"}}, {"type": "node", "id": 5918894883, "lat": -18.8899237, "lon": -48.3325831, "tags": {"amenity": "hospital", "healthcare": "hospital", "name": "Posto de Sa\u00fade"}}, {"type": "node", "id": 6088138792, "lat": -15.3324306, "lon": -43.6718437, "tags": {"addr:postcode": "39508-000", "addr:street": "Avenida Joaquim Garcia Ladeia", "addr:suburb": "Centro", "amenity": "hospital", "email": "jaiba@nortecnet.com.br", "healthcare": "hospital", "name": "Hospital Municipal de Jaiba", "operator:ref:vatin": "BR25209149000106", "phone": "+55 38 3833 1480", "ref:CNES": "2117479"}}, {"type": "node", "id": 6110033362, "lat": -15.4896067, "lon": -44.3669182, "tags": {"addr:street": "Avenida Itapira\u00e7aba", "amenity": "hospital", "healthcare": "hospital", "name": "Hospital Santa Helena"}}, {"type": "node", "id": 6136989790, "lat": -15.3003795, "lon": -49.1261094, "tags": {"amenity": "hospital", "name": "Unidade de Sa\u00fade da Fam\u00edlia Joaquim Cordeiro Teles"}}, {"type": "node", "id": 6381052243, "lat": -17.9908145, "lon": -46.8978466, "tags": {"amenity": "hospital", "healthcare": "hospital"}}, {"type": "node", "id": 6381450087, "lat": -18.7765057, "lon": -40.9851201, "tags": {"addr:city": "Mantena", "addr:housenumber": "185", "addr:postcode": "35290-000", "addr:street": "Rua Jos\u00e9 Rom\u00e9rio Duque", "addr:suburb": "Centro", "amenity": "hospital", "healthcare": "hospital", "name": "Hospital Evang\u00e9lico de Mantena"}}, {"type": "node", "id": 6383820237, "lat": -17.9884242, "lon": -46.9057468, "tags": {"amenity": "hospital", "healthcare": "hospital", "name": "Hospital Cristo Rei"}}, {"type": "node", "id": 6413312892, "lat": -18.1349629, "lon": -48.0847591, "tags": {"addr:housenumber": "21", "addr:postcode": "75740-000", "addr:street": "Rua Jos\u00e9 Alves Porto", "addr:suburb": "Centro", "amenity": "hospital", "healthcare": "hospital", "name": "Hospital e Maternidade de Goiandira", "phone": "+55 64 3462 1380", "ref:CNES": "2441799", "ref:vatin": "BR01130491000158"}}, {"type": "node", "id": 6415383678, "lat": -16.055755, "lon": -48.0356622, "tags": {"amenity": "hospital", "emergency": "yes", "healthcare": "hospital", "name": "UPA - Unidade de Pronto Atendimento de Novo Gama"}}, {"type": "node", "id": 6440066858, "lat": -19.7950111, "lon": -45.6825022, "tags": {"amenity": "hospital", "healthcare": "hospital"}}, {"type": "node", "id": 6456334014, "lat": -16.012906, "lon": -48.0046179, "tags": {"addr:postcode": "72542507", "addr:street": "QR 312 CONJUNTO G H", "amenity": "hospital", "emergency": "no", "healthcare": "hospital", "healthcare:speciality": "physiotherapy", "name": "CAPS Flor de L\u00f3tus"}}, {"type": "node", "id": 6470003087, "lat": -15.8224251, "lon": -47.9251883, "tags": {"addr:postcode": "70390-145", "addr:street": "SEPS EQ 714/914", "amenity": "hospital", "healthcare": "hospital", "name": "Hospital Urol\u00f3gico de Bras\u00edlia", "opening_hours": "Mo-Sa 08:00-22:00", "phone": "+55 61 3345 9300"}}, {"type": "node", "id": 6563333232, "lat": -18.9222856, "lon": -48.2819295, "tags": {"addr:city": "Uberl\u00e2ndia", "addr:housenumber": "60", "addr:postcode": "38400-124", "addr:street": "Avenida Jo\u00e3o Pinheiro", "addr:suburb": "Centro", "amenity": "hospital", "emergency": "no", "healthcare": "hospital", "healthcare:speciality": "general", "name": "CIAS Unimed Uberl\u00e2ndia", "operator": "Unimed Uberl\u00e2ndia"}}, {"type": "node", "id": 6604126436, "lat": -17.0863133, "lon": -40.9396756, "tags": {"addr:postcode": "39880-000", "addr:street": "Rua Doutor Josino Abrantes", "addr:suburb": "Centro", "amenity": "hospital", "email": "svicente@uai.com.br", "emergency": "yes", "healthcare": "hospital", "name": "Hospital S\u00e3o Vicente de Paula", "operator": "Sociedade S\u00e3o Vicente de Paula", "operator:type": "private_non_profit", "phone": "+55 33 3611 1242", "ref:CNES": "2183803", "ref:vatin": "BR16564072000100"}}, {"type": "node", "id": 6795120632, "lat": -14.670365, "lon": -40.4730995, "tags": {"addr:city": "Planalto", "addr:postcode": "45190-000", "addr:street": "Avenida 15 de Novembro", "addr:suburb": "Jo\u00e3o Guimar\u00e3es", "amenity": "hospital", "healthcare": "hospital", "name": "Hospital Nilton Ferreira dos Santos"}}, {"type": "node", "id": 6818061422, "lat": -16.5400548, "lon": -40.1706862, "tags": {"amenity": "hospital", "healthcare": "hospital"}}, {"type": "node", "id": 6883358540, "lat": -16.0789321, "lon": -48.0646296, "tags": {"amenity": "hospital", "healthcare": "hospital", "name": "Posto 24 horas"}}, {"type": "node", "id": 6893160715, "lat": -16.0883115, "lon": -48.0618371, "tags": {"amenity": "hospital", "healthcare": "hospital", "name": "Posto 24 horas lunabel"}}, {"type": "node", "id": 6893240967, "lat": -16.095095, "lon": -48.073752, "tags": {"amenity": "hospital", "healthcare": "hospital", "name": "Postinho 24 horas Lago azul"}}, {"type": "node", "id": 6910800083, "lat": -18.7605182, "lon": -44.8951425, "tags": {"addr:housenumber": "827", "addr:postcode": "39237-000", "addr:street": "Rua Senador Lima Guimar\u00e3es", "addr:suburb": "Gameleira", "amenity": "hospital", "email": "hospitalfelixlandia@yahoo.com.br", "fax": "+55 38 3753 1571", "healthcare": "hospital", "name": "Hospital Municipal da Prefeitura de Felixl\u00e2ndia", "operator": "Prefeitura Municipal de Felixl\u00e2ndia", "operator:ref:vatin": "BR17695032000151", "operator:type": "public", "phone": "+55 38 3753 1222", "ref:CNES": "2159155"}}, {"type": "node", "id": 6985704366, "lat": -16.1439216, "lon": -47.9622233, "tags": {"amenity": "hospital", "healthcare": "hospital", "name": "Hospital Do Jardim Ing\u00e1", "note": "Hospital Regional Do Jardim Ing\u00e1"}}, {"type": "node", "id": 6985733943, "lat": -16.1475794, "lon": -47.95931, "tags": {"amenity": "hospital", "healthcare": "hospital", "name": "UPA- JARDIM ING\u00c1"}}, {"type": "node", "id": 6992962997, "lat": -15.7817894, "lon": -47.7815698, "tags": {"amenity": "hospital", "healthcare": "hospital", "name": "Hospital Regional do Parano\u00e1", "opening_hours": "24/7", "phone": "+55 (61) 2017-1550"}}, {"type": "node", "id": 7017845443, "lat": -12.007849, "lon": -44.6960501, "tags": {"amenity": "hospital", "healthcare": "hospital", "name": "Hospital Doutor Otto Alencar"}}, {"type": "node", "id": 7117651562, "lat": -17.2161771, "lon": -46.8751696, "tags": {"amenity": "hospital", "emergency": "yes", "healthcare": "hospital", "name": "Pronto Socorro"}}, {"type": "node", "id": 7152087985, "lat": -15.8690443, "lon": -47.9017371, "tags": {"amenity": "hospital", "name": "HFAB - Hospital de For\u00e7a A\u00e9rea de Bras\u00edlia"}}, {"type": "node", "id": 7157450663, "lat": -16.7432398, "lon": -49.1893799, "tags": {"addr:city": "Goi\u00e2nia", "addr:street": "Rua 2071", "addr:suburb": "Ressidencial Ville de France", "amenity": "hospital", "healthcare": "hospital", "healthcare:speciality": "general", "name": "CSF Ville de France"}}, {"type": "node", "id": 7172115434, "lat": -19.5620352, "lon": -42.6398184, "tags": {"amenity": "hospital", "healthcare": "hospital", "name": "UPA de Tim\u00f3teo"}}, {"type": "node", "id": 7250486129, "lat": -15.8406179, "lon": -47.8836992, "tags": {"addr:city": "Lago Sul", "addr:housenumber": "25", "addr:postcode": "71615730", "addr:street": "SHIS QI 7", "addr:suburb": "Lago Sul", "amenity": "hospital", "healthcare": "hospital", "healthcare:speciality": "dermatology;psychiatry;physiotherapy;plastic_surgery;general", "internet_access": "yes", "name": "BELLA VITA EST\u00c9TICA INTEGRADA", "operator": "DRA ADRIANA ISAAC - DERMATOLOGISTA", "operator:type": "private", "website": "https://instagram.com/bellavitaintegrada", "wheelchair": "yes"}}, {"type": "node", "id": 7260617428, "lat": -19.981607, "lon": -43.94546, "tags": {"addr:city": "Nova Lima", "addr:housenumber": "220", "addr:street": "Rua da Paisagem", "amenity": "hospital", "healthcare": "hospital", "healthcare:speciality": "ophthalmology", "name": "Hospital de Olhos de Minas Gerais", "phone": "+55 31 3289 2030", "ref:CNES": "3030733", "ref:vatin": "BR65279663000132"}}, {"type": "node", "id": 7293232914, "lat": -16.7054672, "lon": -49.2713279, "tags": {"addr:city": "Goi\u00e2nia", "addr:housenumber": "930", "addr:postcode": "74215-020", "addr:street": "Rua T 55", "addr:suburb": "Setor Bueno", "amenity": "hospital", "healthcare": "hospital", "healthcare:speciality": "Bioplastia;Harmoniza\u00e7\u00e3o_Facial;Gl\u00fateos;Nariz;Laser_CO2_Fracionado", "name": "Bioplastia Brasil GO", "operator": "Bioplastia Brasil GO", "operator:type": "private"}}, {"type": "node", "id": 7300292174, "lat": -10.8199878, "lon": -42.7213215, "tags": {"amenity": "hospital", "healthcare": "hospital", "name": "Hospital Senhor do Bonfim"}}, {"type": "node", "id": 7304546667, "lat": -10.9664485, "lon": -41.0784394, "tags": {"amenity": "hospital", "healthcare": "hospital", "name": "Hospital Municipal de Ourol\u00e2ndia"}}, {"type": "node", "id": 7357408939, "lat": -16.6369404, "lon": -49.4127411, "tags": {"amenity": "hospital", "healthcare": "hospital", "name": "UPA"}}, {"type": "node", "id": 7370253085, "lat": -19.9305096, "lon": -44.1136282, "tags": {"addr:housenumber": "137", "addr:postcode": "31989-353", "addr:street": "Rua Refinaria Uni\u00e3o", "amenity": "hospital", "healthcare": "hospital", "name": "UPA Petrol\u00e2ndia", "opening_hours": "24/7", "operator": "Sistema \u00danico de Sa\u00fade", "operator:short": "SUS", "operator:wikidata": "Q7531056", "phone": "+55 31 3352 5312"}}, {"type": "node", "id": 7412868428, "lat": -17.6881467, "lon": -40.1142597, "tags": {"addr:city": "Ibirapu\u00e3", "addr:housenumber": "S/N", "addr:postcode": "45940000", "addr:street": "Rua Governador Lomanto J\u00fanior", "addr:suburb": "Brasilia", "amenity": "hospital", "emergency": "yes", "healthcare": "hospital", "healthcare:speciality": "general", "name": "Hospital Isaura Ch\u00e1cara"}}, {"type": "node", "id": 7578539950, "lat": -19.7454948, "lon": -44.0903042, "tags": {"amenity": "hospital", "healthcare": "hospital", "name": "Posto de sa\u00fade"}}, {"type": "node", "id": 7604138585, "lat": -16.7421661, "lon": -49.2280639, "tags": {"amenity": "hospital", "healthcare": "hospital", "name": "UPA Parque Flamboyant", "ref:CNES": "9135944"}}, {"type": "node", "id": 7700577730, "lat": -16.1104665, "lon": -47.9334921, "tags": {"amenity": "hospital", "healthcare": "hospital", "name": "Hospital Particular de Cidade Ocidental GO"}}, {"type": "node", "id": 7731850751, "lat": -18.7252373, "lon": -47.5062671, "tags": {"addr:city": "Monte Carmelo", "addr:postcode": "38500-000", "addr:street": "Avenida Quatro", "addr:suburb": "Carmo", "amenity": "hospital", "healthcare": "hospital", "healthcare:speciality": "general", "name": "PSF Bairro do Carmo", "operator": "PMMC", "operator:type": "public"}}, {"type": "node", "id": 7731894975, "lat": -18.7313231, "lon": -47.4900678, "tags": {"addr:city": "Monte Carmelo", "addr:housenumber": "200", "addr:postcode": "38500-000", "addr:street": "Avenida Brasil Leste", "addr:suburb": "Vila Nova", "amenity": "hospital", "healthcare": "hospital", "healthcare:speciality": "general", "name": "PSF - Elias de Moraes", "operator": "PMMC", "operator:type": "public"}}, {"type": "node", "id": 7731975915, "lat": -19.4998722, "lon": -42.615667, "tags": {"amenity": "hospital", "healthcare": "hospital", "name": "UPA"}}, {"type": "node", "id": 7832578139, "lat": -14.0338918, "lon": -42.1422109, "tags": {"amenity": "hospital", "name": "Posto de Sa\u00fade da Fam\u00edlia"}}, {"type": "node", "id": 7939611356, "lat": -15.7868494, "lon": -47.8827919, "tags": {"addr:city": "Bras\u00edlia", "addr:housenumber": "Sala 405", "addr:postcode": "70711070", "addr:street": "SCN Quadra 1 Bloco G Rossi Esplanada Business", "addr:suburb": "Asa Norte", "amenity": "hospital", "emergency": "no", "healthcare": "hospital", "healthcare:speciality": "dentist", "name": "Proceram Instituto de Odontologia", "operator": "Giselli Cristinne", "wheelchair": "yes"}}, {"type": "node", "id": 7944662409, "lat": -15.9637482, "lon": -47.8189025, "tags": {"amenity": "hospital", "healthcare": "hospital", "name": "unidade b\u00e1sica de sa\u00fade Toror\u00f3"}}, {"type": "node", "id": 8040853476, "lat": -13.1278147, "lon": -42.2925901, "tags": {"amenity": "hospital", "healthcare": "hospital", "name": "Hospital de Rio do Pires"}}, {"type": "node", "id": 8042894022, "lat": -14.0535892, "lon": -42.4708526, "tags": {"amenity": "hospital", "emergency": "yes", "healthcare": "hospital", "name": "Unidade de Pronto Atendimento de Caetit\u00e9 - UPA 24 Horas", "short_name": "UPA"}}, {"type": "node", "id": 8376555781, "lat": -15.8224695, "lon": -48.0583283, "tags": {"addr:city": "Bras\u00edlia - DF", "addr:postcode": "72110-350", "addr:street": "QNA 35 Lote 01 Loja 03", "addr:suburb": "Taguatinga Norte", "amenity": "hospital", "healthcare": "hospital", "name": "Cpap Sono - Terapia do Sono"}}, {"type": "node", "id": 8428559274, "lat": -11.7154175, "lon": -49.0903763, "tags": {"amenity": "hospital", "healthcare": "hospital", "name": "Drogaria Popular"}}, {"type": "node", "id": 8595549260, "lat": -17.6414766, "lon": -41.7434749, "tags": {"addr:city": "Ladainha", "addr:housenumber": "550", "addr:postcode": "39825-000", "addr:street": "Rua da Usina", "addr:suburb": "Centro", "amenity": "hospital", "ele": "1", "emergency": "yes", "healthcare": "hospital", "healthcare:speciality": "general", "name": "Hospital Municipal Dr Arthur Rausch", "operator": "Prefeitura Municipal de Ladainha", "operator:ref:vatin": "BR18404863000190", "operator:type": "government", "phone": "+55 33 3524 1290", "ref:CNES": "2797496", "wheelchair": "yes"}}, {"type": "node", "id": 8692091255, "lat": -19.9543237, "lon": -44.117576, "tags": {"amenity": "hospital", "healthcare": "hospital", "name": "Asilo Antonio Recreio"}}, {"type": "node", "id": 8707300778, "lat": -10.2152734, "lon": -48.3354394, "tags": {"addr:city": "Palmas", "addr:postcode": "77016008", "addr:street": "Rua NS-A", "addr:suburb": "Plano Diretor Sul", "amenity": "hospital", "healthcare": "hospital", "healthcare:speciality": "covid19", "name": "Hospital Estadual de Combate ao Covid-19 - Palmas - T0"}}, {"type": "node", "id": 8712754193, "lat": -12.820008, "lon": -41.0744829, "tags": {"amenity": "hospital", "healthcare": "hospital", "healthcare:speciality": "general", "name": "Posto de Sa\u00fade Retaguarda", "operator": "Prefeitura Municipal de Nova Reden\u00e7\u00e3o", "operator:type": "public"}}, {"type": "node", "id": 8744239329, "lat": -16.662193, "lon": -49.2764686, "tags": {"addr:street": "Rua 1", "amenity": "hospital", "healthcare": "hospital", "healthcare:speciality": "dental", "name": "Instituto Goiano de Odontologia", "operator": "Instituto Goiano de Odontologia", "operator:type": "business"}}, {"type": "node", "id": 8826351531, "lat": -15.1189359, "lon": -40.0657399, "tags": {"amenity": "hospital", "healthcare": "hospital", "name": "Funda\u00e7\u00e3o Hospital Maternidade Itoror\u00f3"}}, {"type": "node", "id": 8833559338, "lat": -19.811306, "lon": -43.1898619, "tags": {"addr:city": "Jo\u00e3o Monlevade", "addr:housenumber": "991", "addr:postcode": "35930478", "addr:street": "Avenida Gentil Bicalho", "addr:suburb": "Carneirinhos", "amenity": "hospital", "description": "O NEOH - N\u00facleo Especializado em Oncologia e Hematologia foi institu\u00eddo em Jo\u00e3o Monlevade, cidade na regi\u00e3o de Minas Gerais.   A cl\u00ednica est\u00e1 localizada na Av. Gentil Bicalho, n\u00ba 991 - Carneirinhos Jo\u00e3o Monlevade/MG e conta com servi\u00e7os de Hematologia e O", "email": "administracao@neohoncologia.com.br", "healthcare": "hospital", "healthcare:speciality": "oncology;hematologia;oncologia", "internet_access": "yes", "internet_access:fee": "customers", "name": "NEOH - N\u00facleo Especializado em Oncologia e Hematologia", "phone": "+553138505753", "wheelchair": "yes"}}, {"type": "node", "id": 8974713154, "lat": -15.8275052, "lon": -47.9277937, "tags": {"addr:housenumber": "606 e 608", "addr:street": "SHLS, Quadra 716, Conjunto A, Centro Cl\u00ednico OHB, salas", "addr:suburb": "Asa Sul", "amenity": "hospital", "healthcare": "hospital", "healthcare:speciality": "ginecologia;radiologia;ecografias;densitometrias;raio_x;ultrassom;ultrassonografia;dxa", "internet_access": "yes", "name": "Mix Imagem Diagn\u00f3stico por Imagem", "operator": "Mix Imagem", "operator:type": "private", "wheelchair": "yes"}}, {"type": "node", "id": 9121314259, "lat": -11.1298203, "lon": -42.1113854, "tags": {"amenity": "hospital", "healthcare": "hospital"}}, {"type": "node", "id": 9392142776, "lat": -18.9525258, "lon": -48.2699989, "tags": {"addr:city": "Uberl\u00e2ndia", "addr:housenumber": "50", "addr:postcode": "38411-217", "addr:street": "Avenida dos Vinhedos", "addr:suburb": "Centro", "amenity": "hospital", "emergency": "no", "healthcare": "hospital", "healthcare:speciality": "physiotherapy", "name": "Labs For Fit", "phone": "+55 34 3254-7514"}}, {"type": "node", "id": 9511091496, "lat": -11.7208576, "lon": -49.0761517, "tags": {"addr:city": "Gurupi", "addr:housenumber": "176", "addr:postcode": "77423-150", "addr:street": "Rua Ministro Alfredo Nasser", "addr:suburb": "Centro", "amenity": "hospital", "fax": "+55 63 312 3019", "healthcare": "hospital", "name": "Hospital e Maternidade Santa Catarina", "phone": "+55 63 312 4666", "ref:CNES": "5052424", "ref:vatin": "BR27149281000103"}}, {"type": "node", "id": 9517214983, "lat": -12.4790026, "lon": -49.1258048, "tags": {"addr:housenumber": "715", "addr:postcode": "77480-000", "addr:street": "Avenida JK", "addr:suburb": "Centro", "amenity": "hospital", "email": "hppalvorada@gmail.com", "healthcare": "hospital", "name": "Hospital de Pequeno Porte de Alvorada", "operator:ref:vatin": "BR25053117000164", "phone": "+55 63 3353 1839", "ref:CNES": "3385205", "ref:vatin": "BR25053117006286"}}, {"type": "node", "id": 9680141974, "lat": -19.3911095, "lon": -40.0632673, "tags": {"amenity": "hospital", "healthcare": "hospital", "name": "UPA Shell - Unidade de Sa\u00fade e Pronto Atendimento 24h"}}, {"type": "node", "id": 9730745866, "lat": -16.6080432, "lon": -41.771488, "tags": {"addr:city": "Itinga", "addr:postcode": "39610-000", "addr:street": "Avenida Central", "addr:suburb": "Centro", "amenity": "hospital", "name": "Policl\u00ednica Municipal Escrava Feliciana"}}, {"type": "node", "id": 9733212094, "lat": -16.5570646, "lon": -41.5059378, "tags": {"addr:city": "Itaobim", "addr:housenumber": "387", "addr:postcode": "39625-000", "addr:street": "Rua Minas Novas", "addr:suburb": "S\u00e3o Jorge", "amenity": "hospital", "emergency": "yes", "healthcare": "hospital", "healthcare:speciality": "general;gynaecology;paediatrics", "name": "Hospital Vale do Jequitinhonha", "phone": "+55 33 3734 1158", "ref:CNES": "2139073", "ref:vatin": "BR19911312000185"}}, {"type": "node", "id": 9777939621, "lat": -16.8477041, "lon": -42.0666999, "tags": {"addr:city": "Ara\u00e7ua\u00ed", "addr:housenumber": "255", "addr:postcode": "39600-000", "addr:street": "Rua Amazonas", "addr:suburb": "Nova Terra", "amenity": "hospital", "emergency": "yes", "healthcare": "hospital", "healthcare:speciality": "general", "name": "Hospital S\u00e3o Vicente de Paulo"}}, {"type": "node", "id": 9793328085, "lat": -12.1426395, "lon": -44.9866074, "tags": {"addr:city": "Barreiras", "addr:housenumber": "145", "addr:postcode": "47800-000", "addr:street": "Rua Antenor Braga", "addr:suburb": "JK", "amenity": "hospital", "healthcare": "hospital", "name": "Clinica Veteranria S\u00e3o Francisco"}}, {"type": "node", "id": 9872717661, "lat": -16.709931, "lon": -43.865665, "tags": {"addr:housenumber": "1207", "addr:postcode": "39400-162", "addr:street": "Avenida Jo\u00e3o XXIII", "addr:suburb": "Edgar Pereira", "amenity": "hospital", "email": "coordenacaofat@aroldotourinho.com.br", "fax": "+55 38 3221 1959", "healthcare": "hospital", "name": "Hospital Aroldo Tourinho", "phone": "+55 38 2101 4040", "ref:CNES": "2219638", "ref:vatin": "BR16920928000124"}}, {"type": "node", "id": 9917458493, "lat": -16.1521766, "lon": -47.9330842, "tags": {"amenity": "hospital", "healthcare": "hospital", "name": "posto de saude"}}, {"type": "node", "id": 9926710847, "lat": -18.0385063, "lon": -41.6713715, "tags": {"addr:city": "Itambacuri", "addr:housenumber": "1308", "addr:postcode": "39830-000", "addr:street": "Avenida Farmac\u00eautico Joviano", "addr:suburb": "V\u00e1rzea", "amenity": "hospital", "email": "honosean@hotmail.com", "emergency": "yes", "healthcare": "hospital", "healthcare:speciality": "general", "name": "Hospital Nossa Senhora dos Anjos", "operator": "Associa\u00e7\u00e3o Hospitalar Nossa Senhora dos Anjos", "operator:type": "private", "phone": "+55 33 3511 1366", "ref:CNES": "2185563", "ref:vatin": "BR26202168000173"}}, {"type": "node", "id": 9992439599, "lat": -12.1939788, "lon": -46.9911624, "tags": {"amenity": "hospital", "healthcare": "hospital", "name": "Posto Divino"}}, {"type": "node", "id": 10054495927, "lat": -18.6017954, "lon": -43.3798896, "tags": {"addr:city": "Serro", "addr:housenumber": "88", "addr:postcode": "39150-000", "addr:street": "Rua Irm\u00e3 Maria Carvalho", "addr:suburb": "Matozinho", "alt_name": "Hospital Regional do Serro", "amenity": "hospital", "emergency": "yes", "healthcare": "hospital", "healthcare:speciality": "general", "name": "Casa de Caridade Santa Tereza", "operator": "Casa de Caridade Santa Tereza", "operator:type": "private", "phone": "+55 38 35411224", "ref:CNES": "2202891", "ref:vatin": "BR24975237000156", "website": "http://casadecaridadesantatereza.com.br/"}}, {"type": "node", "id": 10056640219, "lat": -18.2420543, "lon": -43.5998607, "tags": {"addr:city": "Diamantina", "addr:housenumber": "195", "addr:postcode": "39100-000", "addr:street": "Rua da Gl\u00f3ria", "addr:suburb": "Centro", "amenity": "hospital", "emergency": "yes", "healthcare": "hospital", "healthcare:speciality": "general", "name": "Pronto Atendimento Santa Izabel", "operator": "Santa Casa de Caridade de Diamantina", "operator:type": "private"}}, {"type": "node", "id": 10062498038, "lat": -18.7688156, "lon": -42.9313734, "tags": {"addr:city": "Guanh\u00e3es", "addr:housenumber": "257", "addr:postcode": "39740-000", "addr:street": "Rua Capit\u00e3o Bernardo", "addr:suburb": "Centro", "amenity": "hospital", "healthcare": "hospital", "healthcare:speciality": "general;emergency", "name": "Hospital Regional Imaculada Concei\u00e7\u00e3o", "operator": "Associa\u00e7\u00e3o de Caridade Nossa Senhora do Carmo", "operator:type": "private", "phone": "+55 33 3421 1747", "ref:CNES": "2144530", "ref:vatin": "BR20724357000120", "source": "Bing;IBGE;DATASUS"}}, {"type": "node", "id": 10069651375, "lat": -18.6651641, "lon": -43.0815868, "tags": {"addr:city": "Sabin\u00f3polis", "addr:housenumber": "331", "addr:postcode": "39750-000", "addr:street": "Rua In\u00e1cio Barroso", "addr:suburb": "Centro", "amenity": "hospital", "healthcare": "hospital", "healthcare:speciality": "general", "name": "Hospital S\u00e3o Sebasti\u00e3o", "operator": "Associa\u00e7\u00e3o de Caridade Hospital S\u00e3o Sebasti\u00e3o", "operator:type": "private", "phone": "+55 33 3423 1311", "ref:CNES": "2135914", "ref:vatin": "BR24331027000125"}}, {"type": "node", "id": 10080391561, "lat": -18.9707117, "lon": -43.2582759, "tags": {"addr:city": "Dom Joaquim", "addr:housenumber": "85", "addr:postcode": "35865-000", "addr:street": "Rua Doutor Ary Ascens\u00e3o de Oliveira", "addr:suburb": "Centro", "amenity": "hospital", "email": "willer@icmd.com.br", "healthcare": "hospital", "healthcare:speciality": "general", "name": "Hospital Nossa Senhora das Gra\u00e7as", "operator": "Irmandade Nossa Senhora das Gracas de Dom Joaquim", "operator:type": "religious", "phone": "+55 31 3866 1131"}}, {"type": "node", "id": 10095373765, "lat": -19.3086392, "lon": -42.3634554, "tags": {"addr:city": "Belo Oriente", "addr:housenumber": "500", "addr:postcode": "35196-000", "addr:street": "Alameda Cruz e Souza", "addr:suburb": "Perp\u00e9tuo Socorro", "amenity": "hospital", "emergency": "yes", "healthcare": "hospital", "healthcare:speciality": "general", "name": "Hospital Jaques Gon\u00e7alves Pereira", "operator": "Associa\u00e7\u00e3o Hospitalar S\u00e3o Vicente de Paulo de Ipanema", "operator:type": "community", "phone": "+55 33 3314 1298", "ref:CNES": "5350697", "ref:vatin": "BR20942819000266"}}, {"type": "node", "id": 10109931698, "lat": -16.6784515, "lon": -49.2848374, "tags": {"addr:housenumber": "39", "addr:postcode": "74535-270", "addr:street": "Rua 237", "amenity": "hospital", "healthcare": "hospital", "name": "Centro M\u00e9dico Samaritano", "ref:CNES": "2518600", "ref:vatin": "BR00131027000113"}}, {"type": "node", "id": 10110210235, "lat": -16.6917767, "lon": -49.2788301, "tags": {"amenity": "hospital", "healthcare": "hospital", "name": "Instituto de Neurologia de Goi\u00e2nia"}}, {"type": "node", "id": 10111665184, "lat": -16.7096677, "lon": -49.2620518, "tags": {"amenity": "hospital", "healthcare": "hospital", "name": "Ambulat\u00f3rio de Queikmaduras"}}, {"type": "node", "id": 10111691172, "lat": -16.6934261, "lon": -49.2834194, "tags": {"amenity": "hospital", "healthcare": "hospital", "name": "Pronto Socorro Psiquiatrico - Prof. Wassily Chuc"}}, {"type": "node", "id": 10116623916, "lat": -16.7851645, "lon": -49.3567698, "tags": {"amenity": "hospital", "healthcare": "hospital", "name": "CSF Condominio das Esmeraldas"}}, {"type": "node", "id": 10116626112, "lat": -16.8141131, "lon": -49.374754, "tags": {"amenity": "hospital", "healthcare": "hospital", "name": "CSF Madre Germana"}}, {"type": "node", "id": 10119964108, "lat": -18.5475355, "lon": -42.5597259, "tags": {"addr:city": "Pe\u00e7anha", "addr:housenumber": "29", "addr:postcode": "39700-000", "addr:street": "Rua Hor\u00e1cio de Freitas", "addr:suburb": "Centro", "amenity": "hospital", "healthcare": "hospital", "healthcare:speciality": "general", "name": "Hospital Santo Ant\u00f4nio", "operator": "Hospital Santo Ant\u00f4nio", "operator:type": "private"}}, {"type": "node", "id": 10177312348, "lat": -18.2928369, "lon": -43.0090711, "tags": {"addr:city": "Rio Vermelho", "addr:housenumber": "34", "addr:postcode": "39165-000", "addr:street": "Travessa Francisco da Rocha", "addr:suburb": "Centro", "amenity": "hospital", "healthcare": "hospital", "healthcare:speciality": "general", "name": "Hospital Jo\u00e3o C\u00e9sar de Oliveira", "operator": "Associa\u00e7\u00e3o Beneficiente do Hospital Jo\u00e3o C\u00e9sar de Oliveira", "operator:type": "private", "phone": "+55 33 3343 3612", "ref:CNES": "2135140", "ref:vatin": "BR24288698000150"}},