{"version": 0.6, "generator": "Overpass API 0.7.61.5 4133829e", "osm3s": {"timestamp_osm_base": "2023-10-31T20:49:30Z", "copyright": "The data included in this document is from www.openstreetmap.org. The data is made available under ODbL."}, "elements": [{"type": "node", "id": 616734902, "lat": -18.9087993, "lon": 47.5172775, "tags": {"amenity": "hospital", "name": "Angeline Medical Institute"}}, {"type": "node", "id": 663455768, "lat": -16.1022947, "lon": 45.3258722, "tags": {"amenity": "hospital", "health_facility:MG": "CHRD", "healthcare": "hospital", "name": "H\u00f4pital de Soalala"}}, {"type": "node", "id": 671507412, "lat": -17.3820097, "lon": 49.4198526, "tags": {"amenity": "hospital", "health_facility:MG": "CHRR", "healthcare": "hospital", "name": "H\u00f4pital de F\u00e9n\u00e9rive-Est"}}, {"type": "node", "id": 721751405, "lat": -18.9304218, "lon": 47.5434822, "tags": {"amenity": "hospital", "name": "Hoptital d'Ambohimiandra"}}, {"type": "node", "id": 2391522904, "lat": -15.7165568, "lon": 46.3052907, "tags": {"amenity": "hospital", "note": "B\u00e2timent principal"}}, {"type": "node", "id": 2430137856, "lat": -13.4427462, "lon": 48.3478284, "tags": {"amenity": "hospital"}}, {"type": "node", "id": 2716272375, "lat": -12.1628941, "lon": 44.4006947, "tags": {"amenity": "hospital", "name": "Polyclinique du Croissant Rouge Iranien"}}, {"type": "node", "id": 3747965355, "lat": -11.8041656, "lon": 43.2796781, "tags": {"amenity": "hospital", "name": "Centre de sant\u00e9 de Mitsoudj\u00e9"}}, {"type": "node", "id": 4002475742, "lat": -11.3936872, "lon": 43.2861297, "tags": {"amenity": "hospital", "name": "CMC Mitsamiouli"}}, {"type": "node", "id": 4360144272, "lat": -14.8355601, "lon": 47.3285816, "tags": {"amenity": "hospital", "name": "Dispensaire"}}, {"type": "node", "id": 4587769790, "lat": -19.8632303, "lon": 47.0323636, "tags": {"amenity": "hospital", "name:en": "Hopitaly Loterana Andranomadio"}}, {"type": "node", "id": 4737704141, "lat": -15.4370744, "lon": 49.6437107, "tags": {"amenity": "hospital"}}, {"type": "node", "id": 4779915808, "lat": -11.7970803, "lon": 43.4353318, "tags": {"amenity": "hospital", "healthcare:speciality": "general", "name": "Dispensaire Caritas", "operator": "Commune", "operator:type": "private"}}, {"type": "node", "id": 4896455021, "lat": -18.906817, "lon": 47.5227739, "tags": {"addr:housenumber": "1", "addr:postcode": "101", "addr:street": "Patrice Lumumba", "amenity": "hospital", "healthcare": "hospital", "name:fr": "Croix Rouge Malagasy", "opening_hours": "Mo-Fr 08:00-18:00"}}, {"type": "node", "id": 5248407943, "lat": -18.854653, "lon": 47.5502658, "tags": {"amenity": "hospital", "name": "Polyclinique d'Ilafy"}}, {"type": "node", "id": 5249769022, "lat": -12.2832996, "lon": 49.2940105, "tags": {"addr:street": "Boulevard Sylvain Roux", "amenity": "hospital", "healthcare": "hospital", "name:fr": "La Dispensaire"}}, {"type": "node", "id": 5501788098, "lat": -19.330461, "lon": 48.9799818, "tags": {"amenity": "hospital", "health_facility:MG": "CHRD", "healthcare": "hospital", "name": "Centre Hosptalier de R\u00e9f\u00e9rence du District du Vatomandry", "operator:type": "public"}}, {"type": "node", "id": 5553415266, "lat": -18.873266, "lon": 47.5501267, "tags": {"amenity": "hospital", "health_facility:type": "clinic", "name": "Clinique Marie Stella"}}, {"type": "node", "id": 5623871662, "lat": -11.3842921, "lon": 43.3268519, "tags": {"amenity": "hospital", "healthcare": "hospital"}}, {"type": "node", "id": 5749216079, "lat": -19.8758464, "lon": 47.0425665, "tags": {"amenity": "hospital", "name": "Service M\u00e9dical Inter Entreprises"}}, {"type": "node", "id": 5841547590, "lat": -18.8893326, "lon": 47.5391722, "tags": {"amenity": "hospital", "health_facility:type": "clinic", "name": "Clinique Fidy", "operator:type": "private"}}, {"type": "node", "id": 6482670316, "lat": -17.8258977, "lon": 48.4296931, "tags": {"amenity": "hospital", "name": "Blue star"}}, {"type": "node", "id": 6679524325, "lat": -18.0618968, "lon": 44.0229249, "tags": {"amenity": "hospital", "health_facility:MG": "CHRR", "healthcare": "hospital", "name": "Centre Hospitalier R\u00e9gional de R\u00e9f\u00e9rence Maintirano", "operator:type": "public", "short_name": "CHRR Maintirano"}}, {"type": "node", "id": 7418859885, "lat": -14.2084853, "lon": 40.5158978, "tags": {"amenity": "hospital", "name": "hospital distrital memba"}}, {"type": "node", "id": 7613792685, "lat": -16.9292058, "lon": 49.9119952, "tags": {"amenity": "hospital", "name:fr": "CSB"}}, {"type": "node", "id": 8011100644, "lat": -12.3467289, "lon": 43.8003948, "tags": {"amenity": "hospital", "healthcare": "hospital"}}, {"type": "node", "id": 8011100645, "lat": -12.2877469, "lon": 43.7479199, "tags": {"amenity": "hospital"}}, {"type": "node", "id": 8011100646, "lat": -12.2580776, "lon": 43.6751004, "tags": {"amenity": "hospital", "healthcare": "hospital"}}, {"type": "node", "id": 8011100647, "lat": -12.304017, "lon": 43.6349589, "tags": {"amenity": "hospital", "healthcare": "hospital", "name": "Clinique de Miringoni", "name:fr": "Clinique de Miringoni"}}, {"type": "node", "id": 8011100648, "lat": -12.361061, "lon": 43.7167182, "tags": {"amenity": "hospital", "healthcare": "hospital"}}, {"type": "node", "id": 8428685417, "lat": -16.6894856, "lon": 49.7489092, "tags": {"amenity": "hospital", "name:en": "C.S.B II Manompana"}}, {"type": "node", "id": 8636154475, "lat": -15.7157599, "lon": 46.3646097, "tags": {"amenity": "hospital", "name": "H\u00f4pital Saint Jean Paul II"}}, {"type": "node", "id": 8856194317, "lat": -18.8970082, "lon": 47.9726527, "tags": {"amenity": "hospital", "name:fr": "CSB 2 Anjiro"}}, {"type": "node", "id": 9014958006, "lat": -12.2098036, "lon": 40.1210554, "tags": {"amenity": "hospital", "healthcare": "hospital", "name": "Hospital Macomia (em Constru\u00e7\u00e3o)"}}, {"type": "node", "id": 9054392884, "lat": -10.7809201, "lon": 40.4730569, "tags": {"amenity": "hospital", "healthcare": "hospital", "name": "Hospital de Palma", "operator": "MISAU", "operator:type": "public"}}, {"type": "node", "id": 9192620018, "lat": -13.0819615, "lon": 40.4254143, "tags": {"amenity": "hospital", "name": "Hospital de Bilibiza"}}, {"type": "node", "id": 9446362317, "lat": -18.9203881, "lon": 47.5411749, "tags": {"addr:housenumber": "Lot VD5 bis", "addr:postcode": "101", "addr:street": "Ambatoroka", "amenity": "hospital", "email": "madagascar@dragarwal.com", "name:en": "Dr. Agarwal's Eye Hospital", "name:fr": "Centre de sant\u00e9 oculaire. Clinique des yeux", "phone": "+261344974052", "website": "https://www.dragarwal.com/"}}, {"type": "node", "id": 9503998917, "lat": -18.8883977, "lon": 47.4899968, "tags": {"amenity": "hospital", "name:fr": "Village VOARA"}}, {"type": "node", "id": 9547652017, "lat": -10.2817038, "lon": 40.1293989, "tags": {"addr:postcode": "255", "addr:street": "Mitengo", "amenity": "hospital", "name": "Zonal", "name:en": "Southern Zone Referral Hospital", "opening_hours": "24/7"}}, {"type": "node", "id": 9573090217, "lat": -10.2696288, "lon": 40.1643743, "tags": {"amenity": "hospital", "name": "Chino Dispenary"}}, {"type": "node", "id": 9588056518, "lat": -10.2754226, "lon": 40.1824715, "tags": {"addr:street": "TANU Road", "amenity": "hospital", "name": "Seventh Day Adventists Church Dispensary"}}, {"type": "node", "id": 9588232517, "lat": -10.2851139, "lon": 40.1966494, "tags": {"addr:street": "Zambia Street", "amenity": "hospital", "name": "Likombe District Hospital"}}, {"type": "node", "id": 9684949304, "lat": -15.8277434, "lon": 48.8289101, "tags": {"amenity": "hospital", "healthcare": "hospital", "name": "Hopitaly Vaovao Mahafaly", "operator:type": "religious"}}, {"type": "node", "id": 9869252918, "lat": -13.8581524, "lon": 49.9485508, "tags": {"amenity": "hospital", "name": "Clinique CMCM"}}, {"type": "node", "id": 9889186814, "lat": -11.6462574, "lon": 43.2824582, "tags": {"amenity": "hospital"}}, {"type": "node", "id": 10029220661, "lat": -12.7890714, "lon": 45.272423, "tags": {"amenity": "hospital", "healthcare": "hospital", "name": "cabinet m\u00e9dical 1", "source": "BDOrtho IGN (2016)"}}, {"type": "node", "id": 10557674272, "lat": -12.7728284, "lon": 45.2262571, "tags": {"amenity": "hospital", "name": "HAD MdzHAD\u00e9", "opening_hours": "24/7", "phone": "+262 269 63 56 80", "source": "Mapillary Abn_976 - 2023-01-12", "website": "https://mdzhade.lna-sante.com/"}}, {"type": "node", "id": 11020539696, "lat": -19.7838783, "lon": 47.1060558, "tags": {"amenity": "hospital", "health_facility:MG": "CHRD", "healthcare": "hospital", "name": "Centre Hospitalier de R\u00e9f\u00e9rence de District Andranomanelatra", "operator:type": "public"}}, {"type": "node", "id": 11166301952, "lat": -18.8784535, "lon": 47.5637087, "tags": {"amenity": "hospital", "name": "Centre de Diagnostic Neuro Psycho"}}, {"type": "node", "id": 11229781146, "lat": -18.1184833, "lon": 47.7684211, "tags": {"amenity": "hospital", "name": "CSB II Amboasary Avaratra"}}, {"type": "way", "id": 37800948, "center": {"lat": -19.8724635, "lon": 47.0279054}, "nodes": [443385794, 443385791, 5024535771, 5024535770, 5024535769, 5024535768, 443385792, 5024535767, 443385797, 443385798, 443385795, 5024535778, 5024535777, 443385796, 443385802, 443385803, 5024535779, 5024535780, 5024535781, 5024535782, 443385800, 443385794], "tags": {"addr:city": "Antsirabe", "alt_name": "CHRR Vakinankaratra", "amenity": "hospital", "emergency": "yes", "health_facility:MG": "CHRR", "healthcare": "hospital", "name": "Hopitaly Atsimo", "operator:type": "public"}}, {"type": "way", "id": 45980156, "center": {"lat": -18.8974332, "lon": 47.5430317}, "nodes": [586019542, 3057170836, 586019544, 3057170835, 586019545, 586019546, 586019548, 3057170834, 586019550, 3057170833, 586019553, 586019556, 586019557, 586019558, 586019560, 586019563, 3057168631, 3057168632, 586019565, 586019568, 586019569, 586019570, 586019572, 586019578, 586019579, 586019581, 586019585, 586019588, 586019589, 586019592, 586019595, 586019598, 586019599, 586019600, 317492487, 586019602, 5245472648, 586019604, 586019607, 586019542], "tags": {"amenity": "hospital", "name": "Centre Hospitalier de Soavinandriana", "name:fr": "Centren Hospitalier Soavinandriana, HJRA", "note": "Centre Hospitalier Universitaire (CHU)"}}, {"type": "way", "id": 46330981, "center": {"lat": -18.8510572, "lon": 47.4762076}, "nodes": [591435896, 591435990, 591435906, 591435907, 591435908, 591435909, 591435910, 591435911, 591435912, 591435913, 591435896], "tags": {"amenity": "hospital", "name": "Cliniques priv\u00e9es de l'Eglise Luth\u00e9rienne d'Ambohibao", "note": "Sampanasa Loterana momba ny Fahasalamana (SALFA)"}}, {"type": "way", "id": 46339571, "center": {"lat": -18.8554187, "lon": 47.4864272}, "nodes": [591953451, 591953453, 591953466, 591953468, 10574976441, 10574976440, 591953451], "tags": {"alt_name": "CHRD Ambohidroa", "amenity": "hospital", "health_facility:MG": "CHRD", "healthcare": "hospital", "name": "Hopital Ambohidroa", "note": "Centre hospitalier de district niveau I (CHD1)", "operator:type": "public"}}, {"type": "way", "id": 47471585, "center": {"lat": -18.9199041, "lon": 47.5184742}, "nodes": [604126899, 5123884157, 5123884158, 5123884159, 5123926500, 5123884160, 604126900, 5664378129, 604126901, 5123884161, 1534207907, 1534207910, 604126902, 604126903, 5123884156, 604126904, 604126899], "tags": {"amenity": "hospital", "health_facility:MG": "CHU", "healthcare": "hospital", "name": "H\u00f4pital Joseph Ravoahangy-Andrianavalona", "operator:type": "public", "short_name": "CHUJRA"}}, {"type": "way", "id": 53578987, "center": {"lat": -18.1423763, "lon": 49.4171418}, "nodes": [676827388, 676827377, 676827376, 676826829, 9265064399, 676827388], "tags": {"amenity": "hospital", "emergency": "yes", "health_facility:MG": "CHU", "healthcare": "hospital", "name": "Centre Hospitalier Universitaire de Toamasina"}}, {"type": "way", "id": 70246948, "center": {"lat": -18.9367812, "lon": 47.4351836}, "nodes": [838762235, 838762239, 838762244, 838762249, 838762253, 838762256, 838762258, 838762265, 838762235], "tags": {"alt_name": "CHU Fenoarivo", "amenity": "hospital", "health_facility:MG": "CHU", "healthcare": "hospital", "name": "Hopital de Fenoarivo", "note": "Centre Hospitalier Universitaire (CHU)", "operator:type": "public"}}, {"type": "way", "id": 70253166, "center": {"lat": -18.9078277, "lon": 47.5073302}, "nodes": [838786273, 838786275, 838786276, 838786277, 838786279, 838786287, 838786289, 838786291, 838786294, 838786296, 838786273], "tags": {"amenity": "hospital", "name": "H\u00f4pital luth\u00e9rien des 67ha", "note": "Sampanasa Loteriana momba ny Fahasalamana (SALFA)"}}, {"type": "way", "id": 136493017, "center": {"lat": -18.948243, "lon": 48.2379373}, "nodes": [1497220929, 11010315525, 11010315526, 11010315527, 1497220931, 11010315528, 11010315529, 11010315530, 1497220930, 11010315531, 11010315532, 1497220932, 11010315533, 4246165970, 11010315534, 11010315535, 11010315536, 1497220929], "tags": {"amenity": "hospital", "emergency": "yes", "health_facility:MG": "CHRD", "healthcare": "hospital", "name": "CHD II Moramanga", "operator:type": "public"}}, {"type": "way", "id": 136493753, "center": {"lat": -18.9482282, "lon": 48.2365548}, "nodes": [1497228808, 1497228806, 4987987410, 1497228818, 4987987411, 1497228810, 1497228808], "tags": {"amenity": "hospital", "name": "SSD"}}, {"type": "way", "id": 144754191, "center": {"lat": -11.6947714, "lon": 43.2543745}, "nodes": [1582667177, 4071627365, 1582667274, 1582667252, 1582667149, 4369369922, 1582667166, 1582667430, 4779697732, 4779697733, 4779697734, 1582667015, 4779697735, 1582667186, 1582667678, 1018210800, 1582667288, 1582668102, 4376914878, 4375529120, 4375529117, 1582668104, 1582667144, 4773396553, 1582667135, 4002369213, 1582667177], "tags": {"amenity": "hospital", "emergency": "yes", "healthcare": "hospital", "name": "H\u00f4pital El Maarouf", "name:fr": "H\u00f4pital El Maarouf", "operator": "Minist\u00e8re de la Sant\u00e9", "operator:fr": "Minist\u00e8re de la Sant\u00e9"}}, {"type": "way", "id": 169526134, "center": {"lat": -15.6723554, "lon": 47.0561248}, "nodes": [1806901161, 1806901175, 1806901174, 1806901170, 1806901158, 1806901141, 1806901138, 1806901143, 1806901146, 1806901152, 1806901161], "tags": {"amenity": "hospital"}}, {"type": "way", "id": 183206349, "center": {"lat": -15.2552771, "lon": 48.5398446}, "nodes": [1935739289, 1935739312, 1935739310, 1935739304, 1935739293, 1935739273, 1935739245, 1935739289], "tags": {"amenity": "hospital", "health_facility:MG": "CHRD", "healthcare": "hospital", "name": "CHD I Befandriana Nord"}}, {"type": "way", "id": 191358920, "center": {"lat": -19.8757969, "lon": 47.0425872}, "nodes": [2019447742, 2412905204, 2019447737, 2412905229, 2412905208, 2019447744, 2019447740, 2019447742], "tags": {"amenity": "hospital", "building": "yes", "healthcare": "hospital"}}, {"type": "way", "id": 192637580, "center": {"lat": -13.4005084, "lon": 48.2646874}, "nodes": [2031843736, 5491630754, 6200829900, 2031843670, 6200829895, 5491630753, 2031843694, 5491630752, 5491630751, 2031843722, 5491630750, 2031843672, 2031843705, 2031843738, 5491630755, 2031843736], "tags": {"alt_name": "CHRD Nosy Be", "amenity": "hospital", "health_facility:MG": "CHRD", "healthcare": "hospital", "name": "Hopitalibe", "operator:type": "public"}}, {"type": "way", "id": 200503090, "center": {"lat": -12.2689495, "lon": 49.2967445}, "nodes": [2104796299, 2104796323, 2104796274, 2104796245, 5269799392, 5269799393, 2104796299], "tags": {"amenity": "hospital", "building": "yes", "healthcare": "hospital", "name": "Centre Hospitalier Universitaire"}}, {"type": "way", "id": 206329817, "center": {"lat": -18.913626, "lon": 47.5318779}, "nodes": [2163342878, 2163342895, 2163342892, 2163342890, 2163342878], "tags": {"amenity": "hospital", "emergency": "yes", "name": "Dispensaire Havozo"}}, {"type": "way", "id": 230681036, "center": {"lat": -15.715162, "lon": 46.3179794}, "nodes": [2391490495, 2391490517, 2391490539, 2391490574, 2391490571, 2391490498, 2391490495], "tags": {"amenity": "hospital", "healthcare": "hospital", "name": "H\u00f4pital Mahabibo"}}, {"type": "way", "id": 230685209, "center": {"lat": -15.7169076, "lon": 46.3044448}, "nodes": [2391522906, 2391522905, 2391522900, 2391522896, 2391522898, 2391522899, 2391522897, 2391522901, 2391522902, 2391522903, 2391522907, 2391522917, 2391522920, 2391522922, 2391522923, 2391522925, 2391522924, 2391522921, 2391522918, 2391522913, 2391522912, 2391522911, 2391522908, 2391522906], "tags": {"amenity": "hospital", "barrier": "fence", "health_facility:MG": "CHU", "healthcare": "hospital", "loc_name": "Androva", "name": "Centre Hospitalier Universitaire Zafisaona Gabriel"}}, {"type": "way", "id": 232969513, "center": {"lat": -19.8760812, "lon": 47.0425077}, "nodes": [2019447742, 2412905233, 2412905220, 2412905223, 2412905225, 2412905231, 2412905204, 2019447742], "tags": {"amenity": "hospital", "healthcare": "hospital"}}, {"type": "way", "id": 245987956, "center": {"lat": -14.8742474, "lon": 47.9842917}, "nodes": [2530817668, 2530817669, 2530817670, 2530817671, 2530817672, 2530817673, 2530817674, 2530817675, 2530817676, 2530817677, 2530817678, 2530817668], "tags": {"amenity": "hospital", "health_facility:MG": "CHRR", "healthcare": "hospital", "name": "Centre Hospitalier de R\u00e9f\u00e9rence R\u00e9gional Antsohihy", "short_name": "CHRR Antsohihy"}}, {"type": "way", "id": 246138550, "center": {"lat": -14.8804249, "lon": 47.98465}, "nodes": [2532159242, 2532159244, 2532159246, 2532159247, 2532159242], "tags": {"amenity": "hospital", "building": "yes", "name": "Clinic"}}, {"type": "way", "id": 266763590, "center": {"lat": -18.9067391, "lon": 47.5231654}, "nodes": [2722780909, 2722780910, 2722780911, 2722780912, 2722780913, 2722780914, 2722780909], "tags": {"amenity": "hospital", "emergency": "yes", "name": "H\u00f4pital des Enfants"}}, {"type": "way", "id": 310350947, "center": {"lat": -18.9095892, "lon": 47.5232188}, "nodes": [5352713221, 3157719942, 3157719923, 3157719924, 5352713221], "tags": {"addr:street": "Rabearivelo", "amenity": "hospital", "email": "cms.tananarive@gmail.com", "healthcare": "hospital", "name:fr": "Centre m\u00e9dico-social de l'ambassade de France", "opening_hours": "Mo-Fr 07:30-12:30, 13:30-16:30; Sa 07:30-12:30, 13:30-15:00", "phone": "22-236-62"}}, {"type": "way", "id": 313379021, "center": {"lat": -18.9193613, "lon": 47.5228938}, "nodes": [577021764, 3193312751, 3193312760, 3193312758, 3193312759, 3193312755, 3193319364, 3193319363, 3193312690, 3193312687, 3193312691, 3193312689, 3193312682, 3193312683, 3193308445, 3193312664, 3193312678, 3193312673, 3193312677, 3193312739, 3193312744, 3193312747, 577021764], "tags": {"amenity": "hospital", "building": "hospital", "healthcare": "hospital", "name": "Maternit\u00e9 Befelatanana"}}, {"type": "way", "id": 313379023, "center": {"lat": -18.9192098, "lon": 47.5224638}, "nodes": [739234476, 3193308427, 3193308433, 3193308437, 3193308440, 3193312670, 3193312665, 3193312667, 3193312661, 3193308460, 3193308457, 3193308452, 3193308455, 3193308447, 3193308444, 3193308443, 3193308442, 3193308434, 3193308435, 3193308426, 739234476], "tags": {"amenity": "hospital", "building": "hospital", "name": "Centre de Stomatologie de Befelatanana"}}, {"type": "way", "id": 315568291, "center": {"lat": -18.9077812, "lon": 47.5421221}, "nodes": [3216965213, 3216965235, 3216965227, 3216965205, 3216965213], "tags": {"amenity": "hospital", "healthcare": "hospital"}}, {"type": "way", "id": 315568292, "center": {"lat": -18.9077502, "lon": 47.5418602}, "nodes": [3216965229, 3216965222, 3216965198, 3216965204, 3216965229], "tags": {"amenity": "hospital", "healthcare": "hospital"}}, {"type": "way", "id": 315568312, "center": {"lat": -18.9080813, "lon": 47.5420773}, "nodes": [3216965245, 3216965252, 3216965280, 3216965296, 3216965241, 3216965247, 3216965319, 3216965299, 3216965245], "tags": {"amenity": "hospital", "healthcare": "hospital"}}, {"type": "way", "id": 327577447, "center": {"lat": -15.037453, "lon": 40.7315418}, "nodes": [3343874647, 3343874648, 3343874649, 3343874650, 3343874647], "tags": {"amenity": "hospital", "name": "Hospital da Ilha", "note": "Abandonado"}}, {"type": "way", "id": 351955424, "center": {"lat": -15.7004377, "lon": 46.3179068}, "nodes": [3577531860, 3577531865, 3577531867, 3577531870, 3577531871, 3577531868, 3577531866, 3577531863, 3577531861, 3577531857, 3577531860], "tags": {"amenity": "hospital", "name": "Centre M\u00e8re Th\u00e9r\u00e9sa"}}, {"type": "way", "id": 352033865, "center": {"lat": -18.9111831, "lon": 47.5311769}, "nodes": [2012936121, 3578120608, 3578120609, 3578120610, 2012936121], "tags": {"amenity": "hospital", "building": "hospital", "emergency": "yes", "healthcare": "hospital", "name": "Amadia Annexe"}}, {"type": "way", "id": 370308263, "center": {"lat": -11.8041152, "lon": 43.279655}, "nodes": [3740177722, 3740178105, 3740178131, 3740178100, 3740177722], "tags": {"amenity": "hospital", "building": "hospital", "name": "Centre de sant\u00e9 de Mitsoudj\u00e9"}}, {"type": "way", "id": 375504899, "center": {"lat": -19.894493, "lon": 48.8076957}, "nodes": [3788677597, 3788677603, 3788677600, 3788677596, 3788677595, 3788677594, 9530702819, 3788677591, 3788677593, 3788677590, 3788677592, 3788677597], "tags": {"amenity": "hospital", "building": "yes"}}, {"type": "way", "id": 390174517, "center": {"lat": -12.3041243, "lon": 43.634659}, "nodes": [3933371869, 3933371868, 3933371880, 3933371881, 3933371869], "tags": {"amenity": "hospital", "healthcare": "hospital", "name": "H\u00f4pital de Miringoni", "name:ar": "\u0645\u0633\u062a\u0634\u0641\u0649 \u0645\u064a\u0631\u064a\u0646\u0643\u0648\u0646\u064a", "name:fr": "H\u00f4pital de Miringoni"}}, {"type": "way", "id": 392600712, "center": {"lat": -18.9171484, "lon": 47.5422001}, "nodes": [3958097625, 687251249, 3958097626, 3958189559, 3958097628, 3958189561, 3958097630, 3958097625], "tags": {"amenity": "hospital"}}, {"type": "way", "id": 401337561, "center": {"lat": -18.1533577, "lon": 49.4086025}, "nodes": [4037769579, 4037769580, 4037769581, 4037769582, 4037769583, 5746557679, 5746557677, 5746557678, 5746557847, 4037769584, 4037769579], "tags": {"amenity": "hospital", "healthcare": "hospital", "name": "Hopitaly Kely"}}, {"type": "way", "id": 402127054, "center": {"lat": -18.8963414, "lon": 47.5273928}, "nodes": [577132563, 4045524879, 4045524880, 4045524882, 4045524883, 4045524884, 4045524886, 4045524887, 577132563], "tags": {"amenity": "hospital", "building": "hospital", "healthcare": "hospital", "name": "Clinique des s\u0153urs Ankadifotsy"}}, {"type": "way", "id": 402885230, "center": {"lat": -18.8942849, "lon": 47.563}, "nodes": [4052863742, 4052863743, 4052863744, 4052863745, 4052863746, 4052863742], "tags": {"addr:street": "L\u00e0lana Nanisana", "amenity": "hospital", "email": "laraoswaldo@yahoo.com", "name": "CMA", "name:en": "Systeme Medical Adventiste", "name:nl": "Adventisten medisch centrum", "phone": "+261202252652"}}, {"type": "way", "id": 403090829, "center": {"lat": -19.5818393, "lon": 48.8113247}, "nodes": [4054700058, 4054700059, 4054700060, 4054700061, 4054700062, 4054700063, 4054700058], "tags": {"amenity": "hospital", "building": "yes", "health_facility:type": "dispensary", "name": "Dispensaire Batista Biblika"}}, {"type": "way", "id": 404358862, "center": {"lat": -11.6613687, "lon": 43.2718468}, "nodes": [4066378444, 4066378445, 4066378446, 4066378447, 4066378448, 4066378449, 4066378450, 4066378451, 4066378452, 4066378453, 4066378444], "tags": {"addr:city": "Ntsudjini", "amenity": "hospital", "building": "yes", "building:condition": "good", "building:levels": "2", "building:material": "brick", "comoros-dgsc:code": "Ntsoudjini_D3_43", "emergency": "no", "level": "2", "name": "h\u00f4pital", "roof:material": "concrete", "source": "#opendri-comoros;survey", "source:geometry": "Bing"}}, {"type": "way", "id": 406157830, "center": {"lat": -11.6280976, "lon": 43.3708308}, "nodes": [4082630027, 4082630028, 4082630029, 4082630030, 4082630027], "tags": {"amenity": "hospital", "building": "yes", "source": "#opendri-comoros", "source:geometry": "Bing"}}, {"type": "way", "id": 408891928, "center": {"lat": -11.8281341, "lon": 40.0747995}, "nodes": [4107978578, 4107978583, 4107978586, 4107978584, 4107978578], "tags": {"amenity": "hospital", "name": "Centro de Saude Meangalewa"}}, {"type": "way", "id": 408891937, "center": {"lat": -11.8282321, "lon": 40.0749993}, "nodes": [4107978585, 4107978589, 4107978594, 4107978590, 4107978585], "tags": {"amenity": "hospital", "name": "Centro de Saude Meangalewa"}}, {"type": "way", "id": 408891995, "center": {"lat": -11.8279513, "lon": 40.074378}, "nodes": [4107978553, 4107978564, 4107978576, 4107978568, 4107978553], "tags": {"amenity": "hospital", "name": "Centro de Saude Meangalewa"}}, {"type": "way", "id": 412481010, "center": {"lat": -11.5066473, "lon": 43.38494}, "nodes": [4138983579, 4138983577, 5907698846, 4138983576, 4138983575, 5907698848, 5907698847, 4138983578, 4138983581, 4138983582, 4138983584, 4138983586, 5907698843, 5907698841, 5907698842, 5907698844, 4138983585, 5907698845, 4138983583, 4138983580, 4138983579], "tags": {"amenity": "hospital", "emergency": "yes"}}, {"type": "way", "id": 420845622, "center": {"lat": -10.2827468, "lon": 40.1746035}, "nodes": [4207425316, 4207425324, 4207425323, 4207425322, 4207425321, 4207425320, 4207425319, 4207425318, 4207425317, 4207425316], "tags": {"amenity": "hospital", "name": "Ligula Hospital"}}, {"type": "way", "id": 424878900, "center": {"lat": -19.8945923, "lon": 48.8061145}, "nodes": [4242453393, 4242453321, 4242453339, 4242453315, 4242453393], "tags": {"amenity": "hospital", "building": "yes", "health_facility:type": "dispensary"}}, {"type": "way", "id": 434720848, "center": {"lat": -12.2819546, "lon": 49.3064442}, "nodes": [4326637761, 4326637760, 4326637762, 4326637763, 4326637761], "tags": {"amenity": "hospital", "health_facility:MG": "CHRD", "healthcare": "hospital"}}, {"type": "way", "id": 437876502, "center": {"lat": -11.6999351, "lon": 43.2562099}, "nodes": [4356543907, 4356543913, 4356543914, 4356543908, 4356543907], "tags": {"amenity": "hospital", "building": "hospital", "building:condition": "average", "building:levels": "1", "building:material": "brick", "comoros-dgsc:code": "Moroni_I2_223", "healthcare": "hospital", "roof:material": "concrete", "source": "#opendri-comoros;survey", "source:geometry": "Bing"}}, {"type": "way", "id": 438412961, "center": {"lat": -11.6995139, "lon": 43.2573114}, "nodes": [4361591893, 4361591894, 4361591896, 4361591895, 4361591893], "tags": {"amenity": "hospital", "building": "hospital", "building:condition": "average", "building:levels": "1", "building:material": "brick", "comoros-dgsc:code": "Moroni_I2_229", "healthcare": "hospital", "roof:material": "concrete", "source": "#opendri-comoros;survey", "source:geometry": "Bing"}}, {"type": "way", "id": 438540783, "center": {"lat": -11.686153, "lon": 43.2606417}, "nodes": [4362792976, 4362793101, 4362793115, 4362793095, 4362792976], "tags": {"amenity": "hospital", "building": "hospital", "building:condition": "good", "building:levels": "1", "building:material": "brick", "comoros-dgsc:code": "Moroni-E3-102", "healthcare": "hospital", "roof:material": "concrete", "source": "#opendri-comoros;survey", "source:geometry": "bing"}}, {"type": "way", "id": 438785892, "center": {"lat": -11.6946736, "lon": 43.2561309}, "nodes": [4364537303, 4364537314, 4364537335, 4364537323, 4364537303], "tags": {"amenity": "hospital", "building": "hospital", "building:condition": "good", "building:levels": "1", "building:material": "brick", "comoros-dgsc:code": "Moroni-G1-27", "healthcare": "hospital", "roof:material": "concrete", "source": "#opendri-comoros;survey", "source:geometry": "bing"}}, {"type": "way", "id": 442882198, "center": {"lat": -12.2875437, "lon": 49.2964604}, "nodes": [4405327783, 4405327779, 4405327778, 4405327785, 4405328491, 4405327787, 4405327783], "tags": {"amenity": "hospital", "health_facility:type": "dispensary", "healthcare": "hospital", "name": "SMIDS"}}, {"type": "way", "id": 448320753, "center": {"lat": -18.95515, "lon": 46.9068578}, "nodes": [7230817000, 7230816999, 4453444096, 4453444092, 4453444090, 4453444093, 4453444099, 4453444102, 4453444105, 4453444118, 7230817000], "tags": {"amenity": "hospital", "health_facility:MG": "CHRR", "healthcare": "hospital", "name": "Centre Hospitalier de R\u00e9f\u00e9rence R\u00e9gional Itasy", "operator:type": "public", "short_name": "CHRR Itasy"}}, {"type": "way", "id": 452263742, "center": {"lat": -12.7956782, "lon": 45.2773333}, "nodes": [4490699012, 4490699013, 6261740666, 4490699015, 1813278253, 1813278215, 4490699016, 9685454107, 6261740665, 6658156228, 6658156229, 4490699012], "tags": {"addr:street": "Rue des Jardins", "amenity": "hospital", "construction": "yes", "healthcare": "hospital", "name": "H\u00f4pital marcel_henri", "note": "Les travaux du futur h\u00f4pital de Petite-Terre ont commenc\u00e9s."}}, {"type": "way", "id": 466343433, "center": {"lat": -12.9950558, "lon": 40.3886345}, "nodes": [4611559077, 4611559080, 4611559311, 4611559307, 4611559077], "tags": {"amenity": "hospital", "building": "yes", "name": "Hospital de Namuapala"}}, {"type": "way", "id": 466344166, "center": {"lat": -12.9950071, "lon": 40.3885257}, "nodes": [4611559207, 4611559209, 4611559236, 4611559234, 4611559207], "tags": {"amenity": "hospital", "building": "yes", "name": "Hospital de Namuapala"}}, {"type": "way", "id": 466345557, "center": {"lat": -12.9952384, "lon": 40.3883358}, "nodes": [4611559294, 4611559296, 4611559346, 4611559338, 4611559294], "tags": {"amenity": "hospital", "building": "yes", "name": "Hospital de Namuapala"}}, {"type": "way", "id": 466346028, "center": {"lat": -12.9946923, "lon": 40.3887881}, "nodes": [4611558993, 4611558999, 4611559026, 4611559024, 4611558993], "tags": {"amenity": "hospital", "building": "yes", "name": "Hospital de Namuapala"}}, {"type": "way", "id": 466346514, "center": {"lat": -12.9950489, "lon": 40.3884268}, "nodes": [4611559200, 4611559201, 4611559283, 4611559280, 4611559200], "tags": {"amenity": "hospital", "building": "yes", "name": "Hospital de Namuapala"}}, {"type": "way", "id": 466348061, "center": {"lat": -12.9949174, "lon": 40.3888276}, "nodes": [4611559082, 4611559083, 4611559203, 4611559202, 4611559082], "tags": {"amenity": "hospital", "building": "yes", "name": "Hospital de Namuapala"}}, {"type": "way", "id": 481823891, "center": {"lat": -12.3193844, "lon": 49.3014752}, "nodes": [4747213121, 4747213126, 4747213127, 4747213122, 4747213128, 4747213123, 5176758770, 4747213124, 4747213125, 4747213121], "tags": {"amenity": "hospital", "emergency": "yes", "name": "Polyclinique Universitaire NEXT"}}, {"type": "way", "id": 497105553, "center": {"lat": -19.3312401, "lon": 48.9797254}, "nodes": [4887252529, 4887252530, 4887252531, 4887252532, 4887252533, 4887252534, 4887252535, 4887252536, 4887252529], "tags": {"amenity": "hospital", "building": "yes", "health_facility:type": "dispensary", "name": "Dispensaire Vatomandry"}}, {"type": "way", "id": 531936220, "center": {"lat": -18.8237064, "lon": 49.0759567}, "nodes": [5162794239, 5162794240, 5162794241, 5162794242, 5162794239], "tags": {"amenity": "hospital", "building": "yes", "healthcare": "hospital", "name": "Centre de Protection Civile", "operator": "Communaut\u00e9 urbaine de Brickaville", "source": "PHF - Saint-Etienne"}}, {"type": "way", "id": 532567406, "center": {"lat": -12.7782296, "lon": 45.2272822}, "nodes": [5167658530, 5167658531, 5167658532, 5167658533, 5167658534, 5167658536, 9072256913, 9072256914, 5167658537, 5167658538, 9072256911, 5167658539, 9072256912, 5167658540, 9072256909, 9072256910, 5167658541, 9072256908, 9072256907, 5167658542, 9072256906, 5167658543, 9072256905, 5167658544, 9072256903, 5167658545, 5167658546, 9072256904, 5167658547, 5167658548, 5167658549, 5167658550, 9072256902, 5167658551, 5167658552, 9072256901, 5167658553, 9072256900, 9072256899, 5167658554, 5167658555, 5167658556, 5167658562, 9072256897, 9072256898, 5167658557, 5167658558, 5167658559, 9500051503, 9500051502, 5167658560, 5167658561, 5167658530], "tags": {"addr:city": "Mamoudzou", "addr:postcode": "97600", "addr:street": "Rue de l'H\u00f4pital", "addr:street_1": "BP04", "amenity": "hospital", "emergency": "yes", "fax": "+262 2 69 61 06 46", "healthcare": "hospital", "healthcare:speciality": "intensive", "name": "Centre Hospitalier de Mayotte", "phone": "+262 2 69 61 80 00", "ref:FR:FINESS": "980500011", "short_name": "CHM", "source": "Le minist\u00e8re des solidarit\u00e9s et de la sant\u00e9 - 10/2018", "type:FR:FINESS": "355", "website": "https://www.chmayotte.com/", "wheelchair": "yes"}}, {"type": "way", "id": 532575270, "center": {"lat": -12.8257732, "lon": 45.1327021}, "nodes": [5167713638, 6869983596, 9893562105, 5167713639, 5167713640, 6858595646, 5167713641, 1835625253, 6869983597, 5167713638], "tags": {"addr:city": "Ouangani", "addr:postcode": "97670", "addr:street": "Kahani", "amenity": "hospital", "healthcare": "hospital", "name": "CMR Kahani", "name:fr": "H\u00f4pital de Kahani", "opening_hours": "24/7", "phone": "+262 2 69 62 40 78", "short_name": "Cmr de Kahani Centre m\u00e9dical de r\u00e9f\u00e9rence de Kahani", "website": "https://www.reseaux-sante-mayotte.fr/entreprise/hopital-de-kahani"}}, {"type": "way", "id": 533621656, "center": {"lat": -12.2685747, "lon": 49.2965224}, "nodes": [2104796263, 2104796256, 2104796302, 2104796321, 2104796329, 2104796265, 2104796255, 2104796254, 2104796263], "tags": {"amenity": "hospital", "healthcare": "hospital"}}, {"type": "way", "id": 541536023, "center": {"lat": -12.2686515, "lon": 49.2970965}, "nodes": [5236413863, 7125654203, 5236413862, 5236413861, 5236413860, 5236413859, 5236413858, 5236413857, 5236413856, 5236413855, 5236413854, 5236413853, 5236413852, 5236413851, 5236413850, 5236413849, 5236413848, 5236413847, 5236413846, 5236413845, 5236413844, 5236413843, 5236413842, 5236413841, 7125654204, 5236413863], "tags": {"amenity": "hospital", "health_facility:MG": "CHU", "healthcare": "hospital", "loc_name": "Hopitaliben'Antsiranana", "name": "Centre Hospitalier Universitaire de Place Kabary Antsiranana", "operator:type": "public", "short_name": "CHUPKA"}}, {"type": "way", "id": 542990667, "center": {"lat": -15.7167197, "lon": 46.3049486}, "nodes": [5249413481, 5249413478, 5249413479, 5249413480, 5249413481], "tags": {"amenity": "hospital", "building": "yes", "healthcare": "hospital", "name": "Complexe M\u00e8re Enfant", "note": "maternit\u00e9"}}, {"type": "way", "id": 542990668, "center": {"lat": -15.7166764, "lon": 46.3049951}, "nodes": [5249413485, 5249413484, 5249413483, 5249413482, 5249413485], "tags": {"amenity": "hospital", "building": "yes", "healthcare": "hospital", "name": "Complexe M\u00e8re Enfant", "note": "maternit\u00e9"}}, {"type": "way", "id": 549124680, "center": {"lat": -12.1628399, "lon": 44.4007504}, "nodes": [5304534240, 5304534239, 5304534238, 6446568445, 6446568446, 5304534237, 5304534236, 5304534235, 5304534234, 5304534233, 5304534240], "tags": {"amenity": "hospital", "building": "hospital", "healthcare": "hospital"}}, {"type": "way", "id": 554641743, "center": {"lat": -18.8898674, "lon": 47.4908983}, "nodes": [5352516851, 5352516850, 5352516849, 5352516848, 4160659741, 5352516847, 5352516846, 5352516845, 5352516851], "tags": {"alt_name": "CHU Andohatapenaka", "amenity": "hospital", "health_facility:MG": "CHU", "healthcare": "hospital", "name": "H\u00f4pitaly Manarapenitra", "name:fr": "H\u00f4pital Manara-Penitra", "name:mg": "H\u00f4pitaly Manarapenitra", "operator": "Minist\u00e8re de la Sant\u00e9", "operator:type": "public"}}, {"type": "way", "id": 567916083, "center": {"lat": -19.5517273, "lon": 48.8576251}, "nodes": [5465197718, 5465197719, 5465197720, 5465202121, 5465202122, 5465202123, 5465197718], "tags": {"amenity": "hospital", "health_person:type": "witchdoctor", "landuse": "religious", "medical_system:malagasy": "yes", "operator": "FJKM"}}, {"type": "way", "id": 570703415, "center": {"lat": -19.8941562, "lon": 48.8075317}, "nodes": [5486658477, 5486658476, 5486658475, 5486658474, 5486658473, 5486658477], "tags": {"amenity": "hospital", "health_facility:MG": "CHRD", "healthcare": "hospital", "name": "Centre Hospitalier de District Niveau II Mahanoro", "operator:type": "public", "short_name": "CHD II Mahanoro"}}, {"type": "way", "id": 570750513, "center": {"lat": -18.9168393, "lon": 47.5641046}, "nodes": [5487046081, 5487046082, 5487046083, 5487046084, 5487046081], "tags": {"amenity": "hospital", "healthcare": "hospital"}}, {"type": "way", "id": 573595403, "center": {"lat": -19.602534, "lon": 48.7772416}, "nodes": [5508404192, 5508404191, 5508404190, 5508404189, 5508404192], "tags": {"amenity": "hospital", "building": "yes", "health_facility:type": "dispensary", "name": "Case de sant\u00e9"}}, {"type": "way", "id": 578820196, "center": {"lat": -15.7106623, "lon": 46.314513}, "nodes": [5544959003, 5544959000, 5544959001, 5544959002, 5544959003], "tags": {"addr:fokontany": "Tsaramandroso Ambony", "addr:housenumber": "49", "addr:street": "Boulevard Marcoz", "amenity": "hospital", "building": "yes", "healthcare": "hospital", "name": "Clinique M\u00e9dico Chirurgicale"}}, {"type": "way", "id": 585595265, "center": {"lat": -12.9824466, "lon": 40.5460576}, "nodes": [2478125525, 5595848012, 5728430430, 5595848013, 5728430431, 4833422356, 5728132603, 5728132602, 2478125526, 2478125525], "tags": {"addr:city": "Pemba", "amenity": "hospital", "emergency": "yes", "healthcare": "hospital", "healthcare:speciality": "general", "name": "hospital (unidade da expansao )", "operator": "MISAU - Minist\u00e9rio da Sa\u00fade", "operator:type": "public"}}, {"type": "way", "id": 585617170, "center": {"lat": -18.8418903, "lon": 49.1539845}, "nodes": [3652329106, 5596004509, 5596004510, 5596004511, 3652329106], "tags": {"amenity": "hospital", "emergency": "yes", "healthcare": "hospital", "name": "Centre de sant\u00e9 Ambila Lemaitso"}}, {"type": "way", "id": 595555421, "center": {"lat": -16.008546, "lon": 45.8712858}, "nodes": [666386713, 5675808499, 10575962561, 10575962562, 10575962563, 5675808500, 5675808501, 666386713], "tags": {"amenity": "hospital", "health_facility:MG": "CHRD", "healthcare": "hospital", "name": "Service de Sant\u00e9 de District Mitsinjo"}}, {"type": "way", "id": 606085873, "center": {"lat": -18.9604259, "lon": 47.5671536}, "nodes": [7083625523, 5747282000, 5747281999, 5747282002, 5747282003, 7489212379, 7083625523], "tags": {"amenity": "hospital", "healthcare": "hospital", "layer": "-1", "name": "Orthodoxe"}}, {"type": "way", "id": 625719626, "center": {"lat": -11.4754497, "lon": 43.3918434}, "nodes": [5907756492, 5907756491, 5907756490, 5907756489, 5907756488, 5907756487, 5907756486, 5907756485, 5907756084, 5907756083, 5907756082, 5907756081, 5907756080, 5907756492], "tags": {"amenity": "hospital"}}, {"type": "way", "id": 650044558, "center": {"lat": -16.995347, "lon": 49.852505}, "nodes": [6099254001, 6099254002, 6099254003, 6099254004, 6099254001], "tags": {"amenity": "hospital", "building": "yes", "description": "Hopital bloc op\u00e9ratoire", "healthcare": "hospital"}}, {"type": "way", "id": 650044559, "center": {"lat": -16.9953766, "lon": 49.8523535}, "nodes": [6099254005, 6099254006, 6099254007, 6099254008, 6099254005], "tags": {"amenity": "hospital", "building": "yes", "description": "Hopital Bloc Op\u00e9ratoire", "healthcare": "hospital"}}, {"type": "way", "id": 650044561, "center": {"lat": -16.9947943, "lon": 49.8520799}, "nodes": [6099254013, 6099254014, 6099254015, 6099254016, 6099254013], "tags": {"amenity": "hospital", "building": "yes", "healthcare": "hospital"}}, {"type": "way", "id": 650085085, "center": {"lat": -17.0056731, "lon": 49.8533742}, "nodes": [6099960002, 6099960003, 6099706603, 6099960004, 6099960002], "tags": {"addr:city": "Sainte Marie", "addr:housenumber": "Ecole priv\u00e9e Saint Joseph", "addr:postcode": "515", "addr:street": "Saint Joseph", "amenity": "hospital", "healthcare": "hospital"}}, {"type": "way", "id": 655035231, "center": {"lat": -12.4353391, "lon": 40.4889345}, "nodes": [6137546218, 6137546219, 6137546220, 6137546221, 6137546222, 6137546223, 6137546224, 6137546218], "tags": {"amenity": "hospital", "healthcare": "hospital", "name": "Centro de saude de Quissanga"}}, {"type": "way", "id": 686145470, "center": {"lat": -12.2089337, "lon": 40.1197358}, "nodes": [6431227304, 6431227305, 6431227306, 6431227307, 6431696448, 6431696447, 6431227304], "tags": {"amenity": "hospital", "healthcare": "hospital"}}, {"type": "way", "id": 686145498, "center": {"lat": -12.2086326, "lon": 40.1201907}, "nodes": [6431229160, 6431229161, 6431229162, 6431229163, 6431229160], "tags": {"amenity": "hospital", "healthcare": "hospital", "name": "Hospital de Macomia (em constru\u00e7\u00e3o)"}}, {"type": "way", "id": 686145519, "center": {"lat": -12.2083857, "lon": 40.1202354}, "nodes": [6431229606, 6431229607, 6431229608, 6431229609, 6431229606], "tags": {"amenity": "hospital", "healthcare": "hospital", "name": "Hospital de Macomia (em constru\u00e7\u00e3o)"}}, {"type": "way", "id": 686145657, "center": {"lat": -12.2087203, "lon": 40.1193185}, "nodes": [6431230376, 6431230377, 6431230378, 6431230379, 6431230376], "tags": {"amenity": "hospital", "healthcare": "hospital"}}, {"type": "way", "id": 686146092, "center": {"lat": -12.2096977, "lon": 40.1197858}, "nodes": [6431251887, 6431251888, 6431251889, 6431251890, 6431251887], "tags": {"amenity": "hospital", "healthcare": "hospital"}}, {"type": "way", "id": 686146109, "center": {"lat": -12.2099658, "lon": 40.1199788}, "nodes": [6431226877, 6431226878, 6431226879, 6431226880, 6431226877], "tags": {"amenity": "hospital", "healthcare": "hospital"}}, {"type": "way", "id": 686146148, "center": {"lat": -12.2102482, "lon": 40.1201776}, "nodes": [6431255749, 6431255750, 6431255751, 6431255752, 6431255749], "tags": {"amenity": "hospital", "healthcare": "hospital"}}, {"type": "way", "id": 686666702, "center": {"lat": -12.200045, "lon": 44.51104}, "nodes": [6436433763, 6436433762, 6436433761, 6436433760, 6436433759, 6436433758, 6436433757, 6436433756, 6436433763], "tags": {"amenity": "hospital", "healthcare": "hospital", "name": "Anjouan Island Humbo Hospital"}}, {"type": "way", "id": 687014089, "center": {"lat": -12.9856738, "lon": 40.537647}, "nodes": [6440161392, 6440161393, 6440161394, 6440161395, 6440161396, 6440161397, 6440161392], "tags": {"amenity": "hospital", "healthcare": "hospital"}}, {"type": "way", "id": 746628764, "center": {"lat": -18.8553857, "lon": 47.4737566}, "nodes": [6987039941, 6987039942, 6987086580, 6987086581, 6987086582, 6987086583, 6987086584, 6987089885, 6987089886, 6987089887, 6987039941], "tags": {"amenity": "hospital", "healthcare": "hospital", "healthcare:speciality": "paediatrics", "name": "Meva medical service & Meva nursery"}}, {"type": "way", "id": 754907040, "center": {"lat": -12.7972923, "lon": 45.2766635}, "nodes": [7052095395, 7052095394, 7052095387, 7052095392, 7052095395], "tags": {"amenity": "hospital", "healthcare": "hospital", "source": "BDOrtho IGN (2016)"}}, {"type": "way", "id": 754909263, "center": {"lat": -12.7840203, "lon": 45.2792676}, "nodes": [7052107790, 7052107789, 7052107788, 7052107787, 7052107790], "tags": {"amenity": "hospital", "healthcare": "hospital", "name": "ounono ambulance", "source": "BDOrtho IGN (2016)"}}, {"type": "way", "id": 764133258, "center": {"lat": -12.8926444, "lon": 48.608069}, "nodes": [7138857448, 7138857445, 7138857446, 7138857447, 7138857448], "tags": {"amenity": "hospital", "building": "yes"}}, {"type": "way", "id": 775162601, "center": {"lat": -12.7779416, "lon": 45.2288224}, "nodes": [7231972294, 7231972291, 7231972289, 7231972290, 7231972292, 7231972293, 7231972294], "tags": {"addr:city": "Mamoudzou", "addr:housenumber": "97", "addr:postcode": "97600", "addr:street": "Rue Toumbou Seleman", "amenity": "hospital", "healthcare": "hospital", "name": "Cabinet de sages femmes"}}, {"type": "way", "id": 783882642, "center": {"lat": -11.3936245, "lon": 43.2862241}, "nodes": [7321889223, 7321889224, 7321889225, 7321889226, 7321889227, 7321889228, 7321889229, 3814154511, 3814154507, 3814154506, 3814154505, 7321889223], "tags": {"amenity": "hospital", "healthcare": "hospital", "name": "CMC Mitsamiouli"}}, {"type": "way", "id": 783883234, "center": {"lat": -11.4901171, "lon": 43.3280095}, "nodes": [4002498422, 7321907791, 7321907792, 7321907793, 4002498422], "tags": {"amenity": "hospital", "building": "hospital", "healthcare": "hospital", "name": "PS Ivembeni"}}, {"type": "way", "id": 792304989, "center": {"lat": -10.7806982, "lon": 40.4725964}, "nodes": [7407677619, 7407677620, 7407677621, 9054416945, 7407677622, 7407677619], "tags": {"amenity": "hospital", "healthcare": "hospital", "name": "Sa\u00fade de jovens e adolescente", "operator": "MISAU", "operator:type": "public"}}, {"type": "way", "id": 800409207, "center": {"lat": -18.9212827, "lon": 47.5230979}, "nodes": [4911970661, 4911970660, 3733101720, 577021765, 7485686967, 7485686968, 7485686969, 4911970661], "tags": {"amenity": "hospital", "health_facility:MG": "CHU", "healthcare": "hospital", "name": "H\u00f4pital G\u00e9n\u00e9ral de Befelatanana", "operator:type": "public", "short_name": "CHUJRB"}}, {"type": "way", "id": 800413370, "center": {"lat": -18.9042232, "lon": 47.5240237}, "nodes": [621444485, 7485757019, 7485757020, 7485757021, 621444485], "tags": {"amenity": "hospital", "health_facility:MG": "CHU", "healthcare": "hospital", "name": "\u00c9tablissement universitaire de soins et de sant\u00e9 publique d'Analakely"}}, {"type": "way", "id": 800417360, "center": {"lat": -18.9225807, "lon": 47.5450369}, "nodes": [668469258, 7485807973, 7485807974, 7485807975, 7485807976, 7485807977, 7485807978, 7485807979, 7485807980, 7485807981, 7485807982, 7485807983, 668469258], "tags": {"amenity": "hospital", "healthcare": "hospital", "name": "Clinique Saint-Paul Ambatoroka", "operator:type": "private"}}, {"type": "way", "id": 800419182, "center": {"lat": -18.9226753, "lon": 47.4663949}, "nodes": [838739032, 7485855781, 7485855782, 7485855783, 838739032], "tags": {"amenity": "hospital", "health_facility:MG": "CHRD", "healthcare": "hospital", "name": "Hopital Itaosy", "note": "Centre Hospitalier de District niveau 2 (CHD 2)", "operator:type": "public"}}, {"type": "way", "id": 800628984, "center": {"lat": -18.9083277, "lon": 47.5310121}, "nodes": [2012935943, 7488285749, 7488285750, 7488285751, 7488285752, 7488285753, 2012935943], "tags": {"amenity": "hospital", "emergency": "yes", "healthcare": "hospital", "healthcare:speciality": "clinic", "name": "Centre AMADIA", "short_name": "AMADIA"}}, {"type": "way", "id": 800629688, "center": {"lat": -19.8635238, "lon": 47.0297591}, "nodes": [2022545820, 7488288988, 7488288989, 7488288990, 2022545820], "tags": {"amenity": "hospital", "email": "santeplus@moov.mg", "fax": "020 44 490 51", "healthcare": "hospital", "name": "Clinique Sant\u00e9 Plus", "phone": "032 02 458 58 ; 020 44 498 51"}}, {"type": "way", "id": 800630123, "center": {"lat": -12.2850975, "lon": 49.2936524}, "nodes": [1889091566, 1889091597, 1889091608, 1889091568, 1889091566], "tags": {"addr:city": "Antsiranana", "alt_name": "CHU Tanambao I", "amenity": "hospital", "health_facility:MG": "CHU", "healthcare": "hospital", "name": "Hopitaly Manarapenitra", "note": "H\u00f4pital Manarapenitra", "operator": "Minist\u00e8re de La Sant\u00e9 Publique", "operator:type": "public"}}, {"type": "way", "id": 800630967, "center": {"lat": -15.7060924, "lon": 46.3096527}, "nodes": [2432287507, 7488287532, 7488287533, 7488287534, 7488287535, 2432287507], "tags": {"alt_name": "CHU Mahavoky Atsimo", "amenity": "hospital", "health_facility:MG": "CHU", "healthcare": "hospital", "name": "Hopitaly Manarapenitra", "operator:type": "public"}}, {"type": "way", "id": 800631571, "center": {"lat": -15.7122825, "lon": 46.371336}, "nodes": [2514364990, 7488306249, 7488306250, 7488306251, 7488306252, 7488306253, 7488306254, 7488306255, 7488306256, 2514364990], "tags": {"amenity": "hospital", "healthcare": "hospital", "name": "Clinique Luth\u00e9rienne", "operator": "FLM"}}, {"type": "way", "id": 800631693, "center": {"lat": -14.8775046, "lon": 47.9887327}, "nodes": [2532204619, 7488315392, 7488315393, 7488315394, 2532204619], "tags": {"amenity": "hospital", "healthcare": "hospital", "operator": "Marie Stopes"}}, {"type": "way", "id": 800632293, "center": {"lat": -18.8758048, "lon": 47.5071268}, "nodes": [673064880, 673064881, 673064850, 2688408143, 7488315294, 7488315295, 673064880], "tags": {"addr:city": "Antananarivo", "addr:housename": "B\u00e2timent OSTIE", "addr:postcode": "101", "addr:street": "Route du Pape", "amenity": "hospital", "emergency": "yes", "healthcare": "hospital", "name": "OSTIE Anosivavaka", "note": "Organnisation Sanitaire Tananarivienne Inter Entreprise"}}, {"type": "way", "id": 800634033, "center": {"lat": -16.9507508, "lon": 46.8324677}, "nodes": [11267225937, 11267225926, 11267225927, 11267225928, 11267225929, 11267225930, 11267225931, 11267225932, 11267225933, 11267225934, 11267225935, 11267225936, 11267225949, 11267225948, 11267225947, 11267225946, 11267225945, 11267225944, 11267225943, 11267225942, 11267225941, 11269071234, 11267225940, 11267225950, 11267225951, 11267225952, 11267225953, 11267225954, 11267225955, 11267225939, 11267225938, 11267225937], "tags": {"amenity": "hospital", "health_facility:MG": "CHRR", "healthcare": "hospital", "name": "Centre Hospitalier de R\u00e9f\u00e9rence R\u00e9gional de Maevatan\u00e0na"}}, {"type": "way", "id": 800634980, "center": {"lat": -18.8182361, "lon": 49.0723527}, "nodes": [5497066286, 7488305583, 7488305584, 7488353685, 5497066286], "tags": {"amenity": "hospital", "emergency": "yes", "health_facility:MG": "CHRD", "health_facility:type": "health_centre", "healthcare": "hospital", "name": "Centre de Sant\u00e9 de Base Niveau II Brickaville & Centre Hospitalier de District Niveau II Brickaville", "operator:type": "public", "short_name": "CSB II & CHRD II Brickaville"}}, {"type": "way", "id": 800644761, "center": {"lat": -18.7954785, "lon": 47.4214249}, "nodes": [4368983295, 9509737224, 7488436184, 7488457985, 4368983295], "tags": {"amenity": "hospital", "health_facility:MG": "CHU", "healthcare": "hospital", "name": "Centre Hospitalier Universitaire Anosiala", "name:zh": "\u4e2d\u56fd\u63f4\u9a6c\u8fbe\u52a0\u65af\u52a0\u533b\u9662", "operator:type": "public"}}, {"type": "way", "id": 800650508, "center": {"lat": -18.1361583, "lon": 49.4053037}, "nodes": [4610450390, 7488485434, 7488485435, 7488485436, 7488485437, 7488485438, 7488485439, 7488485440, 4610450390], "tags": {"addr:postcode": "501", "amenity": "hospital", "email": "chu.morafeno@gmail.com", "health_facility:MG": "CHU", "healthcare": "hospital", "name": "CHU Morafeno", "name:fr": "Manarapenitra CHU Morafeno", "opening_hours": "24/7", "operator:type": "public", "phone": "0205334394"}}, {"type": "way", "id": 800686939, "center": {"lat": -18.7951392, "lon": 47.4202185}, "nodes": [7488959910, 7488959911, 7488959912, 7488959913, 7488959910], "tags": {"addr:street": "Route Anjanamasina", "amenity": "hospital", "healthcare": "hospital", "internet_access": "wlan", "name:en": "Chinese medical team", "name:fr": "L\u2019\u00e9quipe m\u00e9dicale chinoise", "name:zh": "\u4e2d\u56fd\u533b\u7597\u961fChinese medical team", "opening_hours": "24/7"}}, {"type": "way", "id": 800688909, "center": {"lat": -18.1547335, "lon": 49.4087604}, "nodes": [5117254921, 7488965929, 7488965930, 7488965931, 7488965932, 7488965933, 5117254921], "tags": {"amenity": "hospital", "healthcare": "hospital", "name:fr": "OMSI", "short_name": "OMSI"}}, {"type": "way", "id": 800689744, "center": {"lat": -18.9818118, "lon": 47.3356714}, "nodes": [5318285670, 7488989155, 7488989156, 7488989157, 7488989158, 7488989159, 7488989160, 5318285670], "tags": {"amenity": "hospital", "healthcare": "hospital", "healthcare:speciality": "general", "name": "Cabinet M\u00e9dical Bluestar"}}, {"type": "way", "id": 800690151, "center": {"lat": -18.8713346, "lon": 47.5511695}, "nodes": [5320196705, 7488966435, 7488966436, 7488966437, 5320196705], "tags": {"amenity": "hospital", "health_facility:type": "clinic", "healthcare": "hospital", "name": "Clinique Imaho 3A"}}, {"type": "way", "id": 800691942, "center": {"lat": -18.9356909, "lon": 47.5336988}, "nodes": [5711282679, 7489013972, 7489013973, 7489013974, 7489013975, 7489013976, 7489013977, 5711282679], "tags": {"amenity": "hospital", "description": "echographie", "healthcare": "hospital", "name": "Cabinet medical Aina", "phone": "+261349013900"}}, {"type": "way", "id": 800692971, "center": {"lat": -18.7981171, "lon": 47.4207509}, "nodes": [5784113850, 7489026111, 7489026112, 7489026113, 5784113850], "tags": {"amenity": "hospital", "healthcare": "hospital", "name": "Hopital psychiatrique Anjanamasinaa"}}, {"type": "way", "id": 800693775, "center": {"lat": -16.920997, "lon": 49.5876313}, "nodes": [6099150935, 7489047453, 7489047454, 7489047455, 6099150935], "tags": {"alt_name": "CHRD Soanierana Ivongo", "amenity": "hospital", "health_facility:MG": "CHRD", "healthcare": "hospital", "name": "H\u00f4pital de Soanierana Ivongo", "operator:type": "public"}}, {"type": "way", "id": 800701934, "center": {"lat": -18.3179188, "lon": 47.1187465}, "nodes": [6611699583, 10770454713, 10770454712, 7489152888, 7489152889, 7489152890, 10770454711, 10770454710, 6611699583], "tags": {"amenity": "hospital", "health_facility:MG": "CHRD", "healthcare": "hospital", "name": "CHRD Ankazobe", "operator:type": "public"}}, {"type": "way", "id": 800705000, "center": {"lat": -19.6854894, "lon": 44.548739}, "nodes": [6715093836, 7489200328, 7489200329, 7489200330, 7489200331, 7489200332, 6715093836], "tags": {"amenity": "hospital", "healthcare": "hospital", "name": "Centre Hospitalier Saint Fran\u00e7ois d'Assise"}}, {"type": "way", "id": 800705281, "center": {"lat": -18.7249684, "lon": 47.3411806}, "nodes": [5180548748, 5180548750, 9988127745, 5180548754, 5180548755, 5180548871, 5180548759, 5180548761, 5180548762, 9988127740, 9969418800, 9971512586, 9971512587, 9971512585, 9969418803, 9969418805, 5180548745, 5180548746, 5180548748], "tags": {"amenity": "hospital", "health_facility:MG": "CHRD", "healthcare": "hospital", "name": "CHRD Bejofo Mahitsy", "operator:type": "public"}}, {"type": "way", "id": 805486522, "center": {"lat": -14.5464403, "lon": 40.6825664}, "nodes": [5462380021, 7602612157, 7602612158, 7602612156, 7602612159, 7602612160, 7602612161, 7533405596, 7533405597, 7533405598, 7602612143, 7602612144, 7602612145, 7602612146, 7602612147, 7602612148, 7602612149, 7602612150, 7602612151, 7602612152, 7602612153, 7602612154, 7602612155, 5462380021], "tags": {"amenity": "hospital", "healthcare": "hospital", "name": "Hospital Antiga da Baixa", "name:en": "Old Hospital Downtown"}}, {"type": "way", "id": 837430756, "center": {"lat": -19.8354104, "lon": 46.8565949}, "nodes": [7816009340, 7816009339, 7816009338, 7816009337, 7816009336, 7816009335, 7816009334, 7816009333, 7816009332, 7816009331, 7816009330, 7816009329, 7816009340], "tags": {"amenity": "hospital", "health_facility:MG": "CHRD", "healthcare": "hospital", "name": "Centre Hospitalier de R\u00e9f\u00e9rence de District Betafo", "operator:type": "public", "short_name": "CHRD Betafo"}}, {"type": "way", "id": 881694304, "center": {"lat": -16.4699396, "lon": 46.7190881}, "nodes": [8199631730, 8199631729, 8199631728, 8199631727, 8199631726, 8199631725, 8199631724, 8199631723, 8199631722, 8199631721, 8199631720, 8199631719, 8199631718, 8199631717, 8199631730], "tags": {"amenity": "hospital", "health_facility:MG": "CHRD", "healthcare": "hospital", "loc_name": "Hopitaly Manara-penitra", "name": "Centre Hospitalier de R\u00e9f\u00e9rence de District d'Ambato Boeny", "operator:type": "public"}}, {"type": "way", "id": 922909203, "center": {"lat": -10.7810345, "lon": 40.4738138}, "nodes": [8567400806, 8567400807, 8567400808, 9063632419, 8567400809, 8567400806], "tags": {"amenity": "hospital", "healthcare": "hospital", "name": "Bloco Cir\u00fargico Hospital de Palma", "operator": "MISAU", "operator:type": "public"}}, {"type": "way", "id": 922909204, "center": {"lat": -10.7810255, "lon": 40.4726009}, "nodes": [8567400811, 9054437695, 9054437698, 8567400812, 8567400813, 8567400814, 8567400811], "tags": {"amenity": "hospital", "healthcare": "hospital"}}, {"type": "way", "id": 922909205, "center": {"lat": -10.7811168, "lon": 40.4734747}, "nodes": [8567401917, 8567401918, 8567401919, 8567401920, 8567401921, 8567401922, 8567401923, 8567401924, 8567401925, 8567401926, 8567401927, 8575325835, 8567401928, 8567401929, 8567401935, 8567401930, 9063632417, 9063632420, 9063632418, 8567401917], "tags": {"amenity": "hospital", "healthcare": "hospital", "name": "Hospital de Palma"}}, {"type": "way", "id": 922909206, "center": {"lat": -10.7810887, "lon": 40.4730541}, "nodes": [8567401931, 8567401932, 8567401933, 8567401934, 9063601107, 9063601109, 8567401936, 8567401937, 8575325841, 8567401938, 8567401931], "tags": {"addr:city": "Palma Sede", "amenity": "hospital", "healthcare": "hospital", "name": "Recep\u00e7\u00e3o Hospital de Palma", "operator": "MISAU", "operator:type": "public"}}, {"type": "way", "id": 923795853, "center": {"lat": -10.7811073, "lon": 40.4732758}, "nodes": [8575325841, 8575325840, 8575325839, 8575325838, 8575325837, 8575325836, 8575325835, 8567401928, 8567401929, 9063601108, 8567401936, 8567401937, 8575325841], "tags": {"amenity": "hospital", "healthcare": "hospital"}}, {"type": "way", "id": 951495678, "center": {"lat": -18.9235724, "lon": 47.5279298}, "nodes": [8807184744, 8807184745, 8807184746, 8807184747, 8807184744], "tags": {"amenity": "hospital", "healthcare": "hospital", "name": "Centre M\u00e9dico Social GN"}}, {"type": "way", "id": 958569279, "center": {"lat": -14.6453637, "lon": 49.6550368}, "nodes": [8869313199, 8869313198, 8869313197, 8869313196, 8869313195, 8869313194, 8869313193, 8869313192, 8869313191, 8869313190, 8869313189, 8869313188, 8869313199], "tags": {"amenity": "hospital", "name": "Hopitale Adventiste Andapa"}}, {"type": "way", "id": 975928633, "center": {"lat": -14.6648525, "lon": 49.6531894}, "nodes": [9031478359, 9031478358, 9031478357, 9031478356, 9031478355, 9031478354, 9031478353, 9031478352, 9031478351, 9031478359], "tags": {"amenity": "hospital", "health_facility:MG": "CHRD", "healthcare": "hospital", "name": "Centre Hospitalier de R\u00e9f\u00e9rence de District Niveau 2 Andapa", "operator:type": "public"}}, {"type": "way", "id": 978216177, "center": {"lat": -10.8413393, "lon": 40.4903482}, "nodes": [9051622464, 9051622465, 9051622466, 9051622504, 9051622503, 9051622502, 9051622467, 9051622468, 9051622469, 9051622470, 8625103392, 9054612586, 9054612590, 9054612589, 9051622471, 9051622472, 9051622473, 9051622474, 9051622464], "tags": {"amenity": "hospital", "healthcare": "hospital", "name": "Hospital de Quitunda"}}, {"type": "way", "id": 978533122, "center": {"lat": -10.7806687, "lon": 40.4726614}, "nodes": [9054416943, 9054416944, 7407677622, 9054416945, 9054416943], "tags": {"amenity": "hospital", "emergency": "no", "healthcare": "hospital", "name": "Sala de Espera Sa\u00fade do Jovem e adolescente", "operator": "MISAU", "operator:type": "public"}}, {"type": "way", "id": 980372999, "center": {"lat": -12.7811453, "lon": 45.2556925}, "nodes": [9068738729, 9068738730, 9068738731, 7052125118, 7052125112, 7052125113, 7052125114, 7052125111, 9068738699, 7052125103, 7052125091, 7052125096, 7052125097, 9068738732, 9068738700, 9068738703, 9068738733, 9068738734, 9068738729], "tags": {"amenity": "hospital", "healthcare": "hospital", "name": "H\u00f4pital de Dzaoudzi"}}, {"type": "way", "id": 1002966358, "center": {"lat": -18.8995402, "lon": 47.5455495}, "nodes": [9255951860, 9255951861, 9255951862, 9255951863, 9255951864, 9255951865, 9255951866, 9255951867, 9255951868, 9255951869, 9255951860], "tags": {"amenity": "hospital", "healthcare": "hospital", "name": "Centre de Soins et de Sant\u00e9"}}, {"type": "way", "id": 1043340370, "center": {"lat": -13.3634952, "lon": 49.9976937}, "nodes": [9602447465, 9602447464, 9602447463, 9602447462, 9602447461, 9296035818, 9602447460, 9602447459, 9602447458, 9602447457, 9602447465], "tags": {"amenity": "hospital", "health_facility:MG": "CHRD", "healthcare": "hospital", "name": "CHRD Voh\u00e9mar", "operator:type": "public"}}, {"type": "way", "id": 1053940680, "center": {"lat": -12.7956612, "lon": 45.2773652}, "nodes": [6261740665, 9685454107, 10709928776, 10709928775, 6261740666, 4490699012, 6658156229, 6658156228, 6261740665], "tags": {"amenity": "hospital", "healthcare": "hospital", "name": "Centre hospitalier de mayotte site Martial Henry"}}, {"type": "way", "id": 1104051095, "center": {"lat": -18.4129121, "lon": 47.7089814}, "nodes": [10103008287, 10103008288, 10103008289, 10103008290, 10103008291, 10103008292, 10103008287], "tags": {"amenity": "hospital", "health_facility:MG": "CHRD", "healthcare": "hospital", "name": "CHRD Analaroa"}}, {"type": "way", "id": 1104083871, "center": {"lat": -16.9950039, "lon": 49.852183}, "nodes": [10103258791, 10103258792, 10103258793, 10103258794, 10103258795, 10103258791], "tags": {"amenity": "hospital", "health_facility:MG": "CHRD", "healthcare": "hospital", "name": "CHRD Sainte Marie"}}, {"type": "way", "id": 1104101369, "center": {"lat": -18.4526574, "lon": 46.5644078}, "nodes": [10103398976, 10103398975, 10103398974, 10103398973, 10103398972, 10103398971, 10103398970, 10103398969, 10103398968, 10103398967, 10103398966, 10103398976], "tags": {"amenity": "hospital", "health_facility:MG": "CHRD", "healthcare": "hospital", "name": "Centre Hospitalier de R\u00e9f\u00e9rence de District de Fenoarivobe", "operator:type": "public"}}, {"type": "way", "id": 1104127661, "center": {"lat": -18.8184952, "lon": 47.5600683}, "nodes": [10103593445, 10103593446, 10103593447, 10103593448, 10103593449, 10103593450, 10103593451, 10103593452, 10103593453, 10103593454, 10103593455, 10103593456, 10103593457, 10103593458, 10103593445], "tags": {"amenity": "hospital", "health_facility:MG": "CHRD", "healthcare": "hospital", "name": "CHRD II Anosy Avaratra", "operator:type": "public"}}, {"type": "way", "id": 1104391050, "center": {"lat": -19.0297997, "lon": 47.5446212}, "nodes": [10106174935, 10106174936, 10106174937, 10106174938, 10106174939, 10106174940, 10106174941, 10106174942, 10106174943, 10106174944, 10106174945, 10106174946, 10106174947, 10106174948, 10106174949, 10106174935], "tags": {"amenity": "hospital", "health_facility:MG": "CHRD", "healthcare": "hospital", "name": "CHRD Bongatsara", "operator:type": "public"}}, {"type": "way", "id": 1158505143, "center": {"lat": -16.1116578, "lon": 46.647719}, "nodes": [10773841322, 10773841323, 10773841324, 10773841325, 10773841326, 10773841327, 10773841328, 10773841329, 10773841330, 10773841331, 10773841332, 10773841322], "tags": {"amenity": "hospital", "health_facility:MG": "CHRD", "healthcare": "hospital", "name": "Centre Hospitalier de R\u00e9f\u00e9rence de District Niveau II de Marovoay", "operator:type": "public", "short_name": "CHRD II Marovoay"}}, {"type": "way", "id": 1176849264, "center": {"lat": -17.8145051, "lon": 44.9233425}, "nodes": [10933460806, 10933460805, 10933460704, 10933460703, 10933460702, 10933460701, 10933460806], "tags": {"amenity": "hospital", "health_facility:MG": "CHRD", "healthcare": "hospital", "name": "Centre Hospitalier de R\u00e9f\u00e9rence de District de Morafenobe", "operator:type": "public"}}, {"type": "way", "id": 1184599660, "center": {"lat": -19.4022617, "lon": 46.9499191}, "nodes": [11002846152, 11002846151, 11002846150, 11002846149, 11002846148, 11002846147, 11002846152], "tags": {"amenity": "hospital", "health_facility:MG": "CHRD", "healthcare": "hospital", "name": "Centre Hospitalier de R\u00e9f\u00e9rence du District Niveau II Faratsiho", "operator:type": "public", "short_name": "CHRD II Faratsiho"}}, {"type": "way", "id": 1184663368, "center": {"lat": -18.6771504, "lon": 44.62353}, "nodes": [11003315347, 11003315346, 11003315345, 11003315344, 11003315343, 11003315342, 11003315341, 11003315347], "tags": {"amenity": "hospital", "health_facility:MG": "CHRD", "healthcare": "hospital", "name": "CHRD Antsalova", "operator:type": "public"}}, {"type": "way", "id": 1185285509, "center": {"lat": -19.3750019, "lon": 47.4321634}, "nodes": [11010315524, 11010315523, 11010315522, 11010315505, 11010315521, 11010315520, 11010315519, 11010315518, 11010315517, 11010315516, 11010315515, 11010315514, 11010315513, 11010315512, 11010315511, 11010315510, 11010315509, 11010315508, 11010315507, 11010315506, 9589865445, 11010315524], "tags": {"amenity": "hospital", "health_facility:MG": "CHRD", "healthcare": "hospital", "name": "CHRD Ambatolampy", "operator:type": "public"}}, {"type": "way", "id": 1185554089, "center": {"lat": -17.0102946, "lon": 48.5723763}, "nodes": [11012698643, 11012698642, 11012698641, 11012698640, 11012698639, 11012698638, 6512396061, 11012698637, 11012698643], "tags": {"amenity": "hospital", "health_facility:MG": "CHRD", "healthcare": "hospital", "name": "CHRD II Andilamena", "operator:type": "public"}}, {"type": "way", "id": 1186437742, "center": {"lat": -17.4655459, "lon": 49.2004949}, "nodes": [11019527790, 11019527789, 11019527788, 11019527787, 11019527786, 11019527785, 11019527784, 11019527783, 11019527782, 11019527781, 11019527780, 11019527779, 11019527778, 11019527777, 11019527776, 11019527775, 11019527774, 11019527790], "tags": {"amenity": "hospital", "health_facility:MG": "CHRD", "healthcare": "hospital", "name": "Centre Hospitalier de R\u00e9f\u00e9rence de District Niveau I Alphonse Levy Vavatenina", "operator:type": "public", "short_name": "CHRD I Alphonse Levy Vavatenina"}}, {"type": "way", "id": 1186446100, "center": {"lat": -15.4377049, "lon": 49.7332652}, "nodes": [11019583662, 11019583661, 11019583660, 11019583659, 11019583658, 11019583657, 11019583656, 11019583655, 11019583654, 11019583653, 11019583652, 11019583651, 11019583662], "tags": {"amenity": "hospital", "health_facility:MG": "CHRD", "healthcare": "hospital", "name": "CHRD Maroantsetra", "operator:type": "public"}}, {"type": "way", "id": 1186539757, "center": {"lat": -19.6637609, "lon": 47.3218391}, "nodes": [11020543921, 11020543920, 11020543919, 11020543918, 11020543917, 11020543916, 11020543915, 11020543914, 11020543913, 11020543912, 11020543911, 11020543921], "tags": {"amenity": "hospital", "health_facility:MG": "CHRD", "healthcare": "hospital", "name": "Centre Hospitalier de R\u00e9f\u00e9rence de District Antanifotsy", "operator:type": "public", "short_name": "CHRD Antanifotsy"}}, {"type": "way", "id": 1186545233, "center": {"lat": -19.0115684, "lon": 47.1808078}, "nodes": [11020555647, 11020555646, 11020555645, 11020555644, 11020555643, 11020555642, 11020555641, 11020555640, 11020555639, 11020555638, 11020555637, 11020555632, 11020555636, 11020555635, 11020555634, 11020555633, 11020555647], "tags": {"amenity": "hospital", "health_facility:MG": "CHRD", "healthcare": "hospital", "name": "Centre Hospitalier de R\u00e9f\u00e9rence de District Arivonimamo", "operator:type": "public", "short_name": "CHRD Arivonimamo"}}, {"type": "way", "id": 1186548723, "center": {"lat": -19.1657575, "lon": 46.7423513}, "nodes": [11020534187, 11020534186, 11020534185, 11020534184, 11020534183, 11020534187], "tags": {"amenity": "hospital", "health_facility:MG": "CHRD", "healthcare": "hospital", "name": "CHRD II Soavinandriana Itasy", "operator:type": "public"}}, {"type": "way", "id": 1187375278, "center": {"lat": -15.5650545, "lon": 47.6255071}, "nodes": [11026149567, 11026149566, 11026149565, 11026149564, 11026149563, 11026149562, 11026149561, 11026149560, 11026149559, 9682079267, 11026149567], "tags": {"alt_name": "CHRD Port-Berg\u00e9", "amenity": "hospital", "health_facility:MG": "CHRD", "healthcare": "hospital", "name": "Hopitaly Be", "operator:type": "public"}}, {"type": "way", "id": 1187379523, "center": {"lat": -15.8396771, "lon": 48.8278435}, "nodes": [9684949306, 11026172100, 11026172099, 11026172098, 11026172097, 11026172096, 11026172095, 9684949306], "tags": {"alt_name": "CHRD Mandritsara", "amenity": "hospital", "health_facility:MG": "CHRD", "healthcare": "hospital", "name": "Hopitaly Be", "operator:type": "public"}}, {"type": "way", "id": 1187412284, "center": {"lat": -18.8399868, "lon": 47.7055241}, "nodes": [11026342220, 11026342219, 11026342218, 11026342217, 11026342213, 11026342214, 11026342216, 11026342215, 11026342220], "tags": {"amenity": "hospital", "health_facility:MG": "CHRD", "healthcare": "hospital", "name": "CHRD Manankavaly", "operator:type": "public"}}, {"type": "way", "id": 1189782422, "center": {"lat": -15.3683842, "lon": 47.9695799}, "nodes": [11047559457, 11047559458, 11047559459, 11047559460, 11047559461, 11047559462, 11047559463, 11047559464, 11047559465, 11047559466, 11047559467, 11047559468, 11047559469, 11047559470, 11047559471, 11047559472, 11047559473, 11047559474, 11047559475, 11047559476, 11047559477, 11047559478, 11047559479, 11047559457], "tags": {"amenity": "hospital", "healthcare": "hospital", "healthcare:speciality": "general", "name": "Domaine hospital"}}, {"type": "way", "id": 1189783919, "center": {"lat": -15.3686674, "lon": 47.9694287}, "nodes": [11026179532, 11026179531, 11026179530, 11026179533, 11078989712, 11026179532], "tags": {"amenity": "hospital", "healthcare": "hospital"}}, {"type": "way", "id": 1189783996, "center": {"lat": -15.3684233, "lon": 47.9698706}, "nodes": [11047617497, 11047617498, 11047617499, 11047617500, 11047617497], "tags": {"amenity": "hospital", "healthcare": "hospital", "name": "Pharmacie"}}, {"type": "way", "id": 1189784133, "center": {"lat": -15.3682461, "lon": 47.9698603}, "nodes": [11047514987, 11047514988, 11047514989, 11047514990, 11047514991, 11047514992, 11047514993, 11047514994, 11047514987], "tags": {"amenity": "hospital", "healthcare": "hospital", "name": "Habitation de Madecin"}}, {"type": "way", "id": 1193913578, "center": {"lat": -15.1692455, "lon": 47.7724446}, "nodes": [11082747844, 11082747845, 11082747846, 11082747847, 11082747848, 11082747849, 11082755170, 11082747844], "tags": {"addr:city": "Anjiamangirana I", "addr:housenumber": "7", "addr:postcode": "407", "addr:street": "Route National", "amenity": "hospital", "healthcare": "hospital", "healthcare:speciality": "general", "name": "CSBII Anjiamangirana I"}}, {"type": "relation", "id": 8174987, "center": {"lat": -18.7732594, "lon": 46.0485147}, "members": [{"type": "way", "ref": 575866078, "role": "outer"}, {"type": "way", "ref": 191078014, "role": "outer"}], "tags": {"amenity": "hospital", "health_facility:MG": "CHRR", "healthcare": "hospital", "name": "Centre Hospitalier de R\u00e9f\u00e9rence R\u00e9gionale de Bongolava", "short_name": "CHRR Bongolava", "type": "multipolygon"}}, {"type": "relation", "id": 11226396, "center": {"lat": -17.8356272, "lon": 48.4243816}, "members": [{"type": "way", "ref": 135999597, "role": "outer"}, {"type": "way", "ref": 135999585, "role": "outer"}], "tags": {"amenity": "hospital", "health_facility:MG": "CHRR", "healthcare": "hospital", "name": "Centre Hospitalier de R\u00e9f\u00e9rence R\u00e9gionale Alaotra Mangoro", "note": "CHRR", "operator:type": "public", "type": "multipolygon"}}]}