{"version": 0.6, "generator": "Overpass API 0.7.61.5 4133829e", "osm3s": {"timestamp_osm_base": "2023-10-31T20:48:30Z", "copyright": "The data included in this document is from www.openstreetmap.org. The data is made available under ODbL."}, "elements": [{"type": "node", "id": 994495476, "lat": -13.6665225, "lon": -172.177098, "tags": {"amenity": "hospital", "healthcare": "hospital", "name": "Tuasivi District Hospital"}}, {"type": "node", "id": 1234169087, "lat": -18.6461628, "lon": -173.984434, "tags": {"amenity": "hospital", "healthcare": "hospital", "name": "Prince Wellington Ngu Hospital"}}, {"type": "node", "id": 3175902401, "lat": -19.816506, "lon": -174.359183, "tags": {"amenity": "hospital", "healthcare": "hospital", "name": "Niu'ui Hospital"}}, {"type": "node", "id": 5460578621, "lat": -14.3087256, "lon": -178.132818, "tags": {"amenity": "hospital", "healthcare": "hospital"}}, {"type": "node", "id": 5612679188, "lat": -13.5262327, "lon": -172.7119002, "tags": {"amenity": "hospital", "healthcare": "hospital"}}, {"type": "node", "id": 5680505898, "lat": -13.3469813, "lon": -176.203659, "tags": {"amenity": "hospital", "healthcare": "hospital", "name": "Mua"}}, {"type": "node", "id": 6704634886, "lat": -16.7985441, "lon": -179.9969638, "tags": {"amenity": "hospital", "name": "Waiyevo Hospital"}}, {"type": "node", "id": 6705147485, "lat": -16.7982123, "lon": -179.9972822, "tags": {"amenity": "hospital", "name": "Taveuni Hospital"}}, {"type": "way", "id": 260695940, "center": {"lat": -13.8534952, "lon": -172.1022689}, "nodes": [2662206174, 2662206175, 2662206176, 2662206177, 2662206174], "tags": {"amenity": "hospital", "building": "yes", "name": "Manono Hospital"}}, {"type": "way", "id": 303019932, "center": {"lat": -15.5736292, "lon": -175.6386376}, "nodes": [3073129192, 3073129193, 3073129194, 3073129195, 3073129192], "tags": {"amenity": "hospital", "name": "Niuafo'ou Hospital"}}, {"type": "way", "id": 303710810, "center": {"lat": -15.956596, "lon": -173.7906702}, "nodes": [3081160344, 3081160345, 3081160346, 3081160347, 3081160344], "tags": {"amenity": "hospital", "name": "Proposed hospital site"}}, {"type": "way", "id": 312015639, "center": {"lat": -19.8166995, "lon": -174.3593403}, "nodes": [3178230708, 3145139861, 3145139860, 3145139859, 3145139858, 3178230709, 3178230710, 3178230711, 3178230712, 3178230713, 3178230714, 3178230715, 3178230716, 3178230708], "tags": {"amenity": "hospital", "healthcare": "hospital"}}, {"type": "way", "id": 321521772, "center": {"lat": -13.5152686, "lon": -172.6903645}, "nodes": [3282809086, 3282809087, 3282809088, 3282809089, 3282809090, 3282809091, 3282809086], "tags": {"amenity": "hospital", "healthcare": "hospital", "name": "Vaisigano District Hospital"}}, {"type": "way", "id": 326667115, "center": {"lat": -13.45218, "lon": -172.4081655}, "nodes": [3333291148, 3333291116, 3333291115, 3333291114, 3333291113, 3333291112, 3333291111, 3333291110, 3333291109, 3333291108, 3333291107, 3333291149, 3333291148], "tags": {"amenity": "hospital", "healthcare": "hospital"}}, {"type": "way", "id": 327526325, "center": {"lat": -13.7718476, "lon": -172.3887595}, "nodes": [3341017117, 3341017118, 3341017119, 3341017120, 3341017121, 3341017122, 3343162298, 3343162299, 3343162300, 3343170948, 3343162301, 3343162302, 3341017116, 3341017117], "tags": {"amenity": "hospital", "healthcare": "hospital"}}, {"type": "way", "id": 585450401, "center": {"lat": -14.2903819, "lon": -170.6854411}, "nodes": [5594645949, 5594645948, 5594645947, 5594645946, 359258617, 5594645945, 5594645944, 5594645943, 5594645942, 5594645941, 5594645940, 5594645939, 5594645938, 5594645937, 5594645936, 5594645949], "tags": {"addr:city": "Pago Pago", "addr:postcode": "96799", "amenity": "hospital", "emergency": "yes", "gnis:feature_id": "1966555", "healthcare": "hospital", "name": "Lyndon Baines Johnson Tropical Medical Center", "opening_hours": "24/7", "phone": "+1 684 633 1222", "website": "https://www.americansamoa.gov/as-medical-services-authority", "wikidata": "Q30265427"}}, {"type": "way", "id": 667331292, "center": {"lat": -14.0274451, "lon": -171.694246}, "nodes": [4821865696, 6248188803, 6248188802, 6248188800, 6248188799, 6248188801, 6248188804, 6248188805, 4821865696], "tags": {"addr:city": "Poutasi, Falealili", "amenity": "hospital", "building": "yes", "healthcare": "hospital", "name": "Healthcare center"}}, {"type": "way", "id": 837954745, "center": {"lat": -16.79839, "lon": -179.9972107}, "nodes": [7820964075, 7820964076, 7820964016, 7820964018, 7820964021, 7820964020, 7820964019, 7820964017, 7820964077, 7820964078, 7820964079, 7820964080, 7820964081, 7820964082, 7820964083, 7820964084, 7820964085, 7820964086, 7820964087, 7820964088, 7820964089, 7820964090, 7820964091, 7820964092, 7820964093, 7820964094, 7820964095, 7820964096, 7820964097, 7820964098, 7820964075], "tags": {"amenity": "hospital", "building": "yes"}}, {"type": "way", "id": 837954751, "center": {"lat": -16.7984402, "lon": -179.9976024}, "nodes": [7820964048, 7820964047, 7820964046, 7820964045, 7820964048], "tags": {"amenity": "hospital", "building": "yes"}}, {"type": "way", "id": 837954752, "center": {"lat": -16.7982642, "lon": -179.997602}, "nodes": [7820964074, 7820964073, 7820964072, 7820964071, 7820964070, 7820964069, 7820964068, 7820964067, 7820964066, 7820964065, 7820964064, 7820964063, 7820964062, 7820964061, 7820964060, 7820964059, 7820964058, 7820964057, 7820964056, 7820964055, 7820964054, 7820964053, 7820964052, 7820964051, 7820964050, 7820964049, 7820964074], "tags": {"amenity": "hospital", "building": "yes"}}, {"type": "way", "id": 1012076688, "center": {"lat": -13.2792399, "lon": -176.1722484}, "nodes": [9337152792, 9337152791, 9337152790, 9337152789, 9337152788, 9337152786, 5160249721, 9337250144, 9337152787, 9337152792], "tags": {"addr:postcode": "98600", "amenity": "hospital", "emergency": "yes", "name": "Lopitali o Sia", "name:en": "Sia Hospital", "name:fr": "H\u00f4pital de Sia"}}, {"type": "way", "id": 1125187999, "center": {"lat": -13.8464942, "lon": -171.7646861}, "nodes": [10289499364, 10289499365, 10289499366, 10289499367, 10289499368, 10289499369, 10289499370, 10289499371, 10289499372, 10289499373, 10289499374, 10289499375, 10289499376, 10289499377, 10289499378, 10289499379, 10289499380, 10289499381, 10289499382, 10289499383, 10289499384, 10289499385, 10289499386, 10289499364], "tags": {"amenity": "hospital", "emergency": "yes", "healthcare": "hospital", "name": "Tupua Tamasese Meaole Hospital"}}]}