{"version": 0.6, "generator": "Overpass API 0.7.61.5 4133829e", "osm3s": {"timestamp_osm_base": "2023-10-31T20:48:30Z", "copyright": "The data included in this document is from www.openstreetmap.org. The data is made available under ODbL."}, "elements": [{"type": "node", "id": 321448936, "lat": -23.1476022, "lon": -50.5176971, "tags": {"addr:city": "Santa Mariana", "addr:housenumber": "550", "addr:postcode": "86350-000", "addr:street": "Rua Manoel da Silva Machado", "amenity": "hospital", "name": "Hospital Municipal Santa Alice"}}, {"type": "node", "id": 439239039, "lat": -29.1674979, "lon": -51.5144969, "tags": {"amenity": "hospital", "name": "24h Pronto Atendimento - Hospital Tacchini"}}, {"type": "node", "id": 446894591, "lat": -29.6887312, "lon": -51.1071545, "tags": {"addr:city": "Novo Hamburgo", "addr:housenumber": "161", "addr:postcode": "93540-290", "addr:street": "Rua Waldemar Geib", "addr:suburb": "Hamburgo Velho", "amenity": "hospital", "emergency": "yes", "healthcare": "hospital", "name": "Hospital Unimed", "operator": "Unimed", "operator:type": "private", "ref:CNES": "3213943", "ref:vatin": "BR88258884001444"}}, {"type": "node", "id": 528921479, "lat": -29.8391039, "lon": -51.1614296, "tags": {"amenity": "hospital", "healthcare": "hospital", "name": "S\u00e3o Camilo", "wheelchair": "yes"}}, {"type": "node", "id": 530313758, "lat": -27.4786576, "lon": -53.4056658, "tags": {"addr:housenumber": "73", "addr:postcode": "98380-000", "addr:street": "Travessa Roberto Schimidt", "addr:suburb": "Centro", "amenity": "hospital", "email": "fundacaopioxii@gmail.com", "healthcare": "hospital", "name": "Funda\u00e7\u00e3o Hospitalar Pio XII", "phone": "+55 55 3746 1022", "ref:CNES": "2228610", "ref:vatin": "BR89286249000119"}}, {"type": "node", "id": 581423130, "lat": -28.2095797, "lon": -53.4890276, "tags": {"addr:city": "Condor", "addr:housenumber": "66", "addr:postcode": "98290-000", "addr:street": "Rua Germano Keller", "addr:suburb": "Centro", "amenity": "hospital", "healthcare": "hospital", "name": "Hospital Beneficente de Condor", "ref:CNES": "2261111", "ref:vatin": "BR91983874000161"}}, {"type": "node", "id": 598666734, "lat": -27.4713597, "lon": -53.1687579, "tags": {"addr:city": "Rodeio Bonito", "addr:housenumber": "290", "addr:postcode": "98360-000", "addr:street": "Rua J\u00falio de Castilhos", "addr:suburb": "Centro", "amenity": "hospital", "email": "ahsj@mksnet.com.br", "healthcare": "hospital", "name": "Hospital S\u00e3o Jos\u00e9 Rodeio Bonito", "phone": "+55 55 3798 1433", "ref:CNES": "2228734", "ref:vatin": "BR01884775000130"}}, {"type": "node", "id": 598666735, "lat": -27.3653006, "lon": -53.1718649, "tags": {"addr:city": "Ametista do Sul", "addr:housenumber": "339", "addr:postcode": "98465-000", "addr:street": "Rua Jo\u00e3o de Luca", "addr:suburb": "Jo\u00e3o de Luca", "amenity": "hospital", "healthcare": "hospital", "name": "Hospital S\u00e3o Gabriel Ametista do Sul", "phone": "+55 55 3752 1246", "ref:CNES": "2228629", "ref:vatin": "BR01979048000156"}}, {"type": "node", "id": 612015696, "lat": -25.3915913, "lon": -57.5462578, "tags": {"amenity": "hospital", "healthcare": "hospital", "name": "MEDISUR", "source": "TangoGPS"}}, {"type": "node", "id": 616091711, "lat": -25.3226678, "lon": -57.5238695, "tags": {"amenity": "hospital", "healthcare": "hospital", "name": "Hospital Regional de San Lorenzo", "operator": "Facultad de Ciencias M\u00e9dicas"}}, {"type": "node", "id": 870955589, "lat": -26.6186912, "lon": -54.1078255, "tags": {"addr:city": "San Pedro", "addr:postcode": "3352", "addr:street": "Almirante Brown", "ambulance": "3", "amenity": "hospital", "emergency": "yes", "healthcare": "hospital", "name": "Hospital de San Pedro", "phone": "+54 3751 470010;+54 3751 425207;+54 3751 426383", "ref:ZonaSanitaria": "Noreste", "ref:cuie_codigo": "N05181", "ref:nivel": "I", "ref:sisa_codigo": "10541122164490", "ref:sisa_tipologia": "ESCIG", "source": "http://www.salud.misiones.gov.ar/index.php/red-sanitaria/hospitales"}}, {"type": "node", "id": 920881855, "lat": -25.8754701, "lon": -50.3815916, "tags": {"amenity": "hospital", "healthcare": "hospital", "name": "Hospital Doutor Paulo Fortes"}}, {"type": "node", "id": 1005547499, "lat": -28.9269748, "lon": -51.548573, "tags": {"addr:city": "Veran\u00f3polis", "addr:housenumber": "160", "addr:postcode": "95330-000", "addr:street": "Rua Saul Irineu Farina", "addr:suburb": "Sao Peregrino", "amenity": "hospital", "email": "hcspl@hcspl.com.br", "healthcare": "hospital", "name": "Hospital Comunit\u00e1rio S\u00e3o Peregrino Lazziozi", "operator:ref:vatin": "BR87873279000104", "phone": "+55 54 3441 3700", "ref:CNES": "2707977", "ref:vatin": "BR87873279000368", "website": "https://hcspl.com.br"}}, {"type": "node", "id": 1141576821, "lat": -29.6485004, "lon": -51.1750693, "tags": {"addr:housenumber": "236", "addr:postcode": "93600-300", "addr:street": "Rua Adolfo Mattes", "addr:suburb": "Centro", "amenity": "hospital", "email": "saude@estanciavelha.rs.gov.br", "fax": "+55 51 3561 1013", "healthcare": "hospital", "name": "Hospital Presidente Vargas", "operator:ref:vatin": "BR88254883000107", "phone": "+55 51 3191 8010", "ref:CNES": "2707632"}}, {"type": "node", "id": 1200867105, "lat": -25.497776, "lon": -54.5681313, "tags": {"addr:housenumber": "580", "addr:postcode": "85860-460", "addr:street": "Avenida Gramado", "addr:suburb": "Vila \"A\"", "amenity": "hospital", "contact:phone": "+55 45 3576-8000", "emergency": "yes", "healthcare:speciality": "general", "name": "Hospital Ministro Costa Cavalcante"}}, {"type": "node", "id": 1314461590, "lat": -21.2062524, "lon": -50.4290415, "tags": {"addr:housenumber": "896", "addr:postcode": "16015-000", "addr:street": "Rua Floriano Peixoto", "amenity": "hospital", "healthcare": "hospital", "name": "Santa Casa de Ara\u00e7atuba", "phone": "+55 18 3607 3000", "ref:CNES": "2078775", "ref:vatin": "BR43751502000167"}}, {"type": "node", "id": 1341687114, "lat": -26.4737538, "lon": -51.1529792, "tags": {"amenity": "hospital", "healthcare": "hospital", "name": "Hospital Municipal S\u00e3o Jo\u00e3o Batista"}}, {"type": "node", "id": 1373994448, "lat": -27.4507362, "lon": -58.9915283, "tags": {"addr:city": "Resistencia", "addr:housenumber": "268", "addr:street": "Necochea", "amenity": "hospital", "healthcare": "hospital", "name": "Sanatorio Galeno", "operator:type": "private", "ref:sisa_codigo": "10221402326080", "ref:sisa_tipologia": "ESCIG", "wikidata": "Q94580914"}}, {"type": "node", "id": 1393564169, "lat": -26.5684384, "lon": -54.7665377, "tags": {"addr:city": "Montecarlo", "addr:housenumber": "117", "addr:postcode": "3384", "addr:street": "Comandante Andresito", "alt_name": "Hospital de \u00c1rea Montecarlo", "ambulance": "2", "amenity": "hospital", "emergency": "yes", "healthcare": "hospital", "name": "Hospital de Montecarlo Doctor Oscar Eugenio Dar\u00fa", "phone": "+54 3751 480020", "ref:ZonaSanitaria": "Norte Paran\u00e1", "ref:cuie_codigo": "N05177", "ref:nivel": "I", "ref:sisa_codigo": "10540842164463", "ref:sisa_tipologia": "ESCIG", "source": "http://www.salud.misiones.gov.ar/index.php/red-sanitaria/hospitales"}}, {"type": "node", "id": 1409106534, "lat": -22.0446836, "lon": -50.1755917, "tags": {"amenity": "hospital", "name": "Esquadr\u00e3o da Vida"}}, {"type": "node", "id": 1416763335, "lat": -29.8867564, "lon": -50.2653533, "tags": {"addr:housenumber": "391", "addr:postcode": "95520-000", "addr:street": "Rua Jo\u00e3o Sarmento", "addr:suburb": "Centro", "amenity": "hospital", "fax": "+55 51 3663 3377", "healthcare": "hospital", "name": "Hospital S\u00e3o Vicente de Paulo", "ref:CNES": "2257815", "ref:vatin": "BR91884957000101"}}, {"type": "node", "id": 1461724319, "lat": -20.2394863, "lon": -56.3766086, "tags": {"amenity": "hospital"}}, {"type": "node", "id": 1473656664, "lat": -25.296806, "lon": -54.0997676, "tags": {"amenity": "hospital", "emergency": "yes", "healthcare": "hospital", "name": "Maternidade N. Sra. da Luz"}}, {"type": "node", "id": 1516759978, "lat": -27.3411052, "lon": -55.8600338, "tags": {"amenity": "hospital", "healthcare": "hospital", "name": "Hospital Regional"}}, {"type": "node", "id": 1526228667, "lat": -28.2731586, "lon": -52.4127159, "tags": {"addr:housenumber": "303", "alt_name": "CAIS Gerv\u00e1si\u00f3", "amenity": "hospital", "name": "CAIS-Centro de Atendimento Integrado \u00e0 Sa\u00fade Luiza"}}, {"type": "node", "id": 1565211613, "lat": -25.5601435, "lon": -54.6145335, "tags": {"amenity": "hospital", "emergency": "yes", "healthcare": "hospital"}}, {"type": "node", "id": 1565469230, "lat": -25.5580722, "lon": -54.6017555, "tags": {"amenity": "hospital", "emergency": "yes", "healthcare": "hospital", "name": "IPS Pdte. Franco"}}, {"type": "node", "id": 1589583398, "lat": -27.4474434, "lon": -58.9808823, "tags": {"amenity": "hospital", "healthcare": "hospital", "name": "FemeChaco"}}, {"type": "node", "id": 1605949134, "lat": -27.4531136, "lon": -58.9796749, "tags": {"addr:housenumber": "266", "addr:street": "Avenida Italia", "amenity": "hospital", "healthcare": "hospital", "name": "Sanatorio La Sagrada Familia", "operator:type": "private", "ref:sisa_codigo": "10221402326800", "ref:sisa_tipologia": "ESCIG", "wikidata": "Q94580918"}}, {"type": "node", "id": 1654393038, "lat": -21.9362999, "lon": -50.5135197, "tags": {"addr:housenumber": "776", "addr:postcode": "17600-010", "addr:street": "Rua Coroados", "addr:suburb": "Centro", "amenity": "hospital", "healthcare": "hospital", "name": "Hospital S\u00e3o Francisco de Assis", "phone": "+55 14 3404 3636", "ref:CNES": "2080672", "ref:vatin": "BR54722822000105"}}, {"type": "node", "id": 1655890955, "lat": -29.9405466, "lon": -50.9942116, "tags": {"addr:city": "Gravata\u00ed", "addr:housenumber": "1561", "addr:street": "Avenida Jos\u00e9 Loureiro da Silva", "addr:suburb": "Centro", "amenity": "hospital", "emergency": "yes", "healthcare": "hospital", "name": "Hospital Dom Jo\u00e3o Becker", "ref:CNES": "2232049", "ref:vatin": "BR92815000000834"}}, {"type": "node", "id": 1655891063, "lat": -29.9464826, "lon": -50.9951397, "tags": {"amenity": "hospital", "emergency": "yes", "healthcare": "hospital", "name": "Cl\u00ednica Solaris"}}, {"type": "node", "id": 1689183402, "lat": -29.1418502, "lon": -59.6464056, "tags": {"amenity": "hospital", "emergency": "no", "healthcare": "hospital", "name": "Centro de Especialidades M\u00e9dicas SRL"}}, {"type": "node", "id": 1693148046, "lat": -23.4086473, "lon": -53.3727504, "tags": {"amenity": "hospital", "emergency": "yes", "healthcare": "hospital", "name": "PAM - Pronto Atendimento Medico"}}, {"type": "node", "id": 1694982889, "lat": -28.4481269, "lon": -52.1941367, "tags": {"amenity": "hospital", "emergency": "yes", "healthcare": "hospital", "name": "Hospital Cristo Redentor"}}, {"type": "node", "id": 1698682689, "lat": -27.3981824, "lon": -55.9522089, "tags": {"addr:city": "Posadas", "addr:country": "AR", "addr:housenumber": "7350", "addr:postcode": "3300", "addr:street": "Avenida Quaranta", "amenity": "hospital", "emergency": "yes", "healthcare": "hospital", "name": "Hospital De Rehabilitacion En Salud Mental - Dr. Ramon Carrillo", "phone": "+5 376 4458263", "ref:ZonaSanitaria": "Capital", "ref:cuie_codigo": "N05436", "ref:sisa_codigo": "13540282164503", "ref:sisa_tipologia": "ESCIESM"}}, {"type": "node", "id": 1698683341, "lat": -27.3986615, "lon": -55.9517547, "tags": {"addr:city": "Posadas", "addr:country": "AR", "addr:housenumber": "7300", "addr:postcode": "3300", "addr:street": "Avenida Quaranta", "alt_name": "Hospital De Enfermedades Transmisibles - Dr. Pedro Bali\u00f1a", "amenity": "hospital", "description": "Hospital psiqui\u00e1trico", "emergency": "no", "healthcare": "hospital", "name": "Hospital De Enfermedades Transmisibles Doctor Pedro Bali\u00f1a", "phone": "+54 376 4458248", "ref:ZonaSanitaria": "Capital", "ref:cuie_codigo": "N05435", "ref:sisa_codigo": "14540282164524", "ref:sisa_tipologia": "ESCIE"}}, {"type": "node", "id": 1728971682, "lat": -27.4577634, "lon": -58.9819811, "tags": {"addr:housenumber": "168", "addr:street": "San Lorenzo", "amenity": "hospital", "healthcare": "hospital", "name": "FemeChaco Salud", "operator:type": "private", "ref:sisa_codigo": "10221402326078", "ref:sisa_tipologia": "ESCIG", "wikidata": "Q94580911"}}, {"type": "node", "id": 1728971716, "lat": -27.4578687, "lon": -58.9821516, "tags": {"addr:city": "Resistencia", "addr:full": "San Lorenzo 180", "addr:housenumber": "180", "addr:postcode": "3500", "addr:street": "San Lorenzo", "alt_name": "Sanatorio Antartida Centro Medico Para La Mujer S.r.l.", "amenity": "hospital", "healthcare": "hospital", "healthcare:speciality": "paediatrics", "name": "Sanatorio Ant\u00e1rtida", "operator": "Privado", "operator:type": "private", "phone": "+54 362  442 9155", "ref:sisa_codigo": "10221402326072", "ref:sisa_tipologia": "ESCIG", "wikidata": "Q94580898"}}, {"type": "node", "id": 1777396529, "lat": -22.8570084, "lon": -54.6052716, "tags": {"addr:housenumber": "550", "addr:postcode": "79955-000", "addr:street": "Avenida Sergio Maciel", "addr:suburb": "Centro", "amenity": "hospital", "email": "hospmsl@terra.com.br", "emergency": "yes", "fax": "+55 67 3463 1571", "healthcare": "hospital", "healthcare:speciality": "general", "name": "Hospital Municipal Santa Luzia", "operator": "Prefeiura municipal de Juti", "operator:ref:vatin": "BR24644296000141", "operator:type": "government", "phone": "+55 67 3463 1550", "ref:CNES": "2374366"}}, {"type": "node", "id": 1777411427, "lat": -22.8645742, "lon": -54.6062057, "tags": {"amenity": "hospital", "healthcare": "hospital", "healthcare:speciality": "general", "name": "Posto de Saude", "operator": "Prefeiura municipal de Juti", "operator:type": "government"}}, {"type": "node", "id": 1786407239, "lat": -27.1716055, "lon": -51.5064346, "tags": {"amenity": "hospital", "healthcare": "hospital", "name": "Hospital Universit\u00e1rio Santa Terezinha"}}, {"type": "node", "id": 1793871060, "lat": -23.311155, "lon": -51.3658753, "tags": {"amenity": "hospital", "healthcare": "hospital", "name": "hospital S\u00e3o Raphael"}}, {"type": "node", "id": 1799049993, "lat": -29.932703, "lon": -51.0196178, "tags": {"amenity": "hospital"}}, {"type": "node", "id": 1834910119, "lat": -24.0268384, "lon": -52.4002105, "tags": {"amenity": "hospital", "emergency": "yes", "healthcare": "hospital", "name": "Santa Casa de Campo Mour\u00e3o"}}, {"type": "node", "id": 1849780454, "lat": -25.3510616, "lon": -57.4165, "tags": {"amenity": "hospital", "healthcare": "hospital", "name": "Hospital del Cancer"}}, {"type": "node", "id": 1850525015, "lat": -25.3081426, "lon": -57.598284, "tags": {"amenity": "hospital", "healthcare": "hospital", "name": "Hospital San Lucas"}}, {"type": "node", "id": 1866525022, "lat": -24.2409018, "lon": -51.6721935, "tags": {"amenity": "hospital", "emergency": "yes", "healthcare": "hospital", "name": "Hospital Bom Jesus", "source": "knowledge"}}, {"type": "node", "id": 1866573548, "lat": -24.2491642, "lon": -51.6743162, "tags": {"amenity": "hospital", "emergency": "yes", "healthcare": "hospital", "name": "Hospital e Maternidade Ivaipor\u00e3", "source": "knowledge"}}, {"type": "node", "id": 1933585771, "lat": -27.2737198, "lon": -59.1524315, "tags": {"amenity": "hospital", "healthcare": "hospital"}}, {"type": "node", "id": 1943176031, "lat": -26.7000669, "lon": -59.6314486, "tags": {"amenity": "hospital", "healthcare": "hospital", "name": "Hospital Rivadavia"}}, {"type": "node", "id": 1950710738, "lat": -27.1032854, "lon": -59.446344, "tags": {"addr:city": "La Escondida", "addr:full": "Planta Urbana Sin Numero", "addr:postcode": "3514", "alt_name": "Hospital La Escondida", "amenity": "hospital", "healthcare": "hospital", "name": "Hospital Doctor Carlos A. Delgado", "operator": "Provincial", "operator:type": "public", "phone": "+54 362 4499004", "ref:sisa_codigo": "10220562126037", "ref:sisa_tipologia": "ESCIG"}}, {"type": "node", "id": 1970487337, "lat": -24.4659467, "lon": -53.9518042, "tags": {"amenity": "hospital", "healthcare": "hospital", "name": "Hospital Lar Bel\u00e9m"}}, {"type": "node", "id": 1978061195, "lat": -21.7016936, "lon": -57.8847718, "tags": {"addr:housenumber": "436", "addr:postcode": "79280-000", "addr:street": "Rua Joaquim Murtinho", "addr:suburb": "Centro", "amenity": "hospital", "email": "saudeportomurtinho@hotmail.com", "healthcare": "hospital", "name": "Hospital Municipal Oscar Ramires Pereira", "operator:ref:vatin": "BR03107539000132", "ref:CNES": "2710447"}}, {"type": "node", "id": 2016914615, "lat": -29.5576005, "lon": -55.1266292, "tags": {"addr:housenumber": "1424", "addr:postcode": "97610-000", "addr:street": "Rua Treze de Janeiro", "amenity": "hospital", "contact:email": "hsantoantonio@yahoo.com.br", "contact:phone": "+55 55 3252-1177", "emergency": "yes", "healthcare": "hospital", "name": "Hospital Santo Ant\u00f4nio", "ref:CNES": "2244330", "ref:vatin": "BR96535760000172"}}, {"type": "node", "id": 2021202407, "lat": -27.4488573, "lon": -58.97668, "tags": {"addr:city": "Resistencia", "addr:housenumber": "421", "addr:street": "C\u00f3rdoba", "amenity": "hospital", "healthcare": "hospital", "name": "Sanatorio Palacio", "operator:type": "private", "ref:sisa_codigo": "10221402326087", "ref:sisa_tipologia": "ESCIG", "wikidata": "Q94580925"}}, {"type": "node", "id": 2023168223, "lat": -27.4292803, "lon": -58.8463676, "tags": {"amenity": "hospital", "name": "Sala Primeros Auxilios Antequeras"}}, {"type": "node", "id": 2023698988, "lat": -26.5369095, "lon": -59.330267, "tags": {"addr:city": "General Jose de San Mart\u00edn", "addr:full": "Uruguay Y Ruta 90 S/n", "addr:postcode": "3509", "addr:street": "Uruguay", "amenity": "hospital", "emergency": "yes", "healthcare": "hospital", "name": "Hospital Felix Anselmo Pertile", "operator": "Provincial", "operator:type": "public", "phone": "+54 3725 420019", "ref:sisa_codigo": "10220842126052", "ref:sisa_tipologia": "ESCIG", "wikidata": "Q94580859"}}, {"type": "node", "id": 2038928961, "lat": -21.4626568, "lon": -56.1075833, "tags": {"addr:housenumber": "860", "addr:postcode": "79230-000", "addr:street": "Rua 7 De Setembro", "addr:suburb": "S\u00e3o Miguel", "amenity": "hospital", "email": "hospitalgll@top.com.br", "emergency": "yes", "fax": "+55 67 3269 2132", "healthcare": "hospital", "name": "Hospital Edelmira Nunes de Oliveira", "phone": "+55 67 3269 2008", "ref:CNES": "3249336", "ref:vatin": "BR05676386000170", "source": "http://www.catalogo.med.br/c/ms/guia-lopes-da-laguna/hospital+edelmira+nunes+de+oliveira-e52890.htm;DATASUS"}}, {"type": "node", "id": 2042676938, "lat": -29.6216444, "lon": -51.4199415, "tags": {"amenity": "hospital", "emergency": "no", "name": "Posto Sa\u00fade Bananal"}}, {"type": "node", "id": 2044331920, "lat": -28.3938416, "lon": -53.9100967, "tags": {"addr:housenumber": "152", "addr:postcode": "98700-000", "addr:street": "Avenida David Jos\u00e9 Martins", "addr:suburb": "Centro", "amenity": "hospital", "email": "fdinkoski@hci.org.br", "emergency": "yes", "fax": "+55 55 3331 9301", "healthcare": "hospital", "name": "Hospital de Caridade de Ijui", "phone": "+55 55 3331 9300", "ref:CNES": "2261057", "ref:vatin": "BR90730508000138"}}, {"type": "node", "id": 2045561733, "lat": -28.3940681, "lon": -53.8994752, "tags": {"amenity": "hospital", "name": "Hospital Bom Pastor"}}, {"type": "node", "id": 2050622888, "lat": -29.6951698, "lon": -54.671686, "tags": {"addr:housenumber": "386", "addr:postcode": "97420-000", "addr:street": "Rua Ant\u00f4nio Gomes", "addr:suburb": "Centro", "amenity": "hospital", "healthcare": "hospital", "name": "Hospital S\u00e3o Vicente", "operator:ref:vatin": "BR87572079000103", "phone": "+55 55 3257 2446", "ref:CNES": "2244136"}}, {"type": "node", "id": 2056170926, "lat": -29.607534, "lon": -52.1911678, "tags": {"addr:city": "Ven\u00e2ncio Aires", "addr:housenumber": "834", "addr:postcode": "95800-000", "addr:street": "Rua Tiradentes", "addr:suburb": "Centro", "amenity": "hospital", "description": "Hospital S\u00e3o Sebasti\u00e3o M\u00e1rtir", "emergency": "yes", "name": "Hospital S\u00e3o Sebasti\u00e3o M\u00e1rtir", "website": "https://hssm.com.br/"}}, {"type": "node", "id": 2083545886, "lat": -21.2848454, "lon": -50.342163, "tags": {"addr:housenumber": "1000", "addr:postcode": "16200-023", "addr:street": "Avenida Jo\u00e3o Cernach", "amenity": "hospital", "healthcare": "hospital", "healthcare:speciality": "general", "name": "Unimed Birigui", "operator": "Unimed", "operator:ref:vatin": "BR65732836000126", "operator:wikidata": "Q7865295", "ref:CNES": "3689972", "ref:vatin": "BR65732836000398"}}, {"type": "node", "id": 2092668882, "lat": -22.1728652, "lon": -51.3951121, "tags": {"amenity": "hospital", "healthcare": "hospital", "name": "Hospital Psiqui\u00e1trico Esp\u00edrita Bezerra de Menezes"}}, {"type": "node", "id": 2103186527, "lat": -27.3565563, "lon": -53.5566017, "tags": {"addr:city": "Palmitinho", "addr:housenumber": "320", "addr:postcode": "98430-000", "addr:street": "Rua Carlos Gomes", "addr:suburb": "Centro", "amenity": "hospital", "healthcare": "hospital", "name": "Hospital Santa Terezinha", "phone": "+55 55 3791 1150", "ref:CNES": "2228580", "ref:vatin": "BR87664793000121"}}, {"type": "node", "id": 2124088298, "lat": -21.0393655, "lon": -57.8700339, "tags": {"amenity": "hospital", "healthcare": "hospital"}}, {"type": "node", "id": 2127242885, "lat": -29.0927507, "lon": -56.5499502, "tags": {"addr:city": "Alvear", "addr:housenumber": "1248", "addr:postcode": "3344", "addr:street": "Manuel Belgrano", "amenity": "hospital", "emergency": "yes", "fax": "+54 03772 470128", "healthcare": "hospital", "name": "Hospital Doctor Miguel Sussini", "operator": "Hospital Doctor Miguel Sussini", "phone": "+54 3772 470005;+54 3772 470011"}}, {"type": "node", "id": 2127978371, "lat": -27.8720252, "lon": -54.4765124, "tags": {"addr:city": "Santa Rosa", "addr:housenumber": "980", "addr:postcode": "98780-127", "addr:street": "Rua Santa Rosa", "addr:suburb": "Centro", "amenity": "hospital", "healthcare": "hospital", "name": "Associacao Beneficente Dom Bosco", "ref:CNES": "3017060", "ref:vatin": "BR95815668000284"}}, {"type": "node", "id": 2127978374, "lat": -27.8668307, "lon": -54.4855179, "tags": {"addr:city": "Santa Rosa", "addr:housenumber": "656", "addr:postcode": "98780-803", "addr:street": "Rua Doutor Francisco Timm", "addr:suburb": "Centro", "amenity": "hospital", "healthcare": "hospital", "name": "Hospital Vida e Sa\u00fade", "ref:CNES": "2254611", "ref:vatin": "BR95815668000101"}}, {"type": "node", "id": 2225656445, "lat": -23.3263672, "lon": -51.128749, "tags": {"amenity": "hospital", "healthcare": "hospital", "name": "Hospital Universit\u00e1rio"}}, {"type": "node", "id": 2238450448, "lat": -23.8493019, "lon": -50.1902422, "tags": {"amenity": "hospital", "name": "Hospital de Miseric\u00f3rdia S\u00e3o Jo\u00e3o Batista"}}, {"type": "node", "id": 2238562858, "lat": -23.8489044, "lon": -50.1850253, "tags": {"amenity": "hospital"}}, {"type": "node", "id": 2247445684, "lat": -26.081726, "lon": -53.0514427, "tags": {"amenity": "hospital", "healthcare": "hospital", "name": "Clinica Doutor C\u00edcero Bezerra de Lima"}}, {"type": "node", "id": 2247445691, "lat": -26.083307, "lon": -53.0525118, "tags": {"amenity": "hospital", "healthcare": "hospital", "name": "Clinica de Olhos"}}, {"type": "node", "id": 2258428441, "lat": -23.661974, "lon": -51.9823995, "tags": {"amenity": "hospital", "healthcare": "hospital"}}, {"type": "node", "id": 2280262964, "lat": -22.7543028, "lon": -51.3832551, "tags": {"amenity": "hospital", "healthcare": "hospital"}}, {"type": "node", "id": 2280281497, "lat": -22.7508275, "lon": -51.3809699, "tags": {"amenity": "hospital", "healthcare": "hospital"}}, {"type": "node", "id": 2303347838, "lat": -23.4171966, "lon": -51.4308838, "tags": {"amenity": "hospital", "emergency": "yes", "healthcare": "hospital", "name": "Hospital Santa Casa"}}, {"type": "node", "id": 2321337562, "lat": -24.6506621, "lon": -50.8541764, "tags": {"amenity": "hospital", "healthcare": "hospital", "name": "Hospital Municipal"}}, {"type": "node", "id": 2324964254, "lat": -28.2099507, "lon": -51.5213193, "tags": {"amenity": "hospital", "name": "Hospital S\u00e3o Paulo"}}, {"type": "node", "id": 2329506615, "lat": -23.280963, "lon": -52.5998355, "tags": {"amenity": "hospital", "healthcare": "hospital", "name": "Posto de Saude"}}, {"type": "node", "id": 2338852112, "lat": -20.3739321, "lon": -54.5471103, "tags": {"amenity": "hospital", "name": "Hospital S\u00e3o Juli\u00e3o"}}, {"type": "node", "id": 2349898010, "lat": -28.2410093, "lon": -59.448598, "tags": {"amenity": "hospital", "emergency": "yes", "healthcare": "hospital", "name": "Carlos Harteneck"}}, {"type": "node", "id": 2358174964, "lat": -23.4223193, "lon": -51.947105, "tags": {"amenity": "hospital", "healthcare": "hospital", "name": "Hospital e Maternidade Maring\u00e1"}}, {"type": "node", "id": 2358174967, "lat": -23.4260952, "lon": -51.9187327, "tags": {"amenity": "hospital", "healthcare": "hospital", "name": "Santa Casa de Maring\u00e1", "website": "https://www.santacasamaringa.com.br/"}}, {"type": "node", "id": 2371111343, "lat": -25.4119054, "lon": -50.0006522, "tags": {"amenity": "hospital", "name": "Hospital Madre Tereza de Calcut\u00e1"}}, {"type": "node", "id": 2374935591, "lat": -27.4649221, "lon": -58.9712684, "tags": {"addr:city": "Resistencia", "addr:housenumber": "1698", "addr:postcode": "3500", "addr:street": "Avenida 9 de Julio", "alt_name": "C M Q R Centro Medico Quirurgico Resistencia", "amenity": "hospital", "healthcare": "hospital", "name": "Centro M\u00e9dico Quir\u00fargico Resistencia", "operator": "Privado", "operator:type": "private", "phone": "+54 362 4413309", "ref:sisa_codigo": "10221402326935", "ref:sisa_tipologia": "ESCIG", "wikidata": "Q94580046"}}, {"type": "node", "id": 2378390157, "lat": -27.6290816, "lon": -54.3009019, "tags": {"addr:city": "Horizontina", "addr:housenumber": "154", "addr:postcode": "98920-000", "addr:street": "Rua Osvaldo Cruz", "addr:suburb": "Centro", "amenity": "hospital", "emergency": "yes", "healthcare": "hospital", "name": "Hospital Oswaldo Cruz", "ref:CNES": "2250772", "ref:vatin": "BR89431092000178"}}, {"type": "node", "id": 2382838133, "lat": -27.7264657, "lon": -54.1298655, "tags": {"amenity": "hospital", "emergency": "yes", "name": "Hospital S\u00e3o Francisco de Assis"}}, {"type": "node", "id": 2383439502, "lat": -29.3895192, "lon": -51.8691354, "tags": {"amenity": "hospital", "emergency": "no"}}, {"type": "node", "id": 2383458317, "lat": -29.3238792, "lon": -51.7449799, "tags": {"amenity": "hospital"}}, {"type": "node", "id": 2383598530, "lat": -23.6208615, "lon": -50.1707716, "tags": {"amenity": "hospital", "name": "Hospital Anita Canet"}}, {"type": "node", "id": 2383850492, "lat": -29.4219492, "lon": -51.5149146, "tags": {"addr:city": "S\u00e3o Pedro da Serra", "addr:postcode": "95758-000", "addr:street": "Avenida Duque de Caxias", "amenity": "hospital"}}, {"type": "node", "id": 2387750018, "lat": -29.5520065, "lon": -51.7339361, "tags": {"amenity": "hospital", "name": "Hospital S\u00e3o Jo\u00e3o"}}, {"type": "node", "id": 2393054806, "lat": -27.3603763, "lon": -53.3976576, "tags": {"amenity": "hospital", "healthcare": "hospital"}}, {"type": "node", "id": 2393442456, "lat": -27.452156, "lon": -59.0138853, "tags": {"addr:city": "Resistencia", "addr:full": "Avenida Marconi 1486", "addr:housenumber": "1486", "addr:postcode": "3500", "addr:street": "Avenida Marconi", "alt_name": "Sanatorio Chaco S.r.l. Sucursal Oeste", "amenity": "hospital", "healthcare": "hospital", "name": "Sanatorio Chaco Oeste", "operator": "Privado", "operator:type": "private", "phone": "+54 362 4462566", "ref:sisa_codigo": "10221402326077", "ref:sisa_tipologia": "ESCIG", "wikidata": "Q94580908"}}, {"type": "node", "id": 2398916228, "lat": -29.7681586, "lon": -51.1502918, "tags": {"addr:housenumber": "1050", "addr:postcode": "93025-630", "addr:street": "Rua Concei\u00e7\u00e3o", "addr:suburb": "Centro", "amenity": "hospital", "healthcare": "hospital", "name": "Hospital Dia e Pronto Atendimento Unimed Vale do Sinos", "ref:CNES": "7233086", "ref:vatin": "BR88258884000391"}}, {"type": "node", "id": 2414622647, "lat": -28.266812, "lon": -58.122656, "tags": {"addr:full": "Avenida 25 de Mayo y Avenida Tucum\u00e1n", "amenity": "hospital", "contact:phone": "+54 3782 494401", "description": "Bajo riesgo con internaci\u00f3n simple", "healthcare": "hospital", "healthcare:speciality": "general", "name": "Hospital Santa Rosa", "operator:type": "public", "ref:sisa_codigo": "10180282139059", "ref:sisa_tipologia": "ESCIG"}}, {"type": "node", "id": 2428487863, "lat": -25.2148234, "lon": -50.9768825, "tags": {"amenity": "hospital", "healthcare": "hospital", "name": "Hospital Santa Casa"}}, {"type": "node", "id": 2428487871, "lat": -25.2139299, "lon": -50.9733597, "tags": {"amenity": "hospital", "healthcare": "hospital", "name": "Hospital Sagrado"}}, {"type": "node", "id": 2428510504, "lat": -25.2111055, "lon": -50.9719596, "tags": {"amenity": "hospital", "healthcare": "hospital"}}, {"type": "node", "id": 2438984095, "lat": -29.6664206, "lon": -52.7924677, "tags": {"addr:housenumber": "1279", "addr:postcode": "96930-000", "addr:street": "Avenida Marechal Deodoro", "addr:suburb": "Centro", "amenity": "hospital", "healthcare": "hospital", "name": "Hospital Candel\u00e1ria", "phone": "+55 51 3743 1511", "ref:CNES": "2236362", "ref:vatin": "BR88163084000125"}}, {"type": "node", "id": 2444037637, "lat": -23.7696696, "lon": -52.4488875, "tags": {"amenity": "hospital", "emergency": "yes", "healthcare": "hospital", "name": "Hospital Municipal S\u00e3o Judas Tadel"}}, {"type": "node", "id": 2446093539, "lat": -23.7662594, "lon": -52.4483666, "tags": {"amenity": "hospital", "healthcare": "hospital", "name": "Santa Casa"}}, {"type": "node", "id": 2453506112, "lat": -23.3790778, "lon": -50.8410149, "tags": {"access": "public", "amenity": "hospital", "name": "Hospital Municipal"}}, {"type": "node", "id": 2460553290, "lat": -27.5071624, "lon": -54.3642769, "tags": {"amenity": "hospital", "emergency": "yes", "healthcare": "hospital", "name": "Hospital Municipal"}}, {"type": "node", "id": 2468991707, "lat": -22.141992, "lon": -51.399425, "tags": {"addr:housenumber": "3758", "addr:postcode": "19050-230", "addr:street": "Avenida Coronel Jos\u00e9 Soares Marcondes", "amenity": "hospital", "email": "hepp-aih@saude.sp.gov.br", "fax": "+55 18 3908 5055", "healthcare": "hospital", "name": "Hospital Estadual de Presidente Prudente", "operator:ref:vatin": "BR46374500000194", "phone": "+55 18 3908 4422", "ref:CNES": "2750511", "ref:vatin": "BR46374500012605"}}, {"type": "node", "id": 2492273793, "lat": -27.945011, "lon": -52.9180233, "tags": {"amenity": "hospital"}}, {"type": "node", "id": 2507495406, "lat": -25.2450692, "lon": -53.9801779, "tags": {"amenity": "hospital", "healthcare": "hospital", "name": "Hospital Nossa Senhora do Caravaggio"}}, {"type": "node", "id": 2507520477, "lat": -25.2392843, "lon": -53.9878936, "tags": {"amenity": "hospital", "healthcare": "hospital", "name": "Hospital Padre Tezza"}}, {"type": "node", "id": 2537337948, "lat": -24.9902255, "lon": -54.2158972, "tags": {"amenity": "hospital", "emergency": "no", "healthcare": "hospital", "name": "Unidade S\u00b4a\u00fade S\u00e3o Roque"}}, {"type": "node", "id": 2542347158, "lat": -27.2114456, "lon": -59.2872561, "tags": {"addr:city": "Makall\u00e9", "addr:full": "Avenida Juan Bautista Alberdi Y Sargento Cabral", "addr:postcode": "3514", "addr:street": "Juan Bautista Alberdi", "amenity": "hospital", "healthcare": "hospital", "name": "Hospital General Donovan", "operator": "Provincial", "operator:type": "public", "phone": "+54 362 4495018", "ref:sisa_codigo": "10220562126055", "ref:sisa_tipologia": "ESCIG", "wikidata": "Q94580862"}}, {"type": "node", "id": 2558011700, "lat": -28.3481221, "lon": -59.2583489, "tags": {"addr:city": "Las Toscas", "addr:housenumber": "450", "addr:postcode": "3586", "addr:street": "Calle 31", "amenity": "hospital", "emergency": "yes", "healthcare": "hospital", "name": "SAMCO Las Toscas", "phone": "+54 3482 492134; +54 3482 492311", "wikidata": "Q97691225"}}, {"type": "node", "id": 2589815108, "lat": -24.7239659, "lon": -53.7123661, "tags": {"amenity": "hospital", "healthcare": "hospital", "name": "Unidade B\u00e1sica de Sa\u00fade Jardim Conc\u00f3rdia"}}, {"type": "node", "id": 2613102628, "lat": -27.9817443, "lon": -55.5137189, "tags": {"addr:city": "Concepci\u00f3n de la Sierra", "addr:postcode": "3355", "addr:street": "Avenida Gonzalo de Doblas", "amenity": "hospital", "description": "Hospital zonal de Nivel 1", "emergency": "yes", "healthcare": "hospital", "name": "Hospital de Concepci\u00f3n de la Sierra", "source": "Neco Barrios y Asociados para el \"Gran Atlas de Misiones\" (IPEC, 2012)."}}, {"type": "node", "id": 2615812080, "lat": -24.9743188, "lon": -56.2999564, "tags": {"addr:city": "Mbutuy", "addr:street": "Invernada", "amenity": "hospital", "emergency": "no", "healthcare": "hospital", "name": "Centro de Salud Mbutuy"}}, {"type": "node", "id": 2616451096, "lat": -25.1511722, "lon": -55.5996927, "tags": {"amenity": "hospital", "emergency": "yes", "healthcare": "hospital", "name": "Hospital Lucero"}}, {"type": "node", "id": 2638512431, "lat": -27.0755397, "lon": -52.1363504, "tags": {"amenity": "hospital", "healthcare": "hospital", "name": "Hospital S\u00e3o Camilo"}}, {"type": "node", "id": 2652322545, "lat": -20.2708252, "lon": -50.5525318, "tags": {"addr:city": "Jales", "addr:housenumber": "2049", "addr:postcode": "15700-082", "addr:street": "Avenida Jo\u00e3o Amadeu", "addr:suburb": "Centro", "amenity": "hospital", "name": "Santa Casa", "phone": "+55 17 3622 5000"}}, {"type": "node", "id": 2652322547, "lat": -20.2619758, "lon": -50.5577061, "tags": {"addr:housenumber": "3737", "addr:postcode": "15706-396", "addr:street": "Avenida Francisco Jales", "amenity": "hospital", "name": "Hospital de C\u00e2ncer de Jales", "phone": "+55 17 3624-3900", "short_name": "Hospital de C\u00e2ncer", "website": "https://www.hcancerbarretos.com.br/hospital-de-cancer-de-jales"}}, {"type": "node", "id": 2678329245, "lat": -28.6582153, "lon": -55.9979416, "tags": {"addr:city": "S\u00e3o Borja", "addr:housenumber": "1440", "addr:street": "Avenida Presidente Vargas", "addr:suburb": "Centro", "amenity": "hospital", "healthcare": "hospital", "name": "Hospital Ivan Gularte", "ref:CNES": "2248298"}}, {"type": "node", "id": 2717272692, "lat": -27.3203779, "lon": -58.5757325, "tags": {"addr:city": "Paso de la Patria", "addr:housenumber": "555", "addr:postcode": "3409", "addr:street": "Mendoza", "amenity": "hospital", "healthcare": "hospital", "name": "Hospital Doctor Cicconeti"}}, {"type": "node", "id": 2791824099, "lat": -25.4654067, "lon": -56.0098417, "tags": {"amenity": "hospital", "building:levels": "2", "healthcare": "hospital", "name": "IPS Caaguaz\u00fa"}}, {"type": "node", "id": 2799810654, "lat": -22.7722815, "lon": -53.2668124, "tags": {"addr:street": "Rua Waldemar Teixeira de Farias", "amenity": "hospital", "healthcare": "hospital"}}, {"type": "node", "id": 2800312574, "lat": -26.9267019, "lon": -59.5213577, "tags": {"addr:city": "Colonia Elisa", "addr:housenumber": "462", "addr:street": "Avenida San Mart\u00edn", "amenity": "hospital", "healthcare": "hospital", "name": "Hospital Sargento Cabral", "wikidata": "Q94580886"}}, {"type": "node", "id": 2839639063, "lat": -21.467139, "lon": -54.3789806, "tags": {"addr:city": "Nova Alvorada do Sul", "addr:housenumber": "641", "addr:postcode": "79140-000", "addr:street": "Avenida Irineu de Souza Araujo", "addr:suburb": "Jardim Eldorado", "amenity": "hospital", "healthcare": "hospital", "name": "Hospital Municipal Francisca Ortega", "phone": "+55 67 3456 2111"}}, {"type": "node", "id": 2843252995, "lat": -23.1885429, "lon": -52.1959307, "tags": {"amenity": "hospital", "healthcare": "hospital", "name": "Hospital Municipal Sagrado Cora\u00e7\u00e3o de Jesus"}}, {"type": "node", "id": 2901522860, "lat": -29.7748958, "lon": -55.7910314, "tags": {"amenity": "hospital", "emergency": "yes", "healthcare": "hospital", "name": "Hospital da Santa Casa Caridade", "ref:CNES": "2248328"}}, {"type": "node", "id": 2916658668, "lat": -28.59357, "lon": -51.7868564, "tags": {"addr:city": "Para\u00ed", "addr:housenumber": "15", "addr:postcode": "95360-000", "addr:street": "Rua Henrique Lenzi", "addr:suburb": "Centro", "amenity": "hospital", "emergency": "yes", "healthcare": "hospital", "name": "Hospital Beneficente Nossa Senhora Aparecida", "operator": "HOSPITAL BENEFICENTE NOSSA SENHORA APARECIDA", "operator:type": "community", "ref:CNES": "2241218", "ref:vatin": "BR91617407000118"}}, {"type": "node", "id": 2922789023, "lat": -27.7483398, "lon": -57.621724, "tags": {"addr:city": "Ca\u00e1 Cat\u00ed", "addr:housenumber": "253", "addr:postcode": "3407", "addr:street": "Alberdi", "amenity": "hospital", "contact:facebook": "https://www.facebook.com/Hospital-San-Vicente-De-Paul-1753045484990242/", "healthcare": "hospital", "name": "San Vicente de Paul"}}, {"type": "node", "id": 2950123792, "lat": -21.1314344, "lon": -56.4765243, "tags": {"addr:city": "Bonito", "addr:housenumber": "201", "addr:postcode": "79290-000", "addr:street": "Rua S\u00e3o Pedro Ap\u00f3stolo", "amenity": "hospital", "emergency": "yes", "healthcare": "hospital", "name": "Darcy Jo\u00e3o Bigaton", "ref:CNES": "2376474", "ref:vatin": "BR01201051000144"}}, {"type": "node", "id": 2959404962, "lat": -25.8788282, "lon": -52.9032864, "tags": {"amenity": "hospital", "emergency": "yes", "healthcare": "hospital", "name": "Hospital dos Trabalhadores Rurais de Ver\u00ea"}}, {"type": "node", "id": 2962084028, "lat": -25.8821004, "lon": -52.9094043, "tags": {"amenity": "hospital", "emergency": "no", "healthcare": "hospital", "name": "Posto de Sa\u00fade de Ver\u00ea"}}, {"type": "node", "id": 2969415992, "lat": -24.5287251, "lon": -53.2556679, "tags": {"amenity": "hospital", "healthcare": "hospital", "name": "Hospital Doutor Aur\u00e9lio"}}, {"type": "node", "id": 3072877009, "lat": -29.6926106, "lon": -51.4634123, "tags": {"amenity": "hospital", "healthcare": "hospital", "name": "Posto de sa\u00fade"}}, {"type": "node", "id": 3098133442, "lat": -24.7596913, "lon": -53.7357952, "tags": {"amenity": "hospital", "healthcare": "hospital", "name": "Unidade B\u00e1sica de Sa\u00fade Panorama"}}, {"type": "node", "id": 3101282456, "lat": -29.8753528, "lon": -54.8244133, "tags": {"amenity": "hospital", "name": "Instituto de Sa\u00fade e Educa\u00e7\u00e3o Vida de Cacequi - ISEV"}}, {"type": "node", "id": 3163967350, "lat": -27.0759777, "lon": -53.2462969, "tags": {"addr:housenumber": "630", "addr:street": "Rua Machado de Assis", "addr:suburb": "Centro", "alt_name": "Hospital Caibi", "amenity": "hospital", "description": "Hospital filantr\u00f3pico de utilidade p\u00fablica conveniado ao Sistema \u00danico de Sa\u00fade (SUS), a planos de sa\u00fade suplementar ou com atendimento particular.", "healthcare": "hospital", "name": "Hospital Beneficente S\u00e3o Jos\u00e9", "network": "Sistema \u00danico de Sa\u00fade", "network:short": "SUS", "network:website": "https://conectesus.saude.gov.br/", "network:wikidata": "Q7531056", "network:wikipedia": "pt:Sistema \u00danico de Sa\u00fade", "opening_hours": "24/7", "operator": "Instituto Sant\u00e9", "operator:type": "ngo", "operator:website": "https://institutosante.com.br/", "ownership": "private_nonprofit", "phone": "+55-49-3648-0111"}}, {"type": "node", "id": 3211897543, "lat": -22.3787949, "lon": -59.8319069, "tags": {"amenity": "hospital", "building:levels": "1", "emergency": "yes", "healthcare": "hospital", "name": "Hospital Loma Plata", "name:de": "Krankenhaus Loma Plata"}}, {"type": "node", "id": 3213142038, "lat": -29.6405606, "lon": -51.0069225, "tags": {"addr:city": "Sapiranga", "addr:housenumber": "527", "addr:postcode": "93800-048", "addr:street": "Rua Get\u00falio Vargas", "addr:suburb": "Centro", "amenity": "hospital", "contact:facebook": "https://www.facebook.com/hospitalsapiranga", "contact:instagram": "https://www.instagram.com/hospitalsapiranga/", "contact:twitter": "https://twitter.com/hospsbs", "contact:youtube": "https://www.youtube.com/channel/UCOno_W7-97AGreB160dFrTw", "emergency": "yes", "healthcare": "hospital", "name": "Hospital Sapiranga", "operator": "Sociedade Beneficente Sapiranguense", "operator:type": "private_non_profit", "phone": "+55 51 3599-8100", "ref:CNES": "2232154", "ref:vatin": "BR97279350000170", "website": "https://www.hospitalsapiranga.com.br/", "wheelchair": "yes"}}, {"type": "node", "id": 3237949061, "lat": -25.325374, "lon": -57.5467059, "tags": {"amenity": "hospital", "healthcare": "hospital", "name": "Clinica Nikkei"}}, {"type": "node", "id": 3263274973, "lat": -27.9033031, "lon": -55.1395076, "tags": {"addr:housenumber": "555", "addr:postcode": "98995-000", "addr:street": "Rua Doutor Osvaldo Cruz", "amenity": "hospital", "contact:email": "hospital@viacom.com.br", "contact:fax": "+55 55 3354 1083", "contact:phone": "+55 55 3354 1234", "emergency": "no", "healthcare": "hospital", "name": "Hospital de Caridade Nossa Senhora dos Navegantes", "ref:CNES": "2259982", "ref:vatin": "BR87617874000170"}}, {"type": "node", "id": 3281421030, "lat": -29.6425918, "lon": -53.2504528, "tags": {"amenity": "hospital"}}, {"type": "node", "id": 3358845597, "lat": -23.6189644, "lon": -53.2065836, "tags": {"addr:street": "Avenida Paran\u00e1", "amenity": "hospital", "healthcare": "hospital", "name": "Pronto Atendimento de Maria Helena"}}, {"type": "node", "id": 3358877302, "lat": -23.6258435, "lon": -53.2091299, "tags": {"amenity": "hospital", "healthcare": "hospital", "name": "Atendimento Hospitalar"}}, {"type": "node", "id": 3402733896, "lat": -29.490354, "lon": -51.3561184, "tags": {"amenity": "hospital", "healthcare": "hospital", "name": "Hospital S\u00e3o Pedro Can\u00edsio"}}, {"type": "node", "id": 3449305123, "lat": -29.2539683, "lon": -51.5338548, "tags": {"addr:city": "Garibaldi", "addr:housenumber": "7", "addr:postcode": "95720-000", "addr:street": "Travessa 31 de Outubro", "addr:suburb": "Centro", "amenity": "hospital", "email": "hbsp@hbsp.com.br", "fax": "+55 54 3464 9700", "healthcare": "hospital", "name": "Hospital S\u00e3o Pedro", "phone": "+55 54 3464 9700", "ref:CNES": "2257645", "ref:vatin": "BR90052804000127", "website": "http://www.hbsp.com.br/"}}, {"type": "node", "id": 3454448705, "lat": -25.3250452, "lon": -57.5297482, "tags": {"amenity": "hospital", "emergency": "no", "healthcare": "hospital", "name": "Fundaci\u00f3n Visi\u00f3n"}}, {"type": "node", "id": 3472131549, "lat": -25.1050961, "lon": -51.8089397, "tags": {"amenity": "hospital"}}, {"type": "node", "id": 3473133692, "lat": -26.1928469, "lon": -58.1693178, "tags": {"amenity": "hospital", "healthcare": "hospital", "name": "C.E.T.E.M."}}, {"type": "node", "id": 3570390493, "lat": -27.3921809, "lon": -52.5662949, "tags": {"amenity": "hospital", "healthcare": "hospital"}}, {"type": "node", "id": 3586617396, "lat": -26.2027809, "lon": -59.0744972, "tags": {"addr:city": "Mayor Villafa\u00f1e", "addr:postcode": "3609", "addr:street": "Almirante Browm", "amenity": "hospital", "emergency": "yes", "healthcare": "hospital", "name": "Hospital Doctor Justo Pastor Monjelos Benitez", "official_name": "Hospital P\u00fablico Doctor Justo Pastor Monjelos Benitez"}}, {"type": "node", "id": 3648050736, "lat": -26.9882666, "lon": -54.4770993, "tags": {"addr:city": "San Vicente", "addr:postcode": "3356", "addr:street": "Ruta Nacional 14", "alt_name": "Hospital De San Vicente - Nivel Ii", "amenity": "hospital", "emergency": "yes", "healthcare": "hospital", "name": "Hospital SAMIC de San Vicente", "phone": "+54 3755 461840", "ref:ZonaSanitaria": "Noreste", "ref:cuie_codigo": "N03168", "ref:sisa_codigo": "10540562164441", "ref:sisa_tipologia": "ESCIG"}}, {"type": "node", "id": 3648887420, "lat": -26.2321945, "lon": -54.6043156, "tags": {"addr:city": "Colonia Delicia", "addr:housenumber": "12", "addr:postcode": "3381", "addr:street": "Avenida Jos\u00e9 Invernizzi", "amenity": "hospital", "emergency": "yes", "fixme": "Verificar la posicion exacta", "healthcare": "hospital", "name": "Hospital de Colonia Delicia", "phone": "+54 3751 427777", "ref:ZonaSanitaria": "Norte Paran\u00e1", "ref:cuie_codigo": "N05179", "ref:sisa_codigo": "10540422164507", "ref:sisa_tipologia": "ESCIG", "source": "http://www.salud.misiones.gov.ar/index.php/red-sanitaria/hospitales"}}, {"type": "node", "id": 3649621234, "lat": -28.8815005, "lon": -51.6977402, "tags": {"amenity": "hospital", "name": "Hospital Santo Ant\u00f4nio"}}, {"type": "node", "id": 3649750258, "lat": -29.1106221, "lon": -52.0697181, "tags": {"addr:city": "Relvado", "amenity": "hospital", "name": "Hospital Beneficiente Santo Ant\u00f4nio de Relvado", "source": "Bing;IBGE"}}, {"type": "node", "id": 3651243909, "lat": -28.6450419, "lon": -54.1238386, "tags": {"amenity": "hospital"}}, {"type": "node", "id": 3651757465, "lat": -27.7037117, "lon": -52.4230098, "tags": {"addr:city": "Paulo Bento", "amenity": "hospital", "emergency": "no", "source": "Bing;IBGE"}}, {"type": "node", "id": 3657731931, "lat": -25.4366082, "lon": -53.4087744, "tags": {"amenity": "hospital", "healthcare": "hospital"}}, {"type": "node", "id": 3659043803, "lat": -27.7681279, "lon": -55.7807166, "tags": {"addr:city": "San Jos\u00e9", "addr:housenumber": "829", "addr:postcode": "3307", "addr:street": "Islas Malvinas Argentinas", "ambulance": "1", "amenity": "hospital", "healthcare": "hospital", "name": "Hospital de San Jos\u00e9", "phone": "+54 3758 492213", "ref:ZonaSanitaria": "Sur", "ref:cuie_codigo": "N05162", "ref:nivel": "I", "ref:sisa_codigo": "10540072164418", "ref:sisa_tipologia": "ESCIG", "source": "http://www.salud.misiones.gov.ar/index.php/red-sanitaria/hospitales"}}, {"type": "node", "id": 3662280169, "lat": -28.1336735, "lon": -55.0273493, "tags": {"addr:housenumber": "117", "addr:postcode": "97970-000", "addr:street": "Rua Monsenhor Estanislau Wolski", "amenity": "hospital", "contact:email": "hospitalcsa@viacom.com.br", "contact:fax": "+55 55 3365 1439", "contact:phone": "+55 55 3365 1439", "healthcare": "hospital", "name": "Hospital Santo Antonio Roque Gonzales", "ref:CNES": "2259974", "ref:vatin": "BR88896774000193"}}, {"type": "node", "id": 3669038399, "lat": -29.6855187, "lon": -53.8268436, "tags": {"addr:housenumber": "190", "addr:postcode": "97010-290", "addr:street": "Rua Marechal Hermes", "alt_name": "Hospital de Guarni\u00e7\u00e3o de Santa Maria", "amenity": "hospital", "emergency": "yes", "healthcare": "hospital", "healthcare:speciality": "general", "name": "Hospital Geral de Santa Maria", "operator": "Ex\u00e9rcito Brasileiro", "phone": "+55 55 3220-2400", "ref:CNES": "2244268", "short_name": "H Ge SM", "website": "http://www.hgesm.eb.mil.br/", "wheelchair": "yes"}}, {"type": "node", "id": 3701908630, "lat": -25.2514402, "lon": -57.4988828, "tags": {"amenity": "hospital", "healthcare": "hospital", "name": "Puesto de Salud"}}, {"type": "node", "id": 3705964913, "lat": -26.4447187, "lon": -53.5966441, "tags": {"amenity": "hospital", "healthcare": "hospital"}}, {"type": "node", "id": 3708699582, "lat": -26.3960999, "lon": -53.0884285, "tags": {"amenity": "hospital", "healthcare": "hospital"}}, {"type": "node", "id": 3712711232, "lat": -22.1649786, "lon": -53.7737612, "tags": {"amenity": "hospital"}}, {"type": "node", "id": 3714063583, "lat": -26.345067, "lon": -53.2828777, "tags": {"amenity": "hospital", "healthcare": "hospital", "name": "Hospital Palma Sola"}}, {"type": "node", "id": 3726083522, "lat": -23.3200755, "lon": -51.5516366, "tags": {"amenity": "hospital", "healthcare": "hospital"}}, {"type": "node", "id": 3729098770, "lat": -24.1427621, "lon": -51.5082042, "tags": {"amenity": "hospital", "healthcare": "hospital", "name": "Hospital Municipal"}}, {"type": "node", "id": 3732350953, "lat": -25.2285866, "lon": -58.1150779, "tags": {"addr:city": "Laguna Naick Neck", "addr:street": "Almirante Brown", "amenity": "hospital", "healthcare": "hospital"}}, {"type": "node", "id": 3732363562, "lat": -29.9107529, "lon": -59.8263048, "tags": {"addr:street": "9 de julio", "amenity": "hospital", "healthcare": "hospital", "name": "Hospital Rural N\u00ba 11,"}}, {"type": "node", "id": 3734866197, "lat": -26.3857975, "lon": -53.5294387, "tags": {"amenity": "hospital", "healthcare": "hospital"}}, {"type": "node", "id": 3741879737, "lat": -26.3087165, "lon": -59.3679738, "tags": {"addr:city": "El Colorado", "addr:postcode": "3603", "addr:street": "Santa Fe", "amenity": "hospital", "healthcare": "hospital", "name": "Hospital Regional Santiago Opizzo Traverso"}}, {"type": "node", "id": 3771296780, "lat": -26.493987, "lon": -53.2800667, "tags": {"amenity": "hospital"}}, {"type": "node", "id": 3789266458, "lat": -23.4957667, "lon": -50.6489408, "tags": {"amenity": "hospital", "name": "Hospital de Santo Antonio do Para\u00edso"}}, {"type": "node", "id": 3792086999, "lat": -25.2830929, "lon": -54.0972926, "tags": {"addr:city": "medianeira", "addr:housenumber": "600", "addr:postcode": "85884000", "addr:street": "Avenida Bras\u00edlia", "amenity": "hospital", "dispensing": "yes", "healthcare": "hospital", "name": "Hospital S\u00e3o Carlos", "toilets:wheelchair": "yes"}}, {"type": "node", "id": 3803748054, "lat": -26.2300428, "lon": -52.6742728, "tags": {"addr:city": "Pato Branco", "addr:housenumber": "438", "addr:street": "Avenida Brasil", "amenity": "hospital", "healthcare": "hospital", "name": "Thereza Mussi Hospital"}}, {"type": "node", "id": 3818002875, "lat": -25.2038083, "lon": -58.2550733, "tags": {"amenity": "hospital", "healthcare": "hospital", "name": "Sala de Primeros Auxilios"}}, {"type": "node", "id": 3818034958, "lat": -28.5403202, "lon": -56.0408147, "tags": {"addr:city": "santo tome", "addr:postcode": "3340", "addr:street": "Avenida Uruguay", "amenity": "hospital", "emergency": "yes", "healthcare": "hospital", "name": "Sala de Primeros auxilios Mima Correa"}}, {"type": "node", "id": 3819892156, "lat": -26.5382154, "lon": -59.3411091, "tags": {"addr:city": "General Jos\u00e9 de San Mart\u00edn", "addr:full": "Chile 470", "addr:housenumber": "470", "addr:postcode": "3509", "addr:street": "Chile", "amenity": "hospital", "healthcare": "hospital", "name": "Cl\u00ednica San Ramon", "official_name": "Cl\u00ednica San Ramon SRL", "operator": "Privado", "operator:type": "private", "phone": "+54 3725  420263", "ref:sisa_codigo": "10220842326017", "ref:sisa_tipologia": "ESCIG", "wikidata": "Q94580780"}}, {"type": "node", "id": 3826530347, "lat": -25.3467952, "lon": -59.61506, "tags": {"addr:city": "COMANDANTE FONTANA", "addr:postcode": "3620", "amenity": "hospital", "healthcare": "hospital", "name": "Sala De Primeros Auxilios De Colonia Aborigen Bartolome De Las Casas"}}, {"type": "node", "id": 3836544150, "lat": -27.5649307, "lon": -56.6659696, "tags": {"amenity": "hospital", "healthcare": "hospital", "name": "Sala de Primeros Auxilios"}}, {"type": "node", "id": 3966772808, "lat": -23.2594608, "lon": -51.1539617, "tags": {"amenity": "hospital", "name": "Hospital Zona Norte"}}, {"type": "node", "id": 3984356506, "lat": -25.2929259, "lon": -57.602993, "tags": {"addr:city": "Asunci\u00f3n, Paraguay", "addr:housenumber": "1806", "addr:street": "mariscal Francisco Solano L\u00f3pez", "addr:street_1": "Juscelino Kubitschek", "amenity": "hospital", "healthcare": "hospital", "name": "Direccion General de Sanidad (Policia Nacional - Paraguay)"}}, {"type": "node", "id": 3994349960, "lat": -28.0543402, "lon": -56.0148507, "tags": {"addr:city": "Gobernador Ingeniero Valent\u00edn Virasoro", "addr:postcode": "3342", "addr:street": "Avenida Lavalle", "amenity": "hospital", "healthcare": "hospital", "name": "Hospital Dr. Miguel Sussini", "phone": "+54 3756 482811"}}, {"type": "node", "id": 3999531311, "lat": -24.0399661, "lon": -52.3832922, "tags": {"addr:street": "Rua Francisco Albuquerque, 1999", "amenity": "hospital", "healthcare": "hospital", "name": "Secretaria de Sa\u00fade", "operator": "A"}}, {"type": "node", "id": 4014444412, "lat": -23.4373167, "lon": -51.8757265, "tags": {"addr:housenumber": "65", "addr:street": "Avenida Dom Pedro I", "amenity": "hospital", "beds": "180", "healthcare": "hospital", "name": "Hospital Metropolitano", "operator": "Rede de Assist\u00eancia \u00e0 Sa\u00fade Metropolitana", "phone": "+55-44-3264-8800", "website": "https://www.redemetropolitana.org.br/"}}, {"type": "node", "id": 4018794296, "lat": -29.6443505, "lon": -50.77829, "tags": {"addr:city": "Taquara", "addr:housenumber": "1042", "addr:postcode": "95600-000", "addr:street": "Rua General Emilio Esteves", "addr:suburb": "Sagrada Fam\u00edlia", "amenity": "hospital", "emergency": "yes", "healthcare": "hospital", "name": "Hospital Bom Jesus", "operator": "M\u00e2e de Deus", "phone": "+55 51 3542-3600", "ref:CNES": "2227932", "ref:vatin": "BR04994418000465", "wheelchair": "yes"}}, {"type": "node", "id": 4097219995, "lat": -26.0535881, "lon": -59.948159, "tags": {"addr:city": "Pampa del Indio", "addr:full": "Corrientes Y Malvinas Arg S/n", "addr:postcode": "3531", "addr:street": "Avenida Cacique Mayordomo", "amenity": "hospital", "description": "Edificio  Nuevo, cuenta con consultorios, laboratorio,sala de RX, sala de Kinesilog\u00eda, Sala odontol\u00f3gica.Matenidad, Farmacia.", "emergency": "yes", "healthcare": "hospital", "name": "Hospital Dante Tardelli", "operator": "Provincial", "operator:type": "public", "phone": "+54 3725 494106", "ref:sisa_codigo": "10220842126029", "ref:sisa_tipologia": "ESCIG", "wikidata": "Q94580809"}}, {"type": "node", "id": 4100251559, "lat": -26.0292998, "lon": -53.738608, "tags": {"amenity": "hospital", "healthcare": "hospital", "healthcare:speciality": "general", "name": "Funda\u00e7\u00e3o Hospitalar da Fronteira"}}, {"type": "node", "id": 4108426866, "lat": -29.790289, "lon": -58.0632009, "tags": {"addr:city": "Curuz\u00fa Cuati\u00e1", "addr:full": "Ber\u00f3n de Astrada y Comandante Andresito", "addr:housenumber": "1350", "addr:postcode": "3460", "addr:street": "Ber\u00f3n de Astrada", "amenity": "hospital", "healthcare": "hospital", "name": "Hospital Civil Dr. Fernando Irastorza", "phone": "(03774) 422811", "wheelchair": "yes"}}, {"type": "node", "id": 4112790623, "lat": -27.2040504, "lon": -54.9781561, "tags": {"addr:city": "Campo Grande", "addr:housenumber": "102", "addr:postcode": "3362", "addr:street": "Pasteur", "alt_name": "Unidad Sanitaria de Nivel I", "ambulance": "2", "amenity": "hospital", "description": "Categor\u00eda de tipolog\u00eda: Bajo riesgo con internaci\u00f3n simple", "email": "hospitalcampogrande@hotmail.com", "emergency": "yes", "healthcare": "hospital", "name": "Hospital de Campo Grande", "phone": "+54 3755 499190", "ref": "ESCIG", "ref:ZonaSanitaria": "Centro Uruguay", "ref:cuie_codigo": "N05176", "ref:nivel": "I", "ref:sisa_codigo": "10540142164424", "ref:sisa_tipologia": "ESCIG", "source": "http://www.salud.misiones.gov.ar/index.php/red-sanitaria/hospitales"}}, {"type": "node", "id": 4120149428, "lat": -29.6886727, "lon": -51.1127987, "tags": {"amenity": "hospital", "healthcare": "hospital", "name": "Hospital da Vis\u00e3o"}}, {"type": "node", "id": 4144474489, "lat": -29.7888321, "lon": -58.0487443, "tags": {"addr:city": "Curuz\u00fa Cuati\u00e1", "addr:housenumber": "859", "addr:postcode": "3460", "addr:street": "Juan Pujol", "amenity": "hospital", "emergency": "yes", "healthcare": "hospital", "name": "Emergencias M\u00e9dicas EMECUR", "phone": "+54 3774 424224"}}, {"type": "node", "id": 4157319510, "lat": -29.7889095, "lon": -58.0724443, "tags": {"addr:city": "Curuz\u00fa Cuati\u00e1", "addr:housenumber": "1849", "addr:postcode": "3460", "addr:street": "Avenida Rep\u00fablica Oriental del Uruguay", "amenity": "hospital", "healthcare": "hospital", "name": "Hospital Militar Curuz\u00fa Cuati\u00e1", "phone": "54 3774 42 2307"}}, {"type": "node", "id": 4200741924, "lat": -27.4247526, "lon": -57.337272, "tags": {"addr:city": "It\u00e1 Ibat\u00e9", "addr:full": "San Mart\u00edn y Belgrano", "addr:postcode": "3480", "addr:street": "San Mart\u00edn", "amenity": "hospital", "description": "Tipolog\u00eda: ESCIG Categor\u00eda de tipolog\u00eda: Bajo riesgo con internaci\u00f3n simple", "healthcare": "hospital", "name": "Hospital Inmaculada Concepci\u00f3n", "phone": "+54 3781 495183"}}, {"type": "node", "id": 4207301460, "lat": -22.8136188, "lon": -51.5968419, "tags": {"amenity": "hospital", "healthcare": "hospital", "name": "Hospital velho"}}, {"type": "node", "id": 4209601398, "lat": -29.2339105, "lon": -59.5821351, "tags": {"addr:city": "Reconquista", "addr:housenumber": "RN A 009", "addr:postcode": "S3560", "amenity": "hospital", "description": "Dispensario", "name": "Centro de salud"}}, {"type": "node", "id": 4210093933, "lat": -26.4569115, "lon": -53.4995544, "tags": {"amenity": "hospital", "healthcare": "hospital", "name": "Sociedade Beneficiente Hospitalar"}}, {"type": "node", "id": 4211439283, "lat": -28.1460353, "lon": -59.2633936, "tags": {"amenity": "hospital", "healthcare": "hospital", "name": "Centro de salud Campo Hardy"}}, {"type": "node", "id": 4213023828, "lat": -25.7364608, "lon": -59.1238801, "tags": {"amenity": "hospital", "healthcare": "hospital", "name": "Sala de Primeros Auxilios"}}, {"type": "node", "id": 4213023829, "lat": -26.4943856, "lon": -59.6805544, "tags": {"addr:city": "Laguna Limpia", "addr:full": "Planta Urbana S/n", "addr:postcode": "3515", "amenity": "hospital", "emergency": "yes", "healthcare": "hospital", "name": "Hospital Doctor Carlos Harvey", "operator": "Provincial", "operator:type": "public", "phone": "+54 3725 496185", "ref:sisa_codigo": "10220842126038", "ref:sisa_tipologia": "ESCIG"}}, {"type": "node", "id": 4218482189, "lat": -25.2891371, "lon": -57.6269569, "tags": {"addr:city": "Asuncion", "addr:housenumber": "1043", "addr:postcode": "595", "addr:street": "F\u00e9lix de Azara", "amenity": "hospital", "healthcare": "hospital", "healthcare:speciality": "paediatrics", "name": "IPN"}}, {"type": "node", "id": 4220389690, "lat": -25.7103979, "lon": -56.4059541, "tags": {"amenity": "hospital", "healthcare": "hospital", "name": "Centro de Salud, Gesundheitszentrum"}}, {"type": "node", "id": 4229918289, "lat": -22.8193745, "lon": -51.5967822, "tags": {"amenity": "hospital", "healthcare": "hospital", "name": "Hospital municipal"}}, {"type": "node", "id": 4240311298, "lat": -27.2741421, "lon": -58.2483621, "tags": {"addr:city": "Itat\u00ed", "addr:postcode": "3414", "addr:street": "General Belgrano", "amenity": "hospital", "description": "Tipolog\u00eda: ESCIG\nCategor\u00eda de tipolog\u00eda: Bajo riesgo con internaci\u00f3n simple", "emergency": "yes", "healthcare": "hospital", "name": "Hospital Dres Garcia", "phone": "+54 3783 493323"}}, {"type": "node", "id": 4242049790, "lat": -25.5332698, "lon": -54.634189, "tags": {"amenity": "hospital", "healthcare": "hospital", "name": "Regional de Ciudad del Este"}}, {"type": "node", "id": 4249650117, "lat": -26.1403913, "lon": -59.5973369, "tags": {"addr:city": "Presidencia Roca", "addr:housenumber": "488", "addr:postcode": "3511", "addr:street": "Capitan Solari", "amenity": "hospital", "healthcare": "hospital", "name": "Hospital Rural Presidencia Roca", "operator": "Provincial", "operator:type": "public", "phone": "+54 3725 491041", "ref:sisa_codigo": "10220842126065", "ref:sisa_tipologia": "ESCIG", "wikidata": "Q94580882"}}, {"type": "node", "id": 4255551095, "lat": -27.4639956, "lon": -51.9056605, "tags": {"addr:city": "Marcelino Ramos", "addr:housenumber": "258", "addr:postcode": "99800-000", "addr:street": "Rua Doutor Jo\u00e3o da Silveira", "addr:suburb": "Centro", "amenity": "hospital", "healthcare": "hospital", "name": "Associacao Hospitalar Marcelinense", "ref:CNES": "2249618", "ref:vatin": "BR20088681000107"}}, {"type": "node", "id": 4259722589, "lat": -25.0586747, "lon": -50.1633671, "tags": {"addr:street": "Rua Nilza Marques Neme", "amenity": "hospital", "name": "CAS posto de sa\u00fade"}}, {"type": "node", "id": 4262012684, "lat": -29.6045879, "lon": -52.6871418, "tags": {"addr:housenumber": "36", "addr:postcode": "96878-000", "addr:street": "Rua Lindolfo Machado", "addr:suburb": "Centro", "amenity": "hospital", "healthcare": "hospital", "name": "Hospital Beneficente de Vale do Sol", "phone": "+55 51 3750 1212", "ref:CNES": "2236338", "ref:vatin": "BR95427522000180"}}, {"type": "node", "id": 4286192692, "lat": -27.7843418, "lon": -52.8042793, "tags": {"amenity": "hospital", "name": "Atra"}}, {"type": "node", "id": 4287184389, "lat": -25.1011304, "lon": -50.1592929, "tags": {"addr:housenumber": "81", "addr:street": "Rua Augusto Ribas", "amenity": "hospital", "name": "Pronto Socorro", "opening_hours": "24/7", "phone": "+554232207800"}}, {"type": "node", "id": 4303016237, "lat": -29.1367477, "lon": -59.2471689, "tags": {"addr:city": "Goya", "addr:housenumber": "550", "addr:postcode": "3450", "addr:street": "Avenida Tom\u00e1s Mazzanti", "amenity": "hospital", "emergency": "yes", "healthcare": "hospital", "name": "Hospital Zonal Goya", "opening_hours": "24/7"}}, {"type": "node", "id": 4306912093, "lat": -20.4930215, "lon": -54.6527157, "tags": {"amenity": "hospital", "name": "UPA"}}, {"type": "node", "id": 4324591771, "lat": -23.3173056, "lon": -52.4733959, "tags": {"amenity": "hospital", "healthcare": "hospital"}}, {"type": "node", "id": 4337593631, "lat": -25.6190495, "lon": -57.1508736, "tags": {"amenity": "hospital", "healthcare": "hospital", "name": "Sanatorio San Benigno"}}, {"type": "node", "id": 4346341661, "lat": -28.1744827, "lon": -55.648306, "tags": {"amenity": "hospital", "healthcare": "hospital", "name": "Centro de Salud Santa Luc\u00eda"}}, {"type": "node", "id": 4354219823, "lat": -24.1401019, "lon": -52.7758153, "tags": {"amenity": "hospital", "healthcare": "hospital", "name": "Hospital Municipal Beneficente de Jani\u00f3polos"}}, {"type": "node", "id": 4357503759, "lat": -23.9174962, "lon": -51.9760467, "tags": {"amenity": "hospital", "healthcare": "hospital"}}, {"type": "node", "id": 4357938747, "lat": -23.0052747, "lon": -51.9528588, "tags": {"amenity": "hospital", "healthcare": "hospital", "name": "Hospital Santa Rita"}}, {"type": "node", "id": 4359230768, "lat": -26.1500925, "lon": -53.0223008, "tags": {"amenity": "hospital", "healthcare": "hospital", "name": "Hospital Nossa Senhora das Gra\u00e7as"}}, {"type": "node", "id": 4376620590, "lat": -27.5508177, "lon": -57.5288785, "tags": {"addr:city": "San Antonio de Itat\u00ed", "addr:housenumber": "812", "addr:postcode": "3481", "addr:street": "Pedro Bernardo S\u00e1nchez", "amenity": "hospital", "description": "Tipolog\u00eda: ESCIG\nCategor\u00eda de tipolog\u00eda: Bajo riesgo con internaci\u00f3n simple", "healthcare": "hospital", "name": "Hospital Juan Ram\u00f3n Vidal", "phone": "+54 3781 420050"}}, {"type": "node", "id": 4398215459, "lat": -25.2565945, "lon": -57.5812621, "tags": {"amenity": "hospital", "healthcare": "hospital", "name": "Santa B\u00e1rbara", "source": "TALLER URBANO - GRUPO 8"}}, {"type": "node", "id": 4400505690, "lat": -25.5261428, "lon": -54.610763, "tags": {"amenity": "hospital", "healthcare": "hospital", "name": "Fundaci\u00f3n Tesai", "name:es": "Fundaci\u00f3n Tesai"}}, {"type": "node", "id": 4407131792, "lat": -28.4975388, "lon": -59.6118658, "tags": {"addr:postcode": "S3583", "addr:street": "Buenos Aires", "amenity": "hospital", "healthcare": "hospital", "internet_access": "wlan", "name": "Samco Villa Ana", "name:es": "Samco Villa Ana", "phone": "03482494033"}}, {"type": "node", "id": 4408062289, "lat": -25.2895772, "lon": -57.752474, "tags": {"addr:city": "Clorinda", "amenity": "hospital", "healthcare": "hospital", "name": "Centro de Salud Doctor Ramon Carrillo"}}, {"type": "node", "id": 4423611899, "lat": -25.667128, "lon": -54.0489418, "tags": {"addr:city": "Comandante Andresito", "addr:postcode": "3385", "addr:street": "Avenida El Libertador", "ambulance": "2", "amenity": "hospital", "emergency": "yes", "healthcare": "hospital", "name": "Hospital Almirante Brown", "phone": "+54 3757 497061", "ref:ZonaSanitaria": "Noreste", "ref:cuie_codigo": "N05180", "ref:nivel": "I", "ref:sisa_codigo": "10540492164506", "ref:sisa_tipologia": "ESCIG"}}, {"type": "node", "id": 4423695520, "lat": -27.4364015, "lon": -55.8695798, "tags": {"addr:city": "Garup\u00e1", "addr:housenumber": "1576", "addr:postcode": "3304", "addr:street": "Avenida Jorge Kemerer", "alt_name": "Hospital Nivel Ii Nuestra Se\u00f1ora De Fatima", "ambulance": "1", "amenity": "hospital", "emergency": "yes", "healthcare": "hospital", "name": "Hospital V\u00edrgen de F\u00e1tima", "note": "Nivel I", "phone": "+54 376 4409118", "ref:ZonaSanitaria": "Capital", "ref:cuie_codigo": "N03586", "ref:sisa_codigo": "10540282164427", "ref:sisa_tipologia": "ESCIG", "source": "http://www.salud.misiones.gov.ar/index.php/red-sanitaria/hospitales"}}, {"type": "node", "id": 4424281147, "lat": -26.4049773, "lon": -54.5972948, "tags": {"addr:city": "Eldorado", "addr:postcode": "3380", "addr:street": "Doctor Prieto", "ambulance": "9", "amenity": "hospital", "emergency": "yes", "healthcare": "hospital", "healthcare:speciality": "general;paediatrics;radiology;emergency;surgery;cardiology;maternity", "name": "Hospital SAMIC Eldorado", "note": "Nivel III", "phone": "+54 3751 421536", "ref:ZonaSanitaria": "Norte Paran\u00e1", "ref:cuie_codigo": "N05182", "ref:nivel": "III", "ref:sisa_codigo": "10540422164430", "ref:sisa_tipologia": "ESCIG", "source": "http://www.salud.misiones.gov.ar/red-sanitaria/hospitales"}}, {"type": "node", "id": 4424289354, "lat": -27.4921615, "lon": -55.1446834, "tags": {"addr:city": "Ober\u00e1", "addr:street": "Avenida Pinc\u00e9n", "ambulance": "6", "amenity": "hospital", "emergency": "yes", "healthcare": "hospital", "name": "Hospital SAMIC de Ober\u00e1", "note": "Nivel III", "phone": "+54 3755 421227", "ref:ZonaSanitaria": "Centro Uruguay", "ref:cuie_codigo": "N01145", "ref:nivel": "III", "ref:sisa_codigo": "10540912164476", "ref:sisa_tipologia": "ESCIG", "source": "http://www.salud.misiones.gov.ar/red-sanitaria/hospitales"}}, {"type": "node", "id": 4424308453, "lat": -27.9075657, "lon": -55.7503429, "tags": {"addr:city": "Ap\u00f3stoles", "addr:housenumber": "569", "addr:postcode": "3350", "addr:street": "Tucum\u00e1n", "amenity": "hospital", "description": "Categor\u00eda de tipolog\u00eda: Vacunatorios", "emergency": "yes", "healthcare": "hospital", "name": "Hospital Doctor Bernardo Allassia", "note": "NIvel II", "phone": "+54 3758 422666;+54 3758 422400", "ref": "ESCL", "ref:ZonaSanitaria": "Sur", "ref:cuie_codigo": "N03155", "ref:nivel": "II", "ref:sisa_codigo": "10540072164416", "ref:sisa_tipologia": "ESCIG", "source": "http://www.salud.misiones.gov.ar/red-sanitaria/hospitales"}}, {"type": "node", "id": 4424477989, "lat": -27.4623676, "lon": -55.7452336, "tags": {"addr:city": "Candelaria", "addr:housenumber": "836", "addr:postcode": "3308", "addr:street": "Avenida San Roque Gonz\u00e1lez", "ambulance": "1", "amenity": "hospital", "description": "Categor\u00eda de tipolog\u00eda: Bajo riesgo con internaci\u00f3n simple", "email": "hospitaldecandelaria@hotmail.com.ar", "emergency": "yes", "healthcare": "hospital", "name": "Hospital de Candelaria", "note": "Nivel I", "phone": "+54 376 4493212;+54 3764 493014", "ref": "ESCIG", "ref:ZonaSanitaria": "Centro Paran\u00e1", "ref:cuie_codigo": "N03157", "ref:nivel": "I", "ref:sisa_codigo": "10540212164426", "ref:sisa_tipologia": "ESCIG"}}, {"type": "node", "id": 4424480589, "lat": -27.3689637, "lon": -55.5805384, "tags": {"addr:city": "Santa Ana", "addr:full": "Avenida Manuel Belgrano y Antonio Melo", "addr:postcode": "3316", "addr:street": "Avenida Manuel Belgrano", "ambulance": "1", "amenity": "hospital", "description": "Categor\u00eda de tipolog\u00eda: Bajo riesgo con internaci\u00f3n simple", "email": "capssanamsp@hotmail.com.ar", "emergency": "yes", "healthcare": "hospital", "name": "Hospital de Santa Ana", "official_name": "Hospital Nivel I Santa Ana", "phone": "+54 376 4497127;+54 3764 497027", "ref:ZonaSanitaria": "Centro Paran\u00e1", "ref:cuie_codigo": "N05163", "ref:sisa_codigo": "10540212165707", "ref:sisa_tipologia": "ESCIG"}}, {"type": "node", "id": 4424482963, "lat": -27.2556211, "lon": -55.5408046, "tags": {"addr:city": "San Ignacio", "addr:housenumber": "635", "addr:postcode": "3322", "addr:street": "Avenida Horacio Quiroga", "alt_name": "Hospital H. Valdovino", "ambulance": "2", "amenity": "hospital", "description": "Categor\u00eda de tipolog\u00eda: Bajo riesgo con internaci\u00f3n simple", "email": "hospitalsanignacio@gmail.com", "emergency": "yes", "healthcare": "hospital", "name": "Hospital de San Ignacio Doctor Heberto Valdovino", "phone": "+54 376 4470007", "ref": "ESCIG", "ref:ZonaSanitaria": "Centro Paran\u00e1", "ref:cuie_codigo": "N05165", "ref:nivel": "I", "ref:sisa_codigo": "10540982164486", "ref:sisa_tipologia": "ESCIG", "source": "http://www.salud.misiones.gov.ar/index.php/red-sanitaria/hospitales"}}, {"type": "node", "id": 4424484084, "lat": -27.1839878, "lon": -55.465774, "tags": {"addr:city": "Gobernador Roca", "addr:postcode": "3324", "addr:street": "Rivadavia", "alt_name": "Hospital De Gobernador Roca - Nivel I - Luis Rolandelli", "ambulance": "1", "amenity": "hospital", "emergency": "yes", "healthcare": "hospital", "name": "Hospital de Gobernador Roca", "phone": "+54 376 4498017", "ref:ZonaSanitaria": "Centro Paran\u00e1", "ref:cuie_codigo": "N05166", "ref:sisa_codigo": "10540982164482", "ref:sisa_tipologia": "ESCIG", "source": "http://www.salud.misiones.gov.ar/index.php/red-sanitaria/hospitales"}}, {"type": "node", "id": 4424489402, "lat": -27.1310614, "lon": -55.5120477, "tags": {"addr:city": "Corpus", "addr:postcode": "3327", "addr:street": "Avenida Curupayty", "alt_name": "Hospital De Corpus - Nivel I", "ambulance": "1", "amenity": "hospital", "description": "Categor\u00eda de tipolog\u00eda: Bajo riesgo con internaci\u00f3n simple", "email": "hospitaldecorpus@hotmail.com", "emergency": "yes", "healthcare": "hospital", "name": "Hospital de Corpus", "official_name": "Hospital De Corpus Nivel I\u2063", "phone": "+54 376 4495044", "ref": "ESCIG", "ref:ZonaSanitaria": "Centro Paran\u00e1", "ref:cuie_codigo": "N05183", "ref:sisa_codigo": "10540982164481", "source": "http://www.salud.misiones.gov.ar/index.php/red-sanitaria/hospitales"}}, {"type": "node", "id": 4424492396, "lat": -26.8152608, "lon": -55.0274185, "tags": {"addr:city": "Puerto Rico", "addr:housenumber": "55", "addr:postcode": "3334", "addr:street": "Doctor Ricardo Guti\u00e9rrez", "ambulance": "2", "amenity": "hospital", "emergency": "yes", "healthcare": "hospital", "name": "Hospital de \u00e1rea Doctor Ricardo Gutierrez", "phone": "+54 3743 420520;+54 3743 420544", "phone:AR": "107", "ref:ZonaSanitaria": "Centro Paran\u00e1", "ref:cuie_codigo": "N03171", "ref:nivel": "II", "ref:sisa_codigo": "10540772164462", "ref:sisa_tipologia": "ESCIG"}}, {"type": "node", "id": 4424495431, "lat": -26.4670588, "lon": -54.7050275, "tags": {"addr:city": "Puerto Piray", "addr:postcode": "3381", "addr:street": "Avenida Marcos Paz", "alt_name": "Hospital Nivel I Puerto Piray", "ambulance": "1", "amenity": "hospital", "emergency": "yes", "healthcare": "hospital", "name": "Hospital de Puerto Piray", "phone": "+54 3751 461325", "ref:ZonaSanitaria": "Norte Paran\u00e1", "ref:cuie_codigo": "N05178", "ref:sisa_codigo": "10540842165109", "source": "http://www.salud.misiones.gov.ar/index.php/red-sanitaria/hospitales"}}, {"type": "node", "id": 4424502672, "lat": -26.0218443, "lon": -54.6059915, "tags": {"addr:city": "Puerto Esperanza", "addr:postcode": "3378", "addr:street": "Nicaragua", "alt_name": "Hospital Nivel I De Puerto Esperanza", "ambulance": "2", "amenity": "hospital", "description": "Categor\u00eda de tipolog\u00eda: Bajo riesgo con internaci\u00f3n simple", "email": "hospitalesperanza@gmail.com", "emergency": "yes", "healthcare": "hospital", "name": "Hospital de Puerto Esperanza", "phone": "+54 3757 480197", "ref": "ESCIG", "ref:ZonaSanitaria": "Norte Paran\u00e1", "ref:cuie_codigo": "N05368", "ref:nivel": "I", "ref:sisa_codigo": "10540632164505", "source": "http://www.salud.misiones.gov.ar/index.php/red-sanitaria/hospitales"}}, {"type": "node", "id": 4424508939, "lat": -25.9212439, "lon": -54.5884743, "tags": {"addr:city": "Puerto Libertad", "addr:housenumber": "1331", "addr:street": "Avenida Juan Domingo Per\u00f3n", "ambulance": "1", "amenity": "hospital", "healthcare": "hospital", "name": "Hospital de Puerto Libertad", "phone": "+54 3757 496055", "ref:ZonaSanitaria": "Norte Paran\u00e1", "ref:cuie_codigo": "N05367", "ref:nivel": "I", "ref:sisa_codigo": "10540632164509"}}, {"type": "node", "id": 4424509850, "lat": -25.601183, "lon": -54.5736932, "tags": {"addr:housenumber": "142", "addr:street": "Avenida Victoria Aguirre", "ambulance": "5", "amenity": "hospital", "emergency": "yes", "healthcare": "hospital", "name": "Hospital S.A.M.I.C. - Doctora Marta Schwartz", "phone": "+54 3757 420626", "ref:ZonaSanitaria": "Norte Paran\u00e1", "ref:cuie_codigo": "N03169", "ref:nivel": "III", "ref:sisa_codigo": "10540632164444", "ref:sisa_tipologia": "ESCIG", "source": "http://www.salud.misiones.gov.ar/index.php/red-sanitaria/hospitales"}}, {"type": "node", "id": 4424981817, "lat": -26.0563252, "lon": -53.7357857, "tags": {"addr:city": "San Antonio", "addr:housenumber": "750", "addr:street": "Avenida Comandante Andresito", "alt_name": "Hospital De San Antonio - Nivel I", "ambulance": "2", "amenity": "hospital", "emergency": "yes", "healthcare": "hospital", "name": "Hospital de San Antonio", "note": "El edificio nuevo va a funcionar detr\u00e1s de este edificio", "phone": "+54 3741 493054", "ref:ZonaSanitaria": "Noreste", "ref:cuie_codigo": "N03166", "ref:sisa_codigo": "10540492164435"}}, {"type": "node", "id": 4424986133, "lat": -26.2492605, "lon": -53.651355, "tags": {"addr:city": "Bernardo de Irigoyen", "addr:housenumber": "290", "addr:postcode": "3366", "addr:street": "Avenida de Las Am\u00e9ricas", "ambulance": "2", "amenity": "hospital", "description": "Categor\u00eda de tipolog\u00eda: Bajo riesgo con internaci\u00f3n simple", "email": "bdoirigoyenhospital@yahoo.com.ar", "emergency": "yes", "healthcare": "hospital", "name": "Hospital de Bernardo de Irigoyen - Manuel Belgrano", "phone": "+54 3741 420201;+54 3741 420220", "ref:ZonaSanitaria": "Noreste", "ref:cuie_codigo": "N03156", "ref:nivel": "I", "ref:sisa_codigo": "10540492164434", "ref:sisa_tipologia": "ESCIG"}}, {"type": "node", "id": 4425015718, "lat": -27.3791688, "lon": -54.7442527, "tags": {"addr:city": "Veinticinco de Mayo", "addr:housenumber": "22", "addr:postcode": "3363", "addr:street": "Comandante Andresito", "alt_name": "Hospital De 25 De Mayo - Nivel I - Dr. Ricardo Alba Posse", "amenity": "hospital", "description": "Categor\u00eda de tipolog\u00eda: Bajo riesgo con internaci\u00f3n simple", "emergency": "yes", "healthcare": "hospital", "name": "Hospital de 25 De Mayo Doctor Ricardo Alba Posse", "phone": "+54 3755 493066", "ref": "ESCIG", "ref:ZonaSanitaria": "Centro Uruguay", "ref:cuie_codigo": "N03154", "ref:nivel": "I", "ref:sisa_codigo": "10541192164496", "source": "http://www.salud.misiones.gov.ar/index.php/red-sanitaria/hospitales"}}, {"type": "node", "id": 4425942392, "lat": -27.0168158, "lon": -54.687661, "tags": {"addr:city": "Dos de Mayo", "addr:postcode": "3364", "addr:street": "Per\u00fa", "ambulance": "1", "amenity": "hospital", "description": "Categor\u00eda de tipolog\u00eda: Bajo riesgo con internaci\u00f3n simple", "email": "labhospitaldosdemayo@hotmail.com", "emergency": "yes", "healthcare": "hospital", "name": "Hospital de Dos de Mayo", "phone": "+54 3755 496715", "ref": "ESCIG", "ref:ZonaSanitaria": "Centro Uruguay", "ref:cuie_codigo": "N05174", "ref:nivel": "I", "ref:sisa_codigo": "10540142164508"}}, {"type": "node", "id": 4425972117, "lat": -27.10427, "lon": -54.888261, "tags": {"addr:city": "Arist\u00f3bulo del Valle", "addr:housenumber": "2001", "addr:postcode": "3364", "addr:street": "Corrientes", "alt_name": "Hospital De Aristobulo Del Valle - Nivel Ii", "ambulance": "2", "amenity": "hospital", "description": "Categor\u00eda de tipolog\u00eda: Mediano riesgo con internaci\u00f3n con cuidados especiales", "email": "hospitaladelvalle@hotmail.com.ar", "emergency": "yes", "healthcare": "hospital", "name": "Hospital de Arist\u00f3bulo del Valle Doctor Justo Jos\u00e9 Pereyra", "operator": "Ministerio de Salud de la Provincia de Misiones", "phone": "+54 3755 471001", "ref": "ESCIG", "ref:ZonaSanitaria": "Centro Uruguay", "ref:cuie_codigo": "N05175", "ref:sisa_codigo": "10540142164420", "source": "http://www.salud.misiones.gov.ar/index.php/red-sanitaria/hospitales"}}, {"type": "node", "id": 4425974806, "lat": -27.5653172, "lon": -54.6831892, "tags": {"addr:city": "Alba Posse", "addr:postcode": "3364", "addr:street": "Avenida Rivadavia", "alt_name": "Hospital Nivel I Alba Posse", "ambulance": "1", "amenity": "hospital", "healthcare": "hospital", "name": "Hospital Doctor Ricardo Alba Posse", "phone": "+54 3755 482011", "ref:ZonaSanitaria": "Centro Uruguay", "ref:cuie_codigo": "N05172", "ref:sisa_codigo": "10541192164489"}}, {"type": "node", "id": 4425975831, "lat": -27.6077687, "lon": -55.3299487, "tags": {"addr:city": "Leandro N. Alem", "addr:housenumber": "710", "addr:postcode": "3315", "addr:street": "Rivadavia", "ambulance": "4", "amenity": "hospital", "emergency": "yes", "healthcare": "hospital", "name": "Hospital SAMIC - Doctor Juan Fernando Alegre", "phone": "+54 3754 420290", "ref:ZonaSanitaria": "Sur", "ref:cuie_codigo": "N05170", "ref:sisa_codigo": "10540702164453", "ref:sisa_tipologia": "ESCIG"}}, {"type": "node", "id": 4425976260, "lat": -27.6355421, "lon": -55.4987775, "tags": {"addr:city": "Cerro Azul", "addr:housenumber": "900", "addr:postcode": "3313", "addr:street": "Tom\u00e1s Guido", "ambulance": "1", "amenity": "hospital", "emergency": "yes", "healthcare": "hospital", "name": "Hospital de Cerro Azul", "phone": "+54 376 4494208", "ref:ZonaSanitaria": "Sur", "ref:cuie_codigo": "N05260", "ref:nivel": "I", "ref:sisa_codigo": "10540702164450", "source": "http://www.salud.misiones.gov.ar/index.php/red-sanitaria/hospitales"}}, {"type": "node", "id": 4425977869, "lat": -27.4847351, "lon": -55.4729628, "tags": {"addr:city": "Bonpland", "addr:full": "Juan Lavalle y Sarmiento", "addr:postcode": "3317", "addr:street": "Juan Lavalle", "alt_name": "Hospital Nivel I Bonpland", "amenity": "hospital", "description": "Categor\u00eda de tipolog\u00eda: Bajo riesgo con internaci\u00f3n simple", "email": "capsbonpland@gmail.com", "emergency": "yes", "healthcare": "hospital", "name": "Hospital de Bonpland", "phone": "+54 376 4492053", "ref": "ESCIG", "ref:ZonaSanitaria": "Sur", "ref:cuie_codigo": "N05164", "ref:sisa_codigo": "10540212165994", "source": "http://www.salud.misiones.gov.ar/index.php/red-sanitaria/hospitales"}}, {"type": "node", "id": 4428266143, "lat": -29.2836746, "lon": -51.8695619, "tags": {"addr:city": "Roca Sales", "addr:housenumber": "70", "addr:postcode": "95735-000", "addr:street": "Rua General Os\u00f3rio", "addr:suburb": "Centro", "amenity": "hospital", "healthcare": "hospital", "name": "Hospital Roque Gonzales", "ref:CNES": "2252147", "ref:vatin": "BR95196044000145"}}, {"type": "node", "id": 4448669290, "lat": -25.2122214, "lon": -57.5365434, "tags": {"amenity": "hospital", "healthcare": "hospital", "name": "Hospital Materno Infantil M.R.A.", "name:es": "Hospital Materno Infantil M.R.A."}}, {"type": "node", "id": 4450545193, "lat": -25.2121834, "lon": -57.5364197, "tags": {"amenity": "hospital", "healthcare": "hospital", "name": "Hospital Regional M.R.A.", "name:es": "Hospital Regional M.R.A."}}, {"type": "node", "id": 4450719408, "lat": -25.2120368, "lon": -57.5365343, "tags": {"addr:street": "Boquer\u00f3n", "amenity": "hospital", "healthcare": "hospital", "name": "Regional MRA", "name:es": "Regional MRA", "opening_hours": "24/7"}}, {"type": "node", "id": 4472516707, "lat": -25.2865217, "lon": -57.6269895, "tags": {"addr:housenumber": "922", "addr:postcode": "595", "addr:street": "mariscal Jos\u00e9 F\u00e9lix Estigarribia", "amenity": "hospital", "email": "emg.py@hotmail.com", "healthcare": "hospital", "name": "Electroneuro", "opening_hours": "Mo-Fr 08:00-17:00", "phone": "59521448833", "source": "Reconocimiento cartogr\u00e1fico 2016 por KG."}}, {"type": "node", "id": 4475422684, "lat": -28.8744084, "lon": -59.8650648, "tags": {"addr:city": "Colonia San Manuel", "addr:postcode": "S3563", "addr:street": "Zona Rural", "amenity": "hospital", "healthcare": "hospital", "name": "SAMCo", "operator": "Batista, Walter D."}}, {"type": "node", "id": 4486278737, "lat": -26.1626901, "lon": -58.1639985, "tags": {"addr:city": "Formosa", "addr:housenumber": "641", "addr:postcode": "3600", "addr:street": "Avenida Massaferro", "amenity": "hospital", "healthcare": "hospital", "name": "Centro de Salud Barrio San Agust\u00edn"}}, {"type": "node", "id": 4510279696, "lat": -23.2683359, "lon": -51.0450963, "tags": {"addr:city": "Ibipor\u00e3", "addr:housenumber": "266", "addr:postcode": "86280-000", "addr:street": "Avenida Jos\u00e9 Bonif\u00e1cio", "addr:suburb": "Centro", "amenity": "hospital", "emergency": "yes", "healthcare": "hospital", "name": "Hospital Santa Terezinha"}}, {"type": "node", "id": 4511427233, "lat": -23.2694126, "lon": -51.0556357, "tags": {"amenity": "hospital", "emergency": "yes", "name": "Pronto Socorro (Hospital Cristo Rei)"}}, {"type": "node", "id": 4516486326, "lat": -28.621632, "lon": -52.8716061, "tags": {"addr:street": "Avenida 15 de Novembro", "amenity": "hospital", "name": "Hospital Nossa Senhora do Ros\u00e1rio"}}, {"type": "node", "id": 4519729191, "lat": -26.213186, "lon": -51.0742153, "tags": {"amenity": "hospital", "contact:phone": "+55 42 3524-3388", "healthcare": "hospital", "name": "Hospital Regional de Caridade Nossa Senhora Aparecida"}}, {"type": "node", "id": 4519750890, "lat": -26.2323765, "lon": -51.0918616, "tags": {"amenity": "hospital", "contact:phone": "+55 42 3521-5050", "healthcare": "hospital", "name": "Associa\u00e7\u00e3o de Prote\u00e7\u00e3o \u00e0 Maternidade e Inf\u00e2ncia"}}, {"type": "node", "id": 4530933392, "lat": -26.1901387, "lon": -59.3671911, "tags": {"amenity": "hospital", "healthcare": "hospital", "name": "Hospital Villa dos Trece", "name:es": "Hospital Villa dos Trece"}}, {"type": "node", "id": 4531953490, "lat": -26.1929609, "lon": -58.1746997, "tags": {"addr:city": "Formosa", "addr:full": "Ayacucho y Salta", "addr:postcode": "3600", "addr:street": "C\u00f3rdoba", "amenity": "hospital", "healthcare": "hospital", "name": "Hospital de la Madre y el Ni\u00f1o", "name:es": "Hospital de la Madre y el Ni\u00f1o"}}, {"type": "node", "id": 4539386807, "lat": -22.2366406, "lon": -54.8218287, "tags": {"addr:housenumber": "230", "addr:postcode": "79814-530", "addr:street": "Rua Jo\u00e3o Pessoa", "amenity": "hospital", "email": "edmoto.dantas@hotmail.com", "healthcare": "hospital", "internet_access": "wlan", "name": "Resid\u00eancia", "opening_hours": "24/7", "phone": "+55 67 99907-6153"}}, {"type": "node", "id": 4545743955, "lat": -23.324539, "lon": -51.1948864, "tags": {"amenity": "hospital", "healthcare": "hospital", "name": "Ambulat\u00f3rio do Hospital das Cl\u00ednicas"}}, {"type": "node", "id": 4547023974, "lat": -28.3909915, "lon": -53.0986529, "tags": {"addr:housenumber": "591", "addr:postcode": "98250-000", "addr:street": "Rua Prestes Guimar\u00e3es", "addr:suburb": "Centro", "amenity": "hospital", "email": "hmsaldanhamarinho@hotmail.com", "fax": "+55 55 3373 1068", "healthcare": "hospital", "name": "Hospital Municipal Saldanha Marinho", "operator:ref:vatin": "BR92399153000171", "phone": "+55 55 3373 1068", "ref:CNES": "2263874"}}, {"type": "node", "id": 4547293690, "lat": -20.5500758, "lon": -54.6518231, "tags": {"addr:street": "Rua Evelina Selingardi", "amenity": "hospital", "name": "Posto de Sa\u00fade - Parque do Sol", "name:pt": "Posto de Sa\u00fade - Parque do Sol", "opening_hours": "Mo-Fr 06:00-17:00"}}, {"type": "node", "id": 4555427991, "lat": -28.6397792, "lon": -53.6078131, "tags": {"addr:city": "Cruz Alta", "addr:housenumber": "748", "addr:postcode": "98025-220", "addr:street": "Rua Coronel Pillar", "addr:suburb": "Centro", "amenity": "hospital", "fax": "+55 55 3322 7000", "healthcare": "hospital", "name": "Hospital Santa L\u00facia", "phone": "+55 55 3324 7400", "ref:CNES": "2263823", "ref:vatin": "BR89121230000112"}}, {"type": "node", "id": 4555438891, "lat": -28.6472149, "lon": -53.6067292, "tags": {"amenity": "hospital", "name": "Unidade de Pronto Atendimento - UPA"}}, {"type": "node", "id": 4561904210, "lat": -28.574764, "lon": -53.6127274, "tags": {"addr:street": "Rodovia Jacob Della Meia", "amenity": "hospital", "description": "Hospital Veterin\u00e1rio - Universidade de Cruz Alta", "name": "HOSPITAL VETERIN\u00c1RIO"}}, {"type": "node", "id": 4564308993, "lat": -25.4590924, "lon": -56.4427002, "tags": {"amenity": "hospital", "healthcare": "hospital", "name:de": "Krankenhaus Marco Mama"}}, {"type": "node", "id": 4571639193, "lat": -25.3084483, "lon": -57.5989427, "tags": {"addr:street": "Teniente Ayala", "amenity": "hospital", "healthcare": "hospital", "name": "Sanatorio San Lucas", "name:es": "Sanatorio San Lucas"}}, {"type": "node", "id": 4574937599, "lat": -25.4083251, "lon": -54.634629, "tags": {"amenity": "hospital", "healthcare": "hospital", "name": "Centro Nefrol\u00f3gico Hernandarias"}}, {"type": "node", "id": 4574937600, "lat": -25.38885, "lon": -54.64518, "tags": {"amenity": "hospital", "healthcare": "hospital", "name": "Hospital Oncologico"}}, {"type": "node", "id": 4574937618, "lat": -25.4073715, "lon": -54.6374476, "tags": {"amenity": "hospital", "healthcare": "hospital", "name": "IPS Hernandarias"}}, {"type": "node", "id": 4574937645, "lat": -25.4066066, "lon": -54.6347396, "tags": {"amenity": "hospital", "healthcare": "hospital", "name": "Sanatorio DR Cardozo"}}, {"type": "node", "id": 4575046478, "lat": -25.4009801, "lon": -54.6300043, "tags": {"amenity": "hospital", "healthcare": "hospital", "name": "Dispensario de Area 6"}}, {"type": "node", "id": 4585846997, "lat": -20.5492933, "lon": -54.6283683, "tags": {"addr:street": "Rua Francisco Chaves", "amenity": "hospital", "name": "UBSF Sebasti\u00e3o Luiz Nogueira - Jardim Los Angeles", "name:pt": "UBSF Sebasti\u00e3o Luiz Nogueira - Jardim Los Angeles"}}, {"type": "node", "id": 4590964352, "lat": -29.9235548, "lon": -51.1800083, "tags": {"addr:city": "Canoas", "addr:housenumber": "3040", "addr:postcode": "92010-000", "addr:street": "Avenida Victor Barreto", "addr:suburb": "Centro", "amenity": "hospital", "emergency": "no", "healthcare": "hospital", "name": "COT-Cl\u00ednica Ortopedia e Traumatologia", "ref:CNES": "9773681", "ref:vatin": "BR10519801000707"}}, {"type": "node", "id": 4604249991, "lat": -28.0589952, "lon": -53.0693556, "tags": {"amenity": "hospital", "name:pt": "Posto de sa\u00fade , CAIS"}}, {"type": "node", "id": 4604255991, "lat": -28.059516, "lon": -53.0658811, "tags": {"amenity": "hospital", "name:pt": "Hospital S\u00e3o Jos\u00e9"}}, {"type": "node", "id": 4633900765, "lat": -29.2268129, "lon": -51.3490615, "tags": {"addr:city": "Farroupilha", "addr:housenumber": "51", "addr:postcode": "95170-476", "addr:street": "Rua da Rep\u00fablica", "addr:suburb": "Centro", "amenity": "hospital", "email": "hbsc@hbsc.com.br", "fax": "+55 54 3261 8700", "healthcare": "hospital", "name": "Hospital Beneficente S\u00e3o Carlos", "phone": "+55 54 3261 8700", "ref:CNES": "2240335", "ref:vatin": "BR89847370000172"}}, {"type": "node", "id": 4637578711, "lat": -25.7992459, "lon": -55.0863965, "tags": {"amenity": "hospital", "healthcare": "hospital", "name": "IPS"}}, {"type": "node", "id": 4638550132, "lat": -25.4563584, "lon": -57.5059602, "tags": {"amenity": "hospital", "healthcare": "hospital"}}, {"type": "node", "id": 4638550133, "lat": -25.4614974, "lon": -57.512022, "tags": {"amenity": "hospital", "healthcare": "hospital"}}, {"type": "node", "id": 4648791476, "lat": -27.3669347, "lon": -52.7724019, "tags": {"amenity": "hospital"}}, {"type": "node", "id": 4648949424, "lat": -27.3547073, "lon": -52.7744121, "tags": {"addr:housenumber": "395", "addr:postcode": "99600-000", "addr:street": "Rua Padre Manoel Gomes Gonzales", "addr:suburb": "Operario", "amenity": "hospital", "fax": "+55 54 362 1077", "healthcare": "hospital", "name": "Hospital Comunit\u00e1rio Nonoai", "phone": "+55 54 362 1212", "ref:CNES": "2228688", "ref:vatin": "BR90894221000143"}}, {"type": "node", "id": 4649967010, "lat": -27.6840251, "lon": -53.8072397, "tags": {"addr:housenumber": "105", "addr:postcode": "98570-000", "addr:street": "Rua Herm\u00f3genes Pahins", "addr:suburb": "Centro", "amenity": "hospital", "email": "hospitalcamponovo@hotmail.com", "fax": "+55 55 3528 1414", "healthcare": "hospital", "name": "Associacao Hospitalar de Caridade de Campo Novo", "phone": "+55 55 3528 1200", "ref:CNES": "2261154", "ref:vatin": "BR90167107000111"}}, {"type": "node", "id": 4655059281, "lat": -28.754643, "lon": -52.0143221, "tags": {"amenity": "hospital", "name": "Posto de Sa\u00fade"}}, {"type": "node", "id": 4714148156, "lat": -23.3168129, "lon": -51.1572205, "tags": {"addr:city": "Londrina", "addr:housenumber": "523", "addr:postcode": "86010-510", "addr:street": "Rua Esp\u00edrito Santo", "addr:suburb": "Centro", "amenity": "hospital", "name": "Hospital Santa Casa de Londrina"}}, {"type": "node", "id": 4791918122, "lat": -20.4705645, "lon": -55.7943516, "tags": {"addr:housenumber": "185", "addr:postcode": "79200-000", "addr:street": "Rua Jos\u00e9 Bonif\u00e1cio", "amenity": "hospital", "healthcare": "hospital", "name": "CASSEMS", "name:pt": "CASSEMS", "phone": "06732417429", "ref:CNES": "5851351", "ref:vatin": "BR04311093000550"}}, {"type": "node", "id": 4816393523, "lat": -20.4475801, "lon": -54.5703358, "tags": {"addr:housenumber": "5151", "addr:postcode": "79002-230", "addr:street": "Avenida Mato Grosso", "amenity": "hospital", "healthcare": "hospital", "name": "CASSEMS", "name:pt": "CASSEMS", "phone": "+55 67 3410 0000"}}, {"type": "node", "id": 4816428698, "lat": -25.1429913, "lon": -54.3004575, "tags": {"amenity": "hospital"}}, {"type": "node", "id": 4816666847, "lat": -27.5668142, "lon": -53.9717625, "tags": {"addr:city": "Humait\u00e1", "addr:housenumber": "399", "addr:postcode": "98670-000", "addr:street": "Avenida Jo\u00e3o Pessoa", "addr:suburb": "Centro", "amenity": "hospital", "healthcare": "hospital", "name": "Associacao de Desenvolvimento Comunit\u00e1rio de Humait\u00e1", "ref:CNES": "2265893", "ref:vatin": "BR91996074000185", "source": "IBGE;IEDE/RS", "source:geometry": "IEDE/RS"}}, {"type": "node", "id": 4819046946, "lat": -27.1662997, "lon": -53.4090683, "tags": {"amenity": "hospital", "healthcare": "hospital", "source": "IBGE"}}, {"type": "node", "id": 4823051179, "lat": -27.6704151, "lon": -52.6496984, "tags": {"amenity": "hospital", "healthcare": "hospital", "name": "Posto de Sa\u00fade"}}, {"type": "node", "id": 4826292431, "lat": -27.7829317, "lon": -52.8018002, "tags": {"addr:city": "Ronda Alta", "addr:housenumber": "38", "addr:postcode": "99670-000", "addr:street": "Travessa S\u00e3o Jorge", "addr:suburb": "Centro", "amenity": "hospital", "healthcare": "hospital", "name": "Associa\u00e7\u00e3o Hospitalar de Ronda Alta", "phone": "+55 54 364 1077", "ref:CNES": "2235420", "ref:vatin": "BR97319487000101", "source": "IEDE/RS"}}, {"type": "node", "id": 4827542613, "lat": -29.3413895, "lon": -52.9791829, "tags": {"amenity": "hospital", "source": "IBGE"}}, {"type": "node", "id": 4827911955, "lat": -27.7610057, "lon": -54.4803378, "tags": {"addr:city": "Tuparendi", "addr:housenumber": "2110", "addr:postcode": "98940-000", "addr:street": "Avenida Uruguai", "addr:suburb": "Centro", "amenity": "hospital", "healthcare": "hospital", "name": "Centro de Assistencia M\u00e9dico Social", "ref:CNES": "5729297", "ref:vatin": "BR98339823000140", "source": "IBGE;DATASUS"}}, {"type": "node", "id": 4828196429, "lat": -24.9710251, "lon": -53.4983244, "tags": {"addr:housenumber": "769", "addr:street": "Rua Itaquatiara", "amenity": "hospital", "healthcare": "hospital", "internet_access": "wlan", "name": "Hospital do C\u00e2ncer de Cascavel", "phone": "+55 45 2101-7000", "short_name": "UOPECCAN", "website": "https://www.uopeccan.org.br/"}}, {"type": "node", "id": 4834767919, "lat": -27.6579968, "lon": -53.5278378, "tags": {"amenity": "hospital", "name": "Posto de Sa\u00fade"}}, {"type": "node", "id": 4860763702, "lat": -25.2806074, "lon": -57.5929768, "tags": {"addr:city": "Asunci\u00f3n", "addr:housenumber": "1255", "addr:street": "Avenida Venezuela", "amenity": "hospital", "name": "Centro Nacional de Control de Adicciones", "operator": "MSPyBS", "phone": "+595 21 298 352"}}, {"type": "node", "id": 4866638023, "lat": -26.1808552, "lon": -58.182929, "tags": {"amenity": "hospital", "healthcare": "hospital", "name": "Centro de Salud Independencia", "name:es": "Centro de Salud Independencia"}}, {"type": "node", "id": 4872228122, "lat": -26.1934475, "lon": -58.2214099, "tags": {"amenity": "hospital", "healthcare": "hospital", "name": "Centro de Salud Liborsi", "name:es": "Centro de Salud Liborsi"}}, {"type": "node", "id": 4872228123, "lat": -26.1847808, "lon": -58.1942262, "tags": {"amenity": "hospital", "healthcare": "hospital", "name": "Centro de Salud Guadalupe", "name:es": "Centro de Salud Guadalupe"}}, {"type": "node", "id": 4872228421, "lat": -26.1962695, "lon": -58.1784377, "tags": {"amenity": "hospital", "healthcare": "hospital", "name": "Centro de Salud Villa Hermosa", "name:es": "Centro de Salud Villa Hermosa"}}, {"type": "node", "id": 4879512697, "lat": -26.8889214, "lon": -57.0326644, "tags": {"addr:city": "San Ignacio Guaz\u00fa", "addr:postcode": "4750", "addr:street": "Padre Marcial de Lorenzana", "amenity": "hospital", "emergency": "yes", "healthcare": "hospital", "name": "Hospital Materno Infantil IPS"}}, {"type": "node", "id": 4879529002, "lat": -26.8897734, "lon": -57.0182709, "tags": {"amenity": "hospital", "healthcare": "hospital", "name": "Hospital Distrital de San Ignacio Guaz\u00fa"}}, {"type": "node", "id": 4951248995, "lat": -25.2721419, "lon": -57.5804628, "tags": {"amenity": "hospital", "emergency": "yes", "healthcare": "hospital", "name": "IPS"}}, {"type": "node", "id": 4957683560, "lat": -22.1628232, "lon": -57.9486771, "tags": {"amenity": "hospital", "healthcare": "hospital", "name": "Instituto de Previsi\u00f3n Social Vallem\u00ed"}}, {"type": "node", "id": 4957683561, "lat": -22.1634578, "lon": -57.9480989, "tags": {"amenity": "hospital", "healthcare": "hospital", "name": "Centro de Sallud Vallem\u00ed"}}, {"type": "node", "id": 4958865236, "lat": -27.3238928, "lon": -53.0571476, "tags": {"amenity": "hospital"}}, {"type": "node", "id": 4974285630, "lat": -26.8043497, "lon": -59.5615036, "tags": {"amenity": "hospital", "healthcare": "hospital"}}, {"type": "node", "id": 5030508316, "lat": -26.410756, "lon": -52.3564965, "tags": {"amenity": "hospital", "healthcare": "hospital", "name": "Hospital S\u00e3o Sebasti\u00e3o"}}, {"type": "node", "id": 5037771066, "lat": -23.6764424, "lon": -54.5633367, "tags": {"addr:city": "Iguatemi", "addr:postcode": "79960-000", "addr:street": "Rua Prefeito Gelson Andrade Moreira", "amenity": "hospital", "healthcare": "hospital", "name": "Hospital de Iguatemi"}}, {"type": "node", "id": 5037771085, "lat": -23.6822124, "lon": -54.5628405, "tags": {"addr:city": "Iguatemi", "addr:housenumber": "1081", "addr:postcode": "79960-000", "addr:street": "Avenida Laudelino Peixoto", "addr:suburb": "Centro", "amenity": "hospital", "healthcare": "hospital", "name": "Hospital S\u00e3o Judas Tadeu", "phone": "+55 67 3471 1766", "ref:CNES": "2374226", "ref:vatin": "BR40995874000140"}}, {"type": "node", "id": 5037771097, "lat": -23.6810481, "lon": -54.5588252, "tags": {"addr:city": "Iguatemi", "addr:postcode": "79960-000", "addr:street": "Avenida Presidente Vargas", "addr:suburb": "Centro", "amenity": "hospital", "healthcare": "hospital", "name": "Hospital S\u00e3o Lucas", "ref:CNES": "2376318"}}, {"type": "node", "id": 5039623953, "lat": -28.7823775, "lon": -52.1717061, "tags": {"amenity": "hospital", "name": "Posto de Sa\u00fade"}}, {"type": "node", "id": 5046651889, "lat": -26.0466183, "lon": -59.9455323, "tags": {"addr:city": "Pampa del Indio", "addr:full": "Malvinas Argentinas y Corrientes", "addr:postcode": "3531", "addr:street": "Corrientes", "amenity": "hospital", "healthcare": "hospital", "name": "Hospital viejo"}}, {"type": "node", "id": 5058824245, "lat": -28.5665686, "lon": -51.9761232, "tags": {"addr:city": "Casca", "addr:housenumber": "755", "addr:postcode": "99260-000", "addr:street": "Rua Doutor Vitorino Monteiro", "addr:suburb": "Centro", "amenity": "hospital", "healthcare": "hospital", "name": "Hospital Santa L\u00facia", "phone": "+55 54 3347-1150", "ref:CNES": "2246872", "ref:vatin": "BR88590369000142"}}, {"type": "node", "id": 5061008731, "lat": -24.7534302, "lon": -59.4891541, "tags": {"addr:city": "Villa General G\u00fcemes", "addr:street": "Avenida Comandante Fontana", "amenity": "hospital", "healthcare": "hospital", "name": "Hospital Rural"}}, {"type": "node", "id": 5061110182, "lat": -24.7505228, "lon": -59.501967, "tags": {"amenity": "hospital", "healthcare": "hospital"}}, {"type": "node", "id": 5065359610, "lat": -27.4888415, "lon": -58.8522178, "tags": {"addr:city": "Corrientes", "addr:postcode": "3400", "addr:street": "Montes de Oca", "amenity": "hospital", "healthcare": "hospital", "healthcare:speciality": "general", "name": "SAPS XXXI \"Dr. Blugerman\" B\u00b0 Virgen de Los Dolores", "phone": "478822 (4822)"}}, {"type": "node", "id": 5099367650, "lat": -28.6274751, "lon": -52.9531086, "tags": {"amenity": "hospital", "healthcare": "hospital", "name": "Posto de Sa\u00fade"}}, {"type": "node", "id": 5106187775, "lat": -22.9953192, "lon": -51.1897483, "tags": {"amenity": "hospital", "name": "Hospital e Maternidade S\u00e3o Jorge"}}, {"type": "node", "id": 5110254313, "lat": -26.5319047, "lon": -57.0387038, "tags": {"amenity": "hospital", "healthcare": "hospital"}}, {"type": "node", "id": 5115911678, "lat": -28.3915913, "lon": -57.8943791, "tags": {"addr:city": "Concepci\u00f3n", "addr:postcode": "3423", "addr:street": "Capitan Arbo y Blanco", "amenity": "hospital", "healthcare": "hospital", "name": "Hospital Inmaculada Concepci\u00f3n", "phone": "+54 3782 497000"}}, {"type": "node", "id": 5118110277, "lat": -29.1728785, "lon": -56.6471499, "tags": {"addr:city": "La Cruz", "addr:postcode": "3346", "addr:street": "Avenida Augusto Ballester", "amenity": "hospital", "healthcare": "hospital", "name": "Hospital San Antonio de Padua"}}, {"type": "node", "id": 5118129124, "lat": -25.2290481, "lon": -57.4166235, "tags": {"amenity": "hospital", "healthcare": "hospital", "name": "Centro de salud Tarumandy"}}, {"type": "node", "id": 5120625540, "lat": -20.4695081, "lon": -54.6241429, "tags": {"amenity": "hospital", "healthcare": "hospital"}}, {"type": "node", "id": 5125005043, "lat": -28.0407496, "lon": -58.2348311, "tags": {"addr:city": "Mburucuy\u00e1", "addr:housenumber": "450", "addr:postcode": "3427", "addr:street": "San Antonio", "amenity": "hospital", "healthcare": "hospital", "name": "Hospital San Antonio", "official_name": "Hospital San Antonio De Padua", "phone": "+54 3782 498087", "ref:sisa_codigo": "10180982139026", "ref:sisa_tipologia": "ESCIG"}},