{"version": 0.6, "generator": "Overpass API 0.7.61.5 4133829e", "osm3s": {"timestamp_osm_base": "2023-10-31T20:52:36Z", "copyright": "The data included in this document is from www.openstreetmap.org. The data is made available under ODbL."}, "elements": [{"type": "node", "id": 191815840, "lat": 6.8945486, "lon": 79.8797172, "tags": {"amenity": "hospital", "emergency": "yes", "healthcare": "hospital", "name": "Asiri Surgical Hospital"}}, {"type": "node", "id": 253022237, "lat": 6.8952045, "lon": 79.8652189, "tags": {"amenity": "hospital", "designation": "mother and baby", "emergency": "yes", "healthcare": "hospital", "is_in": "Colombo, Colombo District, Western Province, Sri Lanka", "name": "Joseph Fraser Memorial Hospital", "wheelchair": "limited"}}, {"type": "node", "id": 254367261, "lat": 6.7852045, "lon": 79.9729749, "tags": {"addr:city": "Wethara", "addr:street": "Colombo - Horana Road", "amenity": "hospital", "healthcare": "hospital", "name": "Wethara District Hospital"}}, {"type": "node", "id": 255179653, "lat": 6.8683337, "lon": 79.9261518, "tags": {"amenity": "hospital", "emergency": "yes", "healthcare": "hospital", "name": "Sri Jayawardenapura teaching hospital"}}, {"type": "node", "id": 307511109, "lat": 9.363999, "lon": 76.5925769, "tags": {"addr:district": "Pathanamthitta", "addr:full": "Thirumoolapuram", "addr:postcode": "689115", "addr:state": "Kerala", "amenity": "hospital", "name": "Aravind Ayurvedic Hospital", "source": "Local Knowledge"}}, {"type": "node", "id": 437134594, "lat": 4.2685, "lon": 73.490229, "tags": {"amenity": "hospital", "description": "Hyperbaric Chamber", "name": "Bandos Medical Center", "wheelchair": "yes"}}, {"type": "node", "id": 518947889, "lat": 9.9267975, "lon": 78.1420027, "tags": {"addr:block": "Madurai Corp", "addr:district": "Madurai", "addr:full": "Opp To Milk Project, Madurai South, K.K.Nagar,Madurai", "addr:postcode": "625020", "addr:state": "Tamil Nadu", "addr:subdistrict": "Madurai South", "amenity": "hospital", "healthcare": "hospital", "name": "PAMC Hospital (Pandian Advanced Medical Centre)", "source": "OpenGovernmentData"}}, {"type": "node", "id": 518991792, "lat": 9.9212003, "lon": 78.1398805, "tags": {"addr:block": "Madurai Corp", "addr:district": "Madurai", "addr:full": "Kuruvikaran Salai, Anna Nagar, Sathamangalam", "addr:postcode": "625020", "addr:state": "Tamil Nadu", "addr:subdistrict": "Madurai South", "amenity": "hospital", "healthcare": "hospital", "name": "Aravind Eye Hospitals", "source": "OpenGovernmentData"}}, {"type": "node", "id": 519011232, "lat": 9.9317265, "lon": 78.1401058, "tags": {"amenity": "hospital", "healthcare": "hospital", "name": "Government Vetinary Hospital"}}, {"type": "node", "id": 600882700, "lat": 8.4998439, "lon": 76.9410501, "tags": {"amenity": "hospital", "healthcare": "hospital", "name": "Regional Institute of Ophthalmology"}}, {"type": "node", "id": 600882701, "lat": 8.4986554, "lon": 76.9431315, "tags": {"addr:district": "Thiruvananthapuram", "addr:full": "Thiruvananthapuram", "addr:postcode": "695005", "addr:state": "Kerala", "amenity": "hospital", "healthcare": "hospital", "name": "Dr Govindans Hospital", "source": "OpenGovernmentData"}}, {"type": "node", "id": 617214076, "lat": 6.9062331, "lon": 79.9285198, "tags": {"amenity": "hospital", "emergency": "yes", "healthcare": "hospital", "name": "Divisional Hospital Thalangama"}}, {"type": "node", "id": 617262855, "lat": 6.8468216, "lon": 79.9522616, "tags": {"addr:city": "Pannipitiya", "addr:street": "Pannipitiya-Malambe Road", "amenity": "hospital", "healthcare": "hospital", "name": "Pannipitiya Nursing Home"}}, {"type": "node", "id": 618557052, "lat": 6.9117052, "lon": 79.8856356, "tags": {"addr:city": "colombo 08", "addr:street": "Cotta Road", "amenity": "hospital", "emergency": "yes", "healthcare": "hospital", "name": "Western Hospital", "wikidata": "Q20047300"}}, {"type": "node", "id": 619735564, "lat": 6.9172436, "lon": 79.8671954, "tags": {"amenity": "hospital", "emergency": "yes", "healthcare": "hospital", "name": "Colombo General Hospital"}}, {"type": "node", "id": 619944442, "lat": 6.8546505, "lon": 79.9143409, "tags": {"addr:city": "Nawinna", "amenity": "hospital", "healthcare": "hospital", "name": "Nawinna Medicare Hospital"}}, {"type": "node", "id": 621183283, "lat": 6.9247709, "lon": 79.942918, "tags": {"amenity": "hospital", "emergency": "yes", "name": "Mulleriyawa Hospital"}}, {"type": "node", "id": 621199761, "lat": 6.9887373, "lon": 79.8912101, "tags": {"amenity": "hospital", "emergency": "yes", "healthcare": "hospital", "name": "Hemas Hospital", "wheelchair": "yes"}}, {"type": "node", "id": 621201132, "lat": 6.98282, "lon": 79.8768982, "tags": {"amenity": "hospital", "healthcare": "hospital", "healthcare:speciality": "psychiatry", "name": "Hekitta Mental Hospital"}}, {"type": "node", "id": 621201133, "lat": 6.9828093, "lon": 79.8755142, "tags": {"amenity": "hospital", "healthcare": "hospital", "name": "Leprosy Hospital"}}, {"type": "node", "id": 621908264, "lat": 6.8311854, "lon": 79.8773217, "tags": {"amenity": "hospital", "healthcare": "hospital", "name": "Siddhalepa"}}, {"type": "node", "id": 622250802, "lat": 9.3852283, "lon": 76.6153372, "tags": {"amenity": "hospital", "emergency": "yes", "name": "Thottabhagam Hospital"}}, {"type": "node", "id": 654172175, "lat": 6.9420589, "lon": 79.8658056, "tags": {"amenity": "hospital", "healthcare": "hospital", "name": "Sulaiman"}}, {"type": "node", "id": 673927618, "lat": 6.8607229, "lon": 79.8664157, "tags": {"amenity": "hospital", "healthcare": "hospital", "name": "Dehiwala Medical Centre"}}, {"type": "node", "id": 675546475, "lat": 9.7088081, "lon": 76.6765231, "tags": {"amenity": "hospital", "name": "Alphonsa Eye Hospital"}}, {"type": "node", "id": 679004906, "lat": 6.9139635, "lon": 79.8697567, "tags": {"amenity": "hospital", "healthcare": "hospital", "name": "Maccarthy Private Hospital"}}, {"type": "node", "id": 681802896, "lat": 6.9198065, "lon": 79.8702449, "tags": {"addr:city": "Colombo 10", "addr:housenumber": "19", "addr:street": "Kynsey Road", "amenity": "hospital", "check_date": "2022-10-11", "emergency": "yes", "healthcare": "hospital", "name": "De Soysa Hospital for Women", "opening_hours": "24/7", "operator:type": "government", "wheelchair": "yes"}}, {"type": "node", "id": 690029213, "lat": 9.9291508, "lon": 78.148482, "tags": {"addr:district": "Madurai", "addr:full": "11Lakeview Road, Opp Sundaram Theatre, K K Nagar", "addr:postcode": "625020", "addr:state": "Tamil Nadu", "amenity": "hospital", "healthcare": "hospital", "name": "Neomed Hospital", "source": "OpenGovernmentData"}}, {"type": "node", "id": 690414609, "lat": 9.711455, "lon": 76.6809641, "tags": {"addr:district": "Kottayam", "addr:full": "Pala", "addr:postcode": "686575", "addr:state": "Kerala", "amenity": "hospital", "building": "hospital", "emergency": "yes", "healthcare": "hospital", "is_in": "Pala", "name": "General Hospital", "name:en": "General Hospital", "name:ml": "\u0d2a\u0d3e\u0d32\u0d3e \u0d1c\u0d28\u0d31\u0d7d \u0d06\u0d36\u0d41\u0d2a\u0d24\u0d4d\u0d30\u0d3f", "operator": "DEPARTMENT OF HEALTH SERVICES", "operator:type": "government", "source": "OpenGovernmentData"}}, {"type": "node", "id": 748739164, "lat": 9.7473158, "lon": 76.703386, "tags": {"addr:district": "Kottayam", "addr:full": "Palai - Thodupuzha Highway, Anthinad P.O., Near Palai", "addr:postcode": "686651", "addr:state": "Kerala", "alt_name": "Mar Kavukatt Memorial Hospital", "amenity": "hospital", "contact:phone": "+91-4822248927", "name": "Mar Kavukatt Memorial Hospital, Anthinad", "source": "OpenGovernmentData", "website": "https://mkmhospital.com/"}}, {"type": "node", "id": 836113240, "lat": 9.7117351, "lon": 76.6813947, "tags": {"amenity": "hospital", "emergency": "yes", "healthcare": "hospital", "name": "Christuraj Hospital"}}, {"type": "node", "id": 844674876, "lat": 6.9838357, "lon": 79.9292155, "tags": {"amenity": "hospital", "healthcare": "hospital", "name": "Kiribathgoda Base Hospital"}}, {"type": "node", "id": 844679663, "lat": 6.9808166, "lon": 79.9300631, "tags": {"amenity": "hospital", "healthcare": "hospital", "name": "Lanka Pharmacy"}}, {"type": "node", "id": 929115028, "lat": 6.9226177, "lon": 79.9165176, "tags": {"amenity": "hospital", "name": "IDH Hospital", "note": "Now known as National Institute of Infectious Diseases"}}, {"type": "node", "id": 976674824, "lat": 6.9251045, "lon": 79.8646684, "tags": {"amenity": "hospital", "healthcare": "hospital", "name": "Dental Surgery"}}, {"type": "node", "id": 997575962, "lat": 9.6834087, "lon": 76.6117672, "tags": {"amenity": "hospital", "emergency": "yes", "healthcare": "hospital", "name": "Little Lourde Hospital Kidangoor"}}, {"type": "node", "id": 1026208607, "lat": 9.7062998, "lon": 76.7598364, "tags": {"amenity": "hospital", "name": "Holy Family Hospital Plassanal"}}, {"type": "node", "id": 1026823949, "lat": 9.761646, "lon": 76.5677558, "tags": {"amenity": "hospital", "comment": "not exact location", "name": "Sushrusha Hospital, Kozha Kuravlingad"}}, {"type": "node", "id": 1134759577, "lat": 7.3486769, "lon": 79.861647, "tags": {"amenity": "hospital", "name": "Lunuwila Hospital"}}, {"type": "node", "id": 1138325216, "lat": 6.7840477, "lon": 79.8776831, "tags": {"amenity": "hospital", "healthcare": "hospital", "name": "De Soysa Hospital"}}, {"type": "node", "id": 1190881322, "lat": 9.9432462, "lon": 76.3741513, "tags": {"amenity": "hospital", "name": "Naliyath Medical Chamber"}}, {"type": "node", "id": 1268340408, "lat": 7.2092833, "lon": 79.8497222, "tags": {"addr:street": "Negombo-Colombo Road", "amenity": "hospital", "name": "Singer Mega", "name:en": "Nawaloka Hospital", "phone": "0115777777", "shop": "convenience"}}, {"type": "node", "id": 1369179914, "lat": 6.8872112, "lon": 79.8725351, "tags": {"amenity": "hospital", "healthcare": "hospital", "name": "Park Hospital"}}, {"type": "node", "id": 1370716555, "lat": 7.0242496, "lon": 79.9029398, "tags": {"amenity": "hospital", "name": "Chest Hospital Welisara"}}, {"type": "node", "id": 1370719663, "lat": 7.0277745, "lon": 79.9206152, "tags": {"amenity": "hospital", "emergency": "yes", "name": "Browns Hospital"}}, {"type": "node", "id": 1370719682, "lat": 7.0412386, "lon": 79.9037391, "tags": {"amenity": "hospital", "name": "Kandana Base Hospital"}}, {"type": "node", "id": 1370722303, "lat": 7.023994, "lon": 79.9227398, "tags": {"amenity": "hospital", "name": "Ranwwiru Sewana Hospital"}}, {"type": "node", "id": 1378977879, "lat": 6.8957176, "lon": 79.8604707, "tags": {"amenity": "hospital", "healthcare": "hospital", "name": "Dr Muhsin - Dental Clinic"}}, {"type": "node", "id": 1378988156, "lat": 6.9192775, "lon": 79.870419, "tags": {"amenity": "hospital", "healthcare": "hospital", "name": "Neurology Ward"}}, {"type": "node", "id": 1378988158, "lat": 6.9206887, "lon": 79.8696197, "tags": {"amenity": "hospital", "emergency": "yes", "healthcare": "hospital", "name": "Cardiac Ward"}}, {"type": "node", "id": 1378988163, "lat": 6.9186997, "lon": 79.8671977, "tags": {"amenity": "hospital", "check_date": "2023-01-01", "emergency": "yes", "healthcare": "hospital", "name": "Accident Ward"}}, {"type": "node", "id": 1471806291, "lat": 9.9502203, "lon": 76.3179964, "tags": {"amenity": "hospital", "healthcare": "hospital", "name": "Nair's Hospital , Kochi"}}, {"type": "node", "id": 1472112511, "lat": 9.9377796, "lon": 76.3227155, "tags": {"addr:district": "Ernakulam", "addr:full": "Maradu, Cochin", "addr:postcode": "682304", "addr:state": "Kerala", "amenity": "hospital", "healthcare": "hospital", "name": "P.S. Mission Hospital", "source": "OpenGovernmentData"}}, {"type": "node", "id": 1472148626, "lat": 9.9585788, "lon": 76.3192419, "tags": {"addr:district": "Ernakulam", "addr:full": "N.H.47 Bypass, Thykoodam, Vyttila", "addr:postcode": "682019", "addr:state": "Kerala", "amenity": "hospital", "healthcare": "hospital", "name": "Dr. Joys Hospital", "source": "OpenGovernmentData"}}, {"type": "node", "id": 1473134118, "lat": 9.5053603, "lon": 76.3418646, "tags": {"addr:city": "Alappuzha", "addr:district": "Alappuzha", "addr:full": "Thathampally", "addr:postcode": "688013", "addr:state": "Kerala", "amenity": "hospital", "healthcare": "hospital", "name": "Sahrudaya Hospital", "source": "OpenGovernmentData"}}, {"type": "node", "id": 1474212725, "lat": 9.9538555, "lon": 76.3423588, "tags": {"amenity": "hospital", "healthcare": "hospital", "name": "Varma Hospital"}}, {"type": "node", "id": 1474217343, "lat": 9.9438728, "lon": 76.349062, "tags": {"amenity": "hospital", "healthcare": "hospital", "name": "Government Ayurveda Hospital"}}, {"type": "node", "id": 1474540727, "lat": 9.9859833, "lon": 76.2814393, "tags": {"addr:district": "Ernakulam", "addr:full": "Madhavapharmacy Jn., Kacherippady, Kochi", "addr:postcode": "682018", "addr:state": "Kerala", "amenity": "hospital", "name": "P.N.V.M. Hospital and Research Centre", "source": "OpenGovernmentData"}}, {"type": "node", "id": 1474863244, "lat": 9.9787245, "lon": 76.2867126, "tags": {"amenity": "hospital", "healthcare": "hospital", "name": "Al Shifa Hospital"}}, {"type": "node", "id": 1477746216, "lat": 7.375189, "lon": 79.8993102, "tags": {"amenity": "hospital"}}, {"type": "node", "id": 1504720730, "lat": 4.0527924, "lon": 72.725078, "tags": {"amenity": "hospital", "designation": "Feridhoo Health Center", "emergency": "yes", "name": "Feridhoo Health Center"}}, {"type": "node", "id": 1523693927, "lat": 6.8457107, "lon": 79.9286112, "tags": {"addr:city": "Maharagama", "addr:street": "High Level Road", "amenity": "hospital", "healthcare": "hospital", "name": "Dental Institute"}}, {"type": "node", "id": 1560450301, "lat": 9.3621517, "lon": 78.8344145, "tags": {"addr:district": "Ramanathapuram", "addr:full": "27/1. R.R. Sethupathy, Naar G.H. Road", "addr:postcode": "623501", "addr:state": "Tamil Nadu", "amenity": "hospital", "healthcare": "hospital", "name": "Rajans Hospital (P) Ltd.", "source": "OpenGovernmentData"}}, {"type": "node", "id": 1617955806, "lat": 7.2012053, "lon": 79.8536244, "tags": {"amenity": "hospital", "name": "Dissanayake Private Hospital Negombo"}}, {"type": "node", "id": 1626529110, "lat": 8.6018701, "lon": 76.992477, "tags": {"access": "no", "amenity": "hospital", "emergency": "yes", "healthcare": "hospital", "name": "RIMS", "name:ml": "\u0d31\u0d3f\u0d02\u0d38\u0d4d", "phone": "+91-4722801396", "social_facility": "Yes"}}, {"type": "node", "id": 1650226106, "lat": 6.855884, "lon": 79.9176997, "tags": {"addr:city": "Nawinna", "amenity": "hospital", "healthcare": "hospital", "name": "Ayurveda Corporation"}}, {"type": "node", "id": 1650227458, "lat": 6.8507988, "lon": 79.9215162, "tags": {"addr:city": "Wattegedara Junction", "addr:street": "High Level Road", "amenity": "hospital", "healthcare": "hospital", "name": "Nursing Home"}}, {"type": "node", "id": 1662139981, "lat": 6.8453097, "lon": 79.92922, "tags": {"addr:city": "Maharagama", "addr:street": "High Level Road", "amenity": "hospital", "healthcare": "hospital", "name": "Asia Hospital"}}, {"type": "node", "id": 1683009773, "lat": 8.4417835, "lon": 76.9572485, "tags": {"addr:district": "Thiruvananthapuram", "addr:full": "T.C. 65/006, Thiruvallam", "addr:postcode": "695027", "addr:state": "Kerala", "amenity": "hospital", "fax": "2380735", "name": "B.N.V. Hospital", "source": "OpenGovernmentData", "wheelchair": "yes"}}, {"type": "node", "id": 1685476652, "lat": 8.3354591, "lon": 77.8640852, "tags": {"addr:district": "Tirunelveli", "addr:full": "Main Road", "addr:postcode": "627657", "addr:state": "Tamil Nadu", "amenity": "hospital", "healthcare": "hospital", "name": "A D J Hospital", "source": "OpenGovernmentData"}}, {"type": "node", "id": 1685934999, "lat": 8.5157434, "lon": 76.9358086, "tags": {"addr:district": "Thiruvananthapuram", "addr:full": "Murinjapalam, Pattom", "addr:postcode": "695004", "addr:state": "Kerala", "amenity": "hospital", "emergency": "yes", "healthcare": "hospital", "name": "Cosmopolitan Hospital, Pattom", "source": "OpenGovernmentData"}}, {"type": "node", "id": 1689961963, "lat": 8.336738, "lon": 77.864386, "tags": {"amenity": "hospital", "emergency": "yes", "healthcare": "hospital", "name": "Jerry Hospital"}}, {"type": "node", "id": 1715814713, "lat": 8.4848714, "lon": 76.9721732, "tags": {"amenity": "hospital", "emergency": "yes", "healthcare": "hospital", "name": "Chaithanya Eye Hospital and Research Institute, Karamana"}}, {"type": "node", "id": 1726676541, "lat": 8.4811163, "lon": 76.9592286, "tags": {"addr:district": "Thiruvananthapuram", "addr:full": "Tc. No. 21/44, Killipalam", "addr:postcode": "695002", "addr:state": "Kerala", "amenity": "hospital", "fax": "2345358", "healthcare": "hospital", "name": "PRS Hospital", "source": "OpenGovernmentData", "website": "https://www.prshospital.com"}}, {"type": "node", "id": 1731515251, "lat": 7.906233, "lon": 79.8228174, "tags": {"amenity": "hospital", "name": "Sooriya Medical Center"}}, {"type": "node", "id": 1734272535, "lat": 9.7378712, "lon": 76.6210694, "tags": {"amenity": "hospital", "name": "Govt Ayurvedic Hospital Marangattupilly", "name:ml": "\u0d17\u0d35. \u0d06\u0d2f\u0d41\u0d30\u0d4d\u200d\u0d35\u0d47\u0d26 \u0d06\u0d36\u0d41\u0d2a\u0d24\u0d4d\u0d30\u0d3f \u0d2e\u0d30\u0d19\u0d4d\u0d19\u0d3e\u0d1f\u0d4d\u0d1f\u0d41\u0d2a\u0d3f\u0d33\u0d4d\u0d33\u0d3f", "source": "Bing"}}, {"type": "node", "id": 1736854509, "lat": 6.8124463, "lon": 79.9633446, "tags": {"amenity": "hospital", "emergency": "no", "name": "Katugampala Weda Madura"}}, {"type": "node", "id": 1763921958, "lat": 9.767019, "lon": 76.6517176, "tags": {"amenity": "hospital", "healthcare": "hospital", "name": "Sacred Heart Hospital, Chakkampuzha", "source": "Bing"}}, {"type": "node", "id": 1769185797, "lat": 9.2346623, "lon": 78.7860322, "tags": {"addr:block": "Keelakarai Mpty", "addr:district": "Ramanathapuram", "addr:full": "Near Municipal Office, Keelakarai", "addr:postcode": "623517", "addr:state": "Tamil Nadu", "addr:subdistrict": "Rameswaram", "amenity": "hospital", "healthcare": "hospital", "name": "Government Hospital, Kilakarai", "source": "OpenGovernmentData"}}, {"type": "node", "id": 1769456753, "lat": 8.5584834, "lon": 77.9701379, "tags": {"addr:district": "Tuticorin", "addr:full": "Nazareth", "addr:postcode": "628616", "addr:state": "Tamil Nadu", "amenity": "hospital", "healthcare": "hospital", "name": "St. Lukes Hospital", "source": "OpenGovernmentData"}}, {"type": "node", "id": 1822725595, "lat": 6.5793909, "lon": 79.9629869, "tags": {"amenity": "hospital", "healthcare": "hospital", "name": "Phillip Hospital"}}, {"type": "node", "id": 1823709276, "lat": 6.5630625, "lon": 79.9852435, "tags": {"amenity": "hospital", "emergency": "emergency_ward_entrance", "healthcare": "hospital", "name": "Teaching Hospital Kalutara"}}, {"type": "node", "id": 1838419646, "lat": 6.878155, "lon": 79.8599713, "tags": {"addr:housenumber": "36A", "addr:street": "Galle Road", "amenity": "hospital", "check_date": "2023-03-29", "email": "mediclinicwellawatta@gmail.com", "emergency": "no", "healthcare": "hospital", "name": "Medi Clinic wellawatte", "operator:type": "private", "phone": "+94 112 593 959", "wheelchair": "yes"}}, {"type": "node", "id": 1839459825, "lat": 6.9188122, "lon": 79.8651464, "tags": {"amenity": "hospital", "emergency": "yes", "healthcare": "hospital", "name": "National Eye Hospital"}}, {"type": "node", "id": 1839459849, "lat": 6.9211084, "lon": 79.8568546, "tags": {"amenity": "hospital", "healthcare": "hospital", "name": "Ratnam's"}}, {"type": "node", "id": 1843565879, "lat": 6.9469426, "lon": 79.9939404, "tags": {"amenity": "hospital", "emergency": "yes", "name": "Biyagama Hospital"}}, {"type": "node", "id": 1889647257, "lat": 8.9144298, "lon": 77.3878516, "tags": {"amenity": "hospital"}}, {"type": "node", "id": 1891061105, "lat": 8.9159499, "lon": 77.3810746, "tags": {"amenity": "hospital"}}, {"type": "node", "id": 1905017761, "lat": 9.9860149, "lon": 76.2830575, "tags": {"amenity": "hospital", "healthcare": "alternative", "name": "Government Ayurvedic Hospital"}}, {"type": "node", "id": 1907858547, "lat": 9.9849328, "lon": 76.2832964, "tags": {"addr:district": "Ernakulam", "addr:full": "Kacheripady, Chittoor Road", "addr:postcode": "682018", "addr:state": "Kerala", "amenity": "hospital", "name": "Sree Sudheendra Medical Mission Hospital", "source": "OpenGovernmentData", "website": "https://ssmmhospital.com/"}}, {"type": "node", "id": 1954307174, "lat": 9.7502732, "lon": 76.3899657, "tags": {"amenity": "hospital", "emergency": "yes", "healthcare": "hospital", "name": "Taluk Headquarters Hospital, vaikom", "operator": "department of health services", "operator:type": "government", "phone": "+91-4829-231261"}}, {"type": "node", "id": 1978801477, "lat": 6.8685486, "lon": 79.8913231, "tags": {"addr:city": "Nugegoda", "amenity": "hospital", "healthcare": "hospital", "name": "Nugegoda Nursing Home"}}, {"type": "node", "id": 1988112233, "lat": 6.8920418, "lon": 79.9290176, "tags": {"amenity": "hospital", "healthcare": "hospital", "name": "Asiri Laboratory"}}, {"type": "node", "id": 2026668068, "lat": 6.9164093, "lon": 79.8559089, "tags": {"amenity": "hospital", "emergency": "no", "healthcare": "hospital", "name": "Colombo Friend-in-Need Society"}}, {"type": "node", "id": 2066352047, "lat": 8.5352501, "lon": 76.9674372, "tags": {"amenity": "hospital", "emergency": "yes", "healthcare": "hospital", "name": "Government Hospital Peroorkada", "operator": "Department of Health and Family Welfare", "operator:type": "government"}}, {"type": "node", "id": 2094306206, "lat": 6.9215796, "lon": 79.8723122, "tags": {"amenity": "hospital", "healthcare": "hospital", "name": "Medicare"}}, {"type": "node", "id": 2094344643, "lat": 6.9139244, "lon": 79.880517, "tags": {"addr:city": "Borella", "addr:street": "Kotta Road", "amenity": "hospital", "healthcare": "hospital", "name": "Borella Private Hospital"}}, {"type": "node", "id": 2096452649, "lat": 6.9333964, "lon": 79.894408, "tags": {"addr:city": "Kolonnawa", "amenity": "hospital", "emergency": "no", "healthcare": "hospital", "name": "YMBA Hospital"}}, {"type": "node", "id": 2100972630, "lat": 6.8469074, "lon": 79.9923651, "tags": {"addr:city": "Homagama", "addr:street": "Malapalla Road", "amenity": "hospital", "emergency": "yes", "healthcare": "hospital", "name": "Homagama Base Hospital"}}, {"type": "node", "id": 2124720725, "lat": 6.927259, "lon": 79.9123243, "tags": {"addr:city": "Gothatuwa", "amenity": "hospital", "name": "Lions Eye Hospital"}}, {"type": "node", "id": 2237102126, "lat": 9.6893734, "lon": 76.7294329, "tags": {"amenity": "hospital", "name": "Oshana Mount Hospital"}}, {"type": "node", "id": 2237171901, "lat": 9.7996017, "lon": 76.8455509, "tags": {"addr:city": "Moolamattom", "addr:postcode": "685589", "addr:street": "Thodupuzha Moolamattom", "amenity": "hospital", "name": "Bishop Vayalil Medical Centre"}}, {"type": "node", "id": 2262767875, "lat": 8.3362544, "lon": 77.8658684, "tags": {"amenity": "hospital", "healthcare": "hospital", "name": "Rajan hospital"}}, {"type": "node", "id": 2262767900, "lat": 8.3386085, "lon": 77.8672828, "tags": {"amenity": "hospital", "emergency": "no", "healthcare": "hospital", "name": "Govt hospital (siddha only)"}}, {"type": "node", "id": 2303344373, "lat": 8.165261, "lon": 77.6403995, "tags": {"amenity": "hospital"}}, {"type": "node", "id": 2331415964, "lat": 8.5626415, "lon": 76.884154, "tags": {"amenity": "hospital", "healthcare": "hospital", "name": "University Health Center"}}, {"type": "node", "id": 2339237715, "lat": 6.7057665, "lon": 79.905888, "tags": {"amenity": "hospital", "healthcare": "hospital", "name": "Panadura Nursing Home"}}, {"type": "node", "id": 2339437466, "lat": 6.7180466, "lon": 79.9082865, "tags": {"amenity": "hospital", "healthcare": "hospital", "name": "Suwa Medura"}}, {"type": "node", "id": 2363078212, "lat": 8.1749614, "lon": 77.4271723, "tags": {"addr:district": "Kanniyakumari", "addr:full": "Ramavarmapuram, Nagercoil, Jawahar Street", "addr:postcode": "629001", "addr:state": "Tamil Nadu", "addr:subdistrict": "Agastheeswaram", "amenity": "hospital", "healthcare": "hospital", "name": "Kulanthaisanjevi Hospital", "source": "OpenGovernmentData"}}, {"type": "node", "id": 2364135060, "lat": 8.1765816, "lon": 77.4273533, "tags": {"addr:district": "Kanniyakumari", "addr:full": "2A/1, Near Pd.Pilllai Hall, K. P. Road, Ramavarmapuram, Simon Nagar, Nagercoil", "addr:postcode": "629001", "addr:state": "Tamil Nadu", "addr:subdistrict": "Agastheeswaram", "amenity": "hospital", "healthcare": "hospital", "name": "Dr. Gopalapillai Jawahar Hospital", "source": "OpenGovernmentData"}}, {"type": "node", "id": 2364874919, "lat": 8.1782741, "lon": 77.4362511, "tags": {"amenity": "hospital", "healthcare": "hospital", "name": "Kottar Government Hospital"}}, {"type": "node", "id": 2364874921, "lat": 8.1735067, "lon": 77.4275679, "tags": {"amenity": "hospital", "healthcare": "hospital", "name": "Life Care Hospital"}}, {"type": "node", "id": 2365395931, "lat": 8.1823899, "lon": 77.415691, "tags": {"amenity": "hospital", "healthcare": "hospital", "name": "SP Scan Centre"}}, {"type": "node", "id": 2370307059, "lat": 8.1801549, "lon": 77.4201531, "tags": {"amenity": "hospital", "healthcare": "hospital", "name": "Muthunayagam Hospital"}}, {"type": "node", "id": 2371807803, "lat": 8.1828595, "lon": 77.4293245, "tags": {"addr:district": "Kanniyakumari", "addr:full": "Court Road, 15/16-33, Near Slb School, Victoria Press Road, Dennison Road, Nagercoil", "addr:postcode": "629001", "addr:state": "Tamil Nadu", "addr:subdistrict": "Agastheeswaram", "amenity": "hospital", "healthcare": "hospital", "name": "Dr. Jayaharan Memorial Hospital", "source": "OpenGovernmentData"}}, {"type": "node", "id": 2376840237, "lat": 9.9446102, "lon": 76.3727576, "tags": {"amenity": "hospital", "emergency": "no", "healthcare": "hospital", "name": "Nirmala Hospital"}}, {"type": "node", "id": 2390492643, "lat": 9.947238, "lon": 78.157954, "tags": {"addr:block": "Madurai Corp", "addr:district": "Madurai", "addr:full": "120 Feet Street, K.Pudhu, Ganesh Nagar", "addr:postcode": "625007", "addr:state": "Tamil Nadu", "amenity": "hospital", "healthcare": "hospital", "name": "Preethi Hospital", "source": "OpenGovernmentData"}}, {"type": "node", "id": 2390495901, "lat": 9.9484837, "lon": 78.1625426, "tags": {"addr:district": "Madurai", "addr:full": "Lake Area, Melur Road, Madurai", "addr:postcode": "625107", "addr:state": "Tamil Nadu", "amenity": "hospital", "emergency": "yes", "healthcare": "hospital", "name": "Meenakshi Mission Hospital", "source": "OpenGovernmentData"}}, {"type": "node", "id": 2391343055, "lat": 9.9468667, "lon": 76.2560419, "tags": {"addr:district": "Ernakulam", "addr:full": "P.B. No. 868, Panayapilly", "addr:postcode": "682008", "addr:state": "Kerala", "addr:street": "Mons. Mathew Kothakathu Road", "amenity": "hospital", "name": "Gautham Hospital", "source": "OpenGovernmentData"}}, {"type": "node", "id": 2391343056, "lat": 9.9478979, "lon": 76.2558553, "tags": {"addr:street": "Mons. Mathew Kothakathu Road", "amenity": "hospital", "name": "Laxmi Hospital", "opening_hours": "24/7"}}, {"type": "node", "id": 2394940227, "lat": 8.7249013, "lon": 77.7219613, "tags": {"amenity": "hospital", "designation": "Hospital", "emergency": "yes", "healthcare": "hospital", "name": "Agarwal Eye Hospital"}}, {"type": "node", "id": 2436236562, "lat": 9.3106751, "lon": 77.5486151, "tags": {"addr:city": "Sankarankoil", "addr:housename": "Rajapalayam Road", "addr:postcode": "627756", "addr:street": "Rajapalayam - Sankarankoil - Tirunelveli Road", "amenity": "hospital", "healthcare": "hospital", "name": "AnnaMalai Hospital"}}, {"type": "node", "id": 2436236566, "lat": 9.3118398, "lon": 77.5487224, "tags": {"addr:city": "Sankarankoil", "addr:postcode": "627756", "addr:street": "Rajapalayam - Sankarankoil - Tirunelveli Road", "amenity": "hospital", "healthcare": "hospital", "name": "NMS Hospital"}}, {"type": "node", "id": 2436248978, "lat": 9.3117103, "lon": 77.5519108, "tags": {"addr:city": "Sankarankoil", "addr:postcode": "627756", "addr:street": "Geethalaya Theatre Road", "amenity": "hospital", "healthcare": "hospital", "name": "Sri Vaiyapuri Hospital"}}, {"type": "node", "id": 2445730843, "lat": 9.5026116, "lon": 78.0971038, "tags": {"addr:block": "Aruppukottai Mpty", "addr:district": "Virudhunagar", "addr:full": "Govt. Hospital, Aruppukottai, Opp. To Taluk Office, Pandalgudi Main Road, Aruppukottai, Pandalgudi Main Road", "addr:postcode": "626101", "addr:state": "Tamil Nadu", "addr:subdistrict": "Aruppukkottai", "amenity": "hospital", "name": "Government Hospital, Aruppukottai", "source": "OpenGovernmentData"}}, {"type": "node", "id": 2445757043, "lat": 9.5895875, "lon": 77.9618521, "tags": {"amenity": "hospital", "healthcare": "hospital", "name": "Virudhunagar Government Hospital ICU Unit"}}, {"type": "node", "id": 2445761284, "lat": 9.5903105, "lon": 77.9613532, "tags": {"amenity": "hospital", "healthcare": "hospital", "name": "Senthikumara Nadar Government Hospital"}}, {"type": "node", "id": 2445763361, "lat": 9.5893535, "lon": 77.9601061, "tags": {"addr:block": "Virudhunagar Mpty", "addr:district": "Virudhunagar", "addr:full": "66 T-1, Near Government Hospital, Virudhunagar, Ramamoorthy Road", "addr:postcode": "626001", "addr:state": "Tamil Nadu", "amenity": "hospital", "healthcare": "hospital", "name": "Thiruvengdam Hospital", "source": "OpenGovernmentData"}}, {"type": "node", "id": 2445784621, "lat": 9.5880809, "lon": 77.952964, "tags": {"amenity": "hospital", "healthcare": "hospital", "name": "Kamarajar Hospital"}}, {"type": "node", "id": 2447122971, "lat": 9.8404485, "lon": 78.4855684, "tags": {"amenity": "hospital", "healthcare": "hospital", "name": "Government hospital"}}, {"type": "node", "id": 2479890347, "lat": 7.0316559, "lon": 79.9220455, "tags": {"amenity": "hospital", "name": "Leesons Hospital"}}, {"type": "node", "id": 2509093692, "lat": 8.8875267, "lon": 76.5849572, "tags": {"addr:housenumber": "0474-2742004", "addr:postcode": "691001", "amenity": "hospital", "healthcare": "hospital", "name": "Kollam District Hospital", "operator": "Department of Health Services", "operator:type": "government"}}, {"type": "node", "id": 2552015799, "lat": 6.8449276, "lon": 79.9308043, "tags": {"addr:city": "Maharagama", "addr:housename": "1/135, Avissawella Road, Maharagama", "addr:street": "High Level Road", "amenity": "hospital", "healthcare": "hospital", "name": "Odent Dental Surgery", "note": "Open on Monday to Saturday 5pm to 8pm", "phone": "0773888693"}}, {"type": "node", "id": 2555411615, "lat": 9.3682137, "lon": 76.478529, "tags": {"addr:district": "Alappuzha", "addr:full": "Edathua", "addr:postcode": "689573", "addr:state": "Kerala", "amenity": "hospital", "emergency": "yes", "name": "Maha Jubilee Memorial Hospital", "source": "OpenGovernmentData"}}, {"type": "node", "id": 2579040575, "lat": 9.0543298, "lon": 76.8412851, "tags": {"amenity": "hospital", "healthcare": "hospital", "name": "Manjakala Vilayil Hospital"}}, {"type": "node", "id": 2581151637, "lat": 9.0250574, "lon": 76.8486475, "tags": {"amenity": "hospital", "healthcare": "hospital", "name": "KMK Hospital", "wheelchair": "no"}}, {"type": "node", "id": 2581151640, "lat": 9.0225194, "lon": 76.8472749, "tags": {"amenity": "hospital", "name": "Rajeev"}}, {"type": "node", "id": 2586621033, "lat": 8.8811141, "lon": 76.5932034, "tags": {"addr:district": "Kollam", "addr:full": "P O Box No 515", "addr:postcode": "691001", "addr:state": "Kerala", "amenity": "hospital", "name": "Bishop Benziger Hospital", "source": "OpenGovernmentData"}}, {"type": "node", "id": 2588694138, "lat": 6.783547, "lon": 79.8780478, "tags": {"amenity": "hospital", "healthcare": "hospital", "name": "Lunawa Aryuweda Hospital"}}, {"type": "node", "id": 2594120260, "lat": 8.1736296, "lon": 77.4024005, "tags": {"amenity": "hospital", "healthcare": "hospital", "name": "AVR Pillai Hospital"}}, {"type": "node", "id": 2594120285, "lat": 8.174033, "lon": 77.4028974, "tags": {"amenity": "hospital", "healthcare": "hospital", "name": "Earl Hospital"}}, {"type": "node", "id": 2594120307, "lat": 8.1889919, "lon": 77.4008206, "tags": {"amenity": "hospital", "healthcare": "hospital", "name": "Joe Hospital"}}, {"type": "node", "id": 2595496255, "lat": 9.4626186, "lon": 76.5524968, "tags": {"addr:city": "Changanacherry", "addr:district": "Kottayam", "addr:full": "Chethipuzha, Changanacherry", "addr:housename": "Chethipuzha", "addr:postcode": "686104", "addr:state": "Kerala", "addr:street": "Chethipuzha, Kurishmoodu Road", "amenity": "hospital", "contact:fax": "+91 0481-2721584", "email": "info@st-thomashospital.org", "healthcare": "hospital", "healthcare:speciality": "general", "name": "St. Thomas Hospital, Chethipuzha", "name:ml": "\u0d38\u0d46\u0d28\u0d4d\u0d31\u0d4d \u0d24\u0d4b\u0d2e\u0d38\u0d4d \u0d06\u0d36\u0d41\u0d2a\u0d24\u0d4d\u0d30\u0d3f;\u0d1a\u0d46\u0d24\u0d4d\u0d24\u0d3f\u0d2a\u0d4d\u0d2a\u0d41\u0d34", "phone": "+91 481 2723952;+91 481 2721797", "source": "OpenGovernmentData", "website": "http://www.st-thomashospital.net/contact.html"}}, {"type": "node", "id": 2602930279, "lat": 8.1793516, "lon": 77.4330949, "tags": {"amenity": "hospital", "healthcare": "hospital", "name": "Joseph Daisy Hospital"}}, {"type": "node", "id": 2630015280, "lat": 9.2562701, "lon": 76.4642233, "tags": {"amenity": "hospital"}}, {"type": "node", "id": 2633843223, "lat": 9.2830019, "lon": 76.4427023, "tags": {"addr:district": "Alappuzha", "addr:full": "Kumarapuram P.O., Haripad", "addr:postcode": "690548", "addr:state": "Kerala", "amenity": "hospital", "name": "Huda Trust Hospital", "source": "OpenGovernmentData"}}, {"type": "node", "id": 2646853742, "lat": 8.5206614, "lon": 76.9245217, "tags": {"alt_name": "RCC", "amenity": "hospital", "healthcare": "hospital", "name": "Regional Cancer Centre", "wikidata": "Q7309013"}}, {"type": "node", "id": 2694404350, "lat": 8.5746272, "lon": 76.8685923, "tags": {"addr:district": "Thiruvananthapuram", "addr:full": "Urban Health Training Centre, (Dr.S.M.C.S.I. Medical College & Hospital Karakonam), Kazhakuttom", "addr:postcode": "695582", "addr:state": "Kerala", "amenity": "hospital", "healthcare": "hospital", "name": "CSI MIssion Hospital", "source": "OpenGovernmentData"}}, {"type": "node", "id": 2701127499, "lat": 8.1726916, "lon": 77.4258034, "tags": {"addr:district": "Kanniyakumari", "addr:full": "Ramanputhur Junction, Nagercoil", "addr:postcode": "629001", "addr:state": "Tamil Nadu", "amenity": "hospital", "healthcare": "hospital", "name": "Little Flower Hospital", "source": "OpenGovernmentData"}}, {"type": "node", "id": 2708944796, "lat": 6.7111418, "lon": 79.9106933, "tags": {"addr:city": "Panadura", "addr:housenumber": "76", "addr:postcode": "12500", "addr:street": "Panadura-Rathnapura", "amenity": "hospital", "ele": "7", "emergency": "yes", "facilities": "OPD, ETU, ICU, Theatre, Lab, Physiotherapy, Scan, X-Ray, Pahrmacy, Car Park", "healthcare": "hospital", "name": "Sachitra Hospital", "note": "Experience the peace of mind that modern medical technology can provide with the therapeutic and loving care of our well qualified, experienced and dedicated Doctors and Nursing Staff.", "phone": "+94382240425", "website": "http://www.sachitrahospitals.com/", "wheelchair": "yes"}}, {"type": "node", "id": 2764174447, "lat": 8.8617944, "lon": 76.6733964, "tags": {"amenity": "hospital", "healthcare": "hospital", "name": "Holy Cross Super Speciality Hospital"}}, {"type": "node", "id": 2879429805, "lat": 9.1616259, "lon": 76.7244707, "tags": {"addr:district": "Pathanamthitta", "addr:full": "Kayamkulam - Pathanapuram Road, Adoor", "addr:postcode": "691523", "addr:state": "Kerala", "amenity": "hospital", "contact:phone": "+91-4734-234500", "emergency": "yes", "name": "Holy Cross Hospital", "source": "OpenGovernmentData"}}, {"type": "node", "id": 2885391175, "lat": 9.9832872, "lon": 76.5778883, "tags": {"addr:district": "Ernakulam", "addr:full": "T. B. Junction", "addr:postcode": "686661", "addr:state": "Kerala", "amenity": "hospital", "emergency": "yes", "fax": "2835557", "healthcare": "hospital", "name": "Ushus Hospital.", "source": "OpenGovernmentData"}}, {"type": "node", "id": 2888745551, "lat": 8.603885, "lon": 77.0007731, "tags": {"amenity": "hospital", "emergency": "yes", "healthcare": "hospital", "name": "Government District Hospital", "operator": "Department of Health and Family Welfare", "operator:type": "government"}}, {"type": "node", "id": 2895536818, "lat": 9.7470133, "lon": 77.109715, "tags": {"addr:city": "Kattappana", "addr:district": "Idukki", "addr:full": "Kattappana", "addr:postcode": "685515", "addr:state": "Kerala", "amenity": "hospital", "emergency": "yes", "name": "St. John's Hospital Ward 20", "phone": "+91-4868 257 000", "source": "OpenGovernmentData", "survey:date": "2021-11-08"}}, {"type": "node", "id": 2905174855, "lat": 9.1743758, "lon": 76.626168, "tags": {"amenity": "hospital", "emergency": "no", "name": "Leprosy Sanatorium"}}, {"type": "node", "id": 2908539849, "lat": 9.247826, "lon": 76.5211566, "tags": {"addr:district": "Alappuzha", "addr:full": "Thattarambalam P.O, Mavelikara", "addr:postcode": "690103", "addr:state": "Kerala", "amenity": "hospital", "emergency": "yes", "name": "V.S.M. Hospital", "source": "OpenGovernmentData"}}, {"type": "node", "id": 2910342845, "lat": 7.0685704, "lon": 79.9616363, "tags": {"amenity": "hospital", "name": "Dental Surgeon Private"}}, {"type": "node", "id": 2910840057, "lat": 9.3368136, "lon": 76.7079349, "tags": {"addr:district": "Pathanamthitta", "addr:full": "P.B.No-15,Kozhencherry", "addr:postcode": "689641", "addr:state": "Kerala", "amenity": "hospital", "emergency": "yes", "healthcare": "hospital", "name": "Poyanil Hospital, Pathanamthitta", "source": "OpenGovernmentData"}}, {"type": "node", "id": 2912361834, "lat": 9.0935477, "lon": 76.854048, "tags": {"amenity": "hospital", "emergency": "yes", "name": "Janatha Hospital"}}, {"type": "node", "id": 2914441594, "lat": 9.6515945, "lon": 76.7245092, "tags": {"addr:district": "Kottayam", "addr:full": "Poovarani Post", "addr:postcode": "686577", "addr:state": "Kerala", "addr:street": "Pala-Ponkunam Road", "amenity": "hospital", "beds": "46", "healthcare": "hospital", "healthcare:speciality": "general;gynaecology;internal", "name": "Paika CHC", "operator": "DHC", "operator:type": "government", "source": "OpenGovernmentData", "wheelchair": "yes"}}, {"type": "node", "id": 2921371762, "lat": 9.685167, "lon": 76.7843456, "tags": {"amenity": "hospital", "emergency": "yes", "healthcare": "hospital", "name": "MES Hospital"}}, {"type": "node", "id": 2934008364, "lat": 9.0160573, "lon": 76.9267816, "tags": {"amenity": "hospital", "emergency": "yes", "healthcare": "hospital", "name": "Pranavam Hospital"}}, {"type": "node", "id": 2964699767, "lat": 7.3992228, "lon": 79.9787224, "tags": {"amenity": "hospital", "name": "Kandanegedara Hospital"}}, {"type": "node", "id": 3007217126, "lat": 9.7159494, "lon": 76.6952268, "tags": {"amenity": "hospital", "name": "Pala Government Hospital Homeo Hospital"}}, {"type": "node", "id": 3168002805, "lat": 9.9517544, "lon": 76.3582963, "tags": {"amenity": "hospital", "emergency": "no", "name": "St. George Hospital", "opening_hours": "Mo-Sa 08:00-19:00", "operator": "Clinic", "phone": "+91-4842778676"}}, {"type": "node", "id": 3220247513, "lat": 9.7407444, "lon": 79.8867057, "tags": {"amenity": "hospital", "healthcare": "hospital", "name": "Divisonal Hospital - Karainagar", "source": "http://www.panoramio.com/photo/52362892"}}, {"type": "node", "id": 3220256071, "lat": 9.6981156, "lon": 79.8658366, "tags": {"addr:city": "Jaffna", "amenity": "hospital", "healthcare": "hospital", "name": "Divisional Hospital Kayts", "name:ta": "\u0baa\u0bbf\u0bb0\u0ba4\u0bc7\u0b9a \u0bb5\u0bc8\u0ba4\u0bcd\u0ba4\u0bbf\u0baf\u0b9a\u0bbe\u0bb2\u0bc8 \u0b8a\u0bb0\u0bcd\u0b95\u0bbe\u0bb5\u0bb1\u0bcd\u0ba4\u0bc1\u0bb1\u0bc8"}}, {"type": "node", "id": 3220261439, "lat": 9.6370939, "lon": 79.9038191, "tags": {"amenity": "hospital", "name": "Divisional Hospital Velanai", "operator": "Government of Sri Lanka"}}, {"type": "node", "id": 3244448704, "lat": 9.6177699, "lon": 76.7077247, "tags": {"amenity": "hospital", "name": "Mercy Hospital, Chengalam"}}, {"type": "node", "id": 3301811871, "lat": 8.9762302, "lon": 76.9248999, "tags": {"amenity": "hospital", "name": "Dr Jaison's Homoeopathic Speciality Centre"}}, {"type": "node", "id": 3328239503, "lat": 9.9812391, "lon": 76.2834857, "tags": {"addr:city": "Ernakulam", "addr:district": "Ernakulam", "addr:full": "Mahatma Gandhi Rd, opp. Padma Theatre, Padma Junction, Shenoys, Ernakulam", "addr:postcode": "682035", "addr:state": "Kerala", "addr:street": "Mahatma Gandhi Road", "amenity": "hospital", "name": "City Hospital", "source": "OpenGovernmentData"}}, {"type": "node", "id": 3400302354, "lat": 9.7955293, "lon": 76.573035, "tags": {"amenity": "hospital", "name": "Cardinal Speciallity Hospital"}}, {"type": "node", "id": 3405026005, "lat": 9.9770906, "lon": 76.3170085, "tags": {"addr:city": "Vyttila", "addr:postcode": "682032", "addr:street": "Off NH Bypass, Near Gold Souk, Service Road, Ponnurunni,", "amenity": "hospital", "designation": "Aesthetic Clinic", "emergency": "no", "healthcare": "hospital", "name": "The Touch Aesthetic Medical Clinic", "note": "RP Arcade, 2 Floor", "operator": "The Touch", "phone": "+91-484 234 1117"}}, {"type": "node", "id": 3424999527, "lat": 8.9813545, "lon": 79.902882, "tags": {"addr:city": "Mannar", "addr:street": "Thalvupadu - Mannar Rd", "amenity": "hospital", "emergency": "no", "name": "District General Hospital", "wikidata": "Q6750753"}}, {"type": "node", "id": 3433337203, "lat": 9.6864654, "lon": 76.62556, "tags": {"amenity": "hospital", "healthcare": "hospital", "name": "Mannam Memorial N.S.S Ayurveda Hospital"}}, {"type": "node", "id": 3519925423, "lat": 9.5725062, "lon": 79.8301305, "tags": {"amenity": "hospital", "healthcare": "hospital", "name": "Divisional Hodpital Pungudutivu", "name:en": "Divisional Hospital Pungudutivu", "operator": "Government of Sri Lanka"}}, {"type": "node", "id": 3522855862, "lat": 9.0041529, "lon": 76.7865016, "tags": {"addr:district": "Kollam", "addr:full": "Pulamon P O, Kottarakara", "addr:postcode": "691531", "addr:state": "Kerala", "amenity": "hospital", "healthcare": "hospital", "name": "Vijaya Hospital", "source": "OpenGovernmentData"}}, {"type": "node", "id": 3522971021, "lat": 9.0257005, "lon": 76.8499253, "tags": {"addr:housenumber": "0475-2325900", "amenity": "hospital", "healthcare": "hospital", "name": "Family Health Centre, Vilakkudy", "operator": "Department of Health Services", "operator:type": "government", "ref": "1125"}}, {"type": "node", "id": 3522971024, "lat": 9.0257248, "lon": 76.8500161, "tags": {"amenity": "hospital", "name": "Joseph Francis"}}, {"type": "node", "id": 3526244056, "lat": 8.9639082, "lon": 76.8349666, "tags": {"addr:district": "Kollam", "addr:full": "Valakom P.O", "addr:postcode": "691532", "addr:state": "Kerala", "amenity": "hospital", "healthcare": "hospital", "name": "Mercy Hospital, Kollam", "source": "OpenGovernmentData"}}, {"type": "node", "id": 3541724258, "lat": 8.888626, "lon": 76.5990263, "tags": {"amenity": "hospital", "name": "Kailas Dental Hospital"}}, {"type": "node", "id": 3555653071, "lat": 9.4390911, "lon": 76.5437928, "tags": {"addr:city": "changanacherry", "addr:postcode": "686102", "addr:street": "MC Road", "amenity": "hospital", "healthcare": "hospital", "healthcare:speciality": "general", "name": "NSS Medical Mission Hospital"}}, {"type": "node", "id": 3587798511, "lat": 9.0927463, "lon": 76.859356, "tags": {"amenity": "hospital", "name": "St Joseph Hospital"}}, {"type": "node", "id": 3587827150, "lat": 9.0940049, "lon": 76.8536903, "tags": {"amenity": "hospital", "healthcare": "hospital", "name": "MVM", "name:ml": "\u0d0e\u0d02\u0d35\u0d3f\u0d0e\u0d02"}}, {"type": "node", "id": 3645464559, "lat": 2.3119913, "lon": 73.2994774, "tags": {"amenity": "hospital", "name": "Clinic"}}, {"type": "node", "id": 3655700009, "lat": 9.4326993, "lon": 77.0820676, "tags": {"amenity": "hospital", "healthcare": "hospital", "name": "Ayurveda Hospital"}}, {"type": "node", "id": 3655700010, "lat": 9.4329586, "lon": 77.0824873, "tags": {"amenity": "hospital", "healthcare": "hospital", "healthcare:speciality": "cardiology", "name": "Cardiology Centre"}}, {"type": "node", "id": 3655700011, "lat": 9.4331961, "lon": 77.0824233, "tags": {"amenity": "hospital", "healthcare": "hospital", "name": "Govt. Dispensary"}}, {"type": "node", "id": 3691169013, "lat": 7.7887782, "lon": 79.8276202, "tags": {"addr:city": "Mundalama", "amenity": "hospital", "name": "Divisional Hospital"}}, {"type": "node", "id": 3710409771, "lat": 7.0929247, "lon": 79.8519954, "tags": {"amenity": "hospital"}}, {"type": "node", "id": 3804590000, "lat": 9.3678012, "lon": 76.8553176, "tags": {"amenity": "hospital", "healthcare": "hospital", "name": "Community Health Centre Ranni Perunnadu", "operator": "Department of Health and Family Welfare", "operator:type": "government"}}, {"type": "node", "id": 3804616180, "lat": 9.364231, "lon": 76.8609978, "tags": {"amenity": "hospital", "name": "Bethany Hospital"}}, {"type": "node", "id": 3806218673, "lat": 9.3631319, "lon": 76.8634271, "tags": {"amenity": "hospital", "name": "Himagiri Diagnostic Central Lab"}}, {"type": "node", "id": 3806218675, "lat": 9.3630379, "lon": 76.8644609, "tags": {"amenity": "hospital", "name": "Shalom Dental Clinic"}}, {"type": "node", "id": 3806322006, "lat": 9.3423654, "lon": 76.8315007, "tags": {"amenity": "hospital", "name": "Private Homeo Clinic"}}, {"type": "node", "id": 3807984417, "lat": 9.4206653, "lon": 76.9611466, "tags": {"amenity": "hospital", "name": "Govt Ayruvedha Hospital Thulappally"}}, {"type": "node", "id": 3808120951, "lat": 9.4130599, "lon": 77.0691961, "tags": {"amenity": "hospital", "healthcare": "hospital", "name": "Sree Ayyappa Medical Centre"}}, {"type": "node", "id": 3809648116, "lat": 9.4179592, "lon": 76.9647794, "tags": {"amenity": "hospital", "name": "Chaithanya Clinic"}}, {"type": "node", "id": 3809804226, "lat": 9.4487257, "lon": 76.8716873, "tags": {"addr:district": "Kottayam", "addr:full": "Mukkoottuthara P O", "addr:postcode": "686510", "addr:state": "Kerala", "amenity": "hospital", "healthcare": "hospital", "name": "Assisi Hospital", "source": "OpenGovernmentData"}}, {"type": "node", "id": 3809804246, "lat": 9.4471923, "lon": 76.8777554, "tags": {"amenity": "hospital", "name": "Kizhakkemuri Homeo Clinic"}}, {"type": "node", "id": 3810992545, "lat": 9.534461, "lon": 76.8862156, "tags": {"amenity": "hospital", "name": "Chembankulam Homeo Clinic"}}, {"type": "node", "id": 3811026553, "lat": 9.3895787, "lon": 76.8432551, "tags": {"amenity": "hospital", "name": "Devi Clinic"}}, {"type": "node", "id": 3812199103, "lat": 9.4248646, "lon": 76.8531285, "tags": {"amenity": "hospital", "name": "Community Health Centre, Vechoochira"}}, {"type": "node", "id": 3812212603, "lat": 9.4451429, "lon": 76.8780243, "tags": {"amenity": "hospital", "healthcare": "hospital", "name": "Cherupusham hosptial"}}, {"type": "node", "id": 3812325550, "lat": 9.4831663, "lon": 76.8455924, "tags": {"amenity": "hospital", "healthcare": "hospital"}}, {"type": "node", "id": 3816541857, "lat": 9.5380381, "lon": 77.066144, "tags": {"amenity": "hospital", "name": "Garden Estate Hospital"}}, {"type": "node", "id": 3816579558, "lat": 9.57598, "lon": 77.055401, "tags": {"amenity": "hospital", "name": "Govt Ayurvedha Hospital"}}, {"type": "node", "id": 3816579573, "lat": 9.572363, "lon": 76.9954883, "tags": {"amenity": "hospital", "name": "Muthuplackal Homeo Clinic"}}, {"type": "node", "id": 3816579591, "lat": 9.5771629, "lon": 77.0219482, "tags": {"amenity": "hospital", "healthcare": "hospital", "name": "Sevanalaya Clinic"}}, {"type": "node", "id": 3816579601, "lat": 9.5730253, "lon": 77.092255, "tags": {"amenity": "hospital", "name": "Vasan Hospital"}}, {"type": "node", "id": 3816580642, "lat": 9.7454509, "lon": 77.1017149, "tags": {"amenity": "hospital", "healthcare": "hospital", "name": "Primary Health Centre (PHC)", "survey:date": "2021-11-09"}}, {"type": "node", "id": 3816607839, "lat": 9.6111969, "lon": 77.1571142, "tags": {"amenity": "hospital", "healthcare": "hospital", "name": "Periyar Hospital"}}, {"type": "node", "id": 3816607842, "lat": 9.6073413, "lon": 77.1465936, "tags": {"amenity": "hospital", "healthcare": "hospital", "name": "St Augestian Hospital"}}, {"type": "node", "id": 3816643519, "lat": 9.6160268, "lon": 77.1586862, "tags": {"amenity": "hospital", "name": "Hyda Ayurvedic Speciality Hospital"}}, {"type": "node", "id": 3816643551, "lat": 9.6195004, "lon": 77.1591462, "tags": {"amenity": "hospital", "name": "Usha Clinic"}}, {"type": "node", "id": 3816717624, "lat": 9.5804204, "lon": 76.9702033, "tags": {"amenity": "hospital", "name": "CMC Hospital"}}, {"type": "node", "id": 3842184472, "lat": 6.9730561, "lon": 79.9141857, "tags": {"addr:city": "colombo", "amenity": "hospital", "healthcare": "hospital", "name": "General"}}, {"type": "node", "id": 3844693056, "lat": 8.3871291, "lon": 76.9784957, "tags": {"amenity": "hospital", "name": "Cocoland Panchakarma Centre"}}, {"type": "node", "id": 3844717878, "lat": 8.388934, "lon": 76.9788445, "tags": {"amenity": "hospital", "name": "Dhanvantari"}}, {"type": "node", "id": 3904989125, "lat": 8.5238688, "lon": 76.9249893, "tags": {"amenity": "hospital", "healthcare": "hospital", "name": "Immunisation Clinic", "operator": "Sree Avittom Thirunal Hospital"}}, {"type": "node", "id": 3904989145, "lat": 8.5209794, "lon": 76.9226146, "tags": {"amenity": "hospital", "healthcare": "hospital", "name": "Medical College, Thiruvananthapuram", "operator": "Kerala State"}}, {"type": "node", "id": 3906891758, "lat": 8.8711169, "lon": 76.6436028, "tags": {"amenity": "hospital", "healthcare": "hospital", "name": "Astamudi Hospital"}}, {"type": "node", "id": 3951439190, "lat": 9.4883171, "lon": 76.3201471, "tags": {"amenity": "hospital", "healthcare": "hospital", "name": "\u0d06\u0d32\u0d2a\u0d4d\u0d2a\u0d41\u0d34 \u0d2c\u0d40\u0d1a\u0d4d\u0d1a\u0d4d \u0d06\u0d36\u0d41\u0d2a\u0d24\u0d4d\u0d30\u0d3f", "name:en": "Beach Hospital"}}, {"type": "node", "id": 3960116237, "lat": 9.6323983, "lon": 76.9794533, "tags": {"amenity": "hospital", "healthcare": "hospital", "name": "Public health centre, Elappara", "ref": "1419"}}, {"type": "node", "id": 3979112656, "lat": 0.6203059, "lon": 73.4616448, "tags": {"amenity": "hospital", "name": "Dhaandhoo Health Centre"}}, {"type": "node", "id": 3984744125, "lat": 9.4887581, "lon": 76.3332043, "tags": {"amenity": "hospital", "name": "District Ayurveda Hospital"}}, {"type": "node", "id": 4016346106, "lat": 5.6656585, "lon": 73.0302361, "tags": {"amenity": "hospital"}}, {"type": "node", "id": 4043414265, "lat": 8.4204428, "lon": 76.9727202, "tags": {"addr:district": "Thiruvananthapuram", "addr:full": "Poomkulam West", "addr:postcode": "695522", "addr:state": "Kerala", "amenity": "hospital", "healthcare": "hospital", "name": "Arsha Ayurvedic Hospital", "phone": "+91 471 2453360 +91 481 2530909", "source": "OpenGovernmentData", "website": "https://arshaayurveda.com"}}, {"type": "node", "id": 4077038318, "lat": 6.9172706, "lon": 79.8661463, "tags": {"addr:city": "Colombo 07", "addr:street": "Ward Place", "amenity": "hospital", "check_date": "2023-03-06", "emergency": "yes", "healthcare": "dentist", "healthcare:speciality": "dentist;dentistry", "internet_access": "no", "name": "Dental Ward (Colombo National Hospital)", "name:en": "National Dental Hospital (Teaching)", "opening_hours": "24/7", "operator:type": "government", "payment:free": "yes", "wheelchair": "yes"}}, {"type": "node", "id": 4084471911, "lat": 7.0750452, "lon": 79.8940656, "tags": {"amenity": "hospital", "name": "Jaela regional hospital"}}, {"type": "node", "id": 4101824911, "lat": 9.0533159, "lon": 76.5357877, "tags": {"addr:postcode": "690518", "amenity": "hospital", "healthcare": "hospital", "name": "SBM Hospital"}}, {"type": "node", "id": 4174150465, "lat": 4.1936219, "lon": 72.7468876, "tags": {"addr:city": "Mathiveri", "addr:postcode": "09040", "addr:street": "Sosun Magu", "amenity": "hospital", "emergency": "yes", "name": "Mathiveri Health Centre", "operator": "ministry of health", "phone": "+9606660858"}}, {"type": "node", "id": 4214066936, "lat": 8.5282962, "lon": 76.9412903, "tags": {"addr:city": "Pattom P.O", "addr:housenumber": "N.S.P Nagar-114,", "addr:postcode": "695 004", "addr:street": "Opp. Pattom St.mary\u2019s School, Kesavadasapuram", "amenity": "hospital", "emergency": "no", "healthcare": "hospital", "name": "Navajeevan Naturopathy", "operator": "Dr.Nissamudeen A"}}, {"type": "node", "id": 4239162594, "lat": 9.9524657, "lon": 78.136102, "tags": {"addr:block": "Madurai Corp", "addr:district": "Madurai", "addr:full": "Pudur Vandipathai Rd, Kurinjinagar, Ramnad Reserve Line, Athikulam", "addr:postcode": "625014", "addr:state": "Tamil Nadu", "addr:subdistrict": "Madurai South", "amenity": "hospital", "healthcare": "hospital", "name": "Devi Hospital", "source": "OpenGovernmentData"}}, {"type": "node", "id": 4244114941, "lat": 6.913006, "lon": 79.8841488, "tags": {"amenity": "hospital", "healthcare": "hospital", "name": "Western Dispensary"}}, {"type": "node", "id": 4292150695, "lat": 9.7332933, "lon": 76.5057396, "tags": {"addr:street": "Kuruppamthara - Kallara Road", "amenity": "hospital", "healthcare": "hospital", "name": "Divine Hospital"}}, {"type": "node", "id": 4292831731, "lat": 8.2442143, "lon": 77.298003, "tags": {"amenity": "hospital", "name": "SN Hospital"}}, {"type": "node", "id": 4293341748, "lat": 9.9690057, "lon": 76.299672, "tags": {"addr:district": "Ernakulam", "addr:full": "Near Varkeys Market, Kaloor - Kadavandara Road, Kadavandara", "addr:postcode": "682020", "addr:state": "Kerala", "addr:street": "Kaloor-Kadavanthara Road", "amenity": "hospital", "healthcare": "hospital", "name": "Akshaya Hospital", "source": "OpenGovernmentData"}}, {"type": "node", "id": 4324739889, "lat": 8.8076412, "lon": 78.1389118, "tags": {"addr:housenumber": "1", "addr:street": "Thoothukudi - Tiruchendur - Kanyakumari Road", "amenity": "hospital", "healthcare": "hospital"}}, {"type": "node", "id": 4331943023, "lat": 7.1725525, "lon": 79.9563284, "tags": {"amenity": "hospital", "name": "District Hospital Minuwangoda"}}, {"type": "node", "id": 4332240752, "lat": 9.9647734, "lon": 76.3191089, "tags": {"addr:district": "Ernakulam", "addr:full": "Nearr Power House, Tripunithura Road, Vyttila, Kochi", "addr:postcode": "682019", "addr:state": "Kerala", "amenity": "hospital", "healthcare": "hospital", "name": "Dr. Raju's Eye Hospital", "source": "OpenGovernmentData"}}, {"type": "node", "id": 4405236389, "lat": 8.943329, "lon": 79.9966791, "tags": {"amenity": "hospital", "name": "Divisional Hospital Adampan"}}, {"type": "node", "id": 4410751690, "lat": 9.0181807, "lon": 76.9257533, "tags": {"amenity": "hospital", "name": "Veterinary Poly Clinic", "name:en": "Veterinary Poly Clinic", "opening_hours": "Mo-Su 09:00-15:00", "phone": "+91-9447022120"}}, {"type": "node", "id": 4410770989, "lat": 8.4787343, "lon": 76.9373026, "tags": {"addr:street": "Enchakkal-Attakkulangara road", "amenity": "hospital", "email": "drprakashpunalur@gmail.com", "healthcare": "hospital", "internet_access": "wlan", "name": "Pets Clinic Enchakkal", "opening_hours": "24/7", "phone": "+91-9447022120"}}, {"type": "node", "id": 4414692396, "lat": 9.901685, "lon": 76.7141692, "tags": {"addr:district": "Idukki", "addr:full": "Mount Sinai Road", "addr:postcode": "685584", "addr:state": "Kerala", "addr:street": "Mount sinai hospital road", "amenity": "hospital", "email": "josepaulmd@yahoo.com", "internet_access": "wlan", "name": "Mount Sinai hospital", "name:en": "Mount Sinai hospital", "phone": "+91-4862222410", "source": "OpenGovernmentData"}}, {"type": "node", "id": 4422455602, "lat": 4.2121426, "lon": 73.5389397, "tags": {"amenity": "hospital", "healthcare": "hospital", "name": "Tree Top Hospital"}}, {"type": "node", "id": 4429344619, "lat": 9.8970879, "lon": 76.7106796, "tags": {"amenity": "hospital", "name": "Ayurvedic Hospital and Pharmacy"}}, {"type": "node", "id": 4438983889, "lat": 9.7029955, "lon": 79.9927087, "tags": {"addr:city": "Jaffna", "amenity": "hospital", "name": "Divisional Hospital Manipay", "name:en": "Divisional Hospital Manipay", "operator": "Ministry of Health", "phone": "+94213213617"}}, {"type": "node", "id": 4448921568, "lat": 9.7989445, "lon": 79.9942839, "tags": {"amenity": "hospital", "healthcare": "hospital", "name": "Divisional Hospital Ilavalai", "operator": "Ministry of Health"}}, {"type": "node", "id": 4452972822, "lat": 9.6048881, "lon": 79.7730665, "tags": {"amenity": "hospital", "healthcare": "hospital", "name": "Divisional Hospital Nainativu", "operator": "Government of Sri Lanka"}}, {"type": "node", "id": 4455801356, "lat": 9.7571322, "lon": 79.9385407, "tags": {"amenity": "hospital", "healthcare": "hospital", "name": "Primary Medical Care Unit (PMCU) Tholpuram", "operator": "Ministry of Health"}}, {"type": "node", "id": 4459396006, "lat": 9.572654, "lon": 76.7494055, "tags": {"addr:city": "attickal", "addr:street": "Pala-Ponkunam Road", "amenity": "hospital", "healthcare": "hospital", "healthcare:speciality": "ayurveda", "name": "Amala Ayurveda Hospital", "operator": "private", "operator:type": "private"}}, {"type": "node", "id": 4501886621, "lat": 9.9434826, "lon": 78.1647715, "tags": {"addr:block": "Madurai Corp", "addr:district": "Madurai", "addr:full": "4/120F, Near Pandi Koil, Madurai South, Pandi Koil Ring Road", "addr:postcode": "625107", "addr:state": "Tamil Nadu", "addr:subdistrict": "Madurai South", "amenity": "hospital", "name": "Guru Hospital", "source": "OpenGovernmentData", "wheelchair": "yes"}}, {"type": "node", "id": 4522495790, "lat": 8.8239748, "lon": 76.8094399, "tags": {"addr:postcode": "691535", "addr:street": "Varkala - Parippally - Madathara Road", "amenity": "hospital", "email": "mugalthaha@icloud.com", "name": "Elikkunnam Mugal", "name:en": "Elikkunnam Mugal", "phone": "+91-9567727151"}}, {"type": "node", "id": 4524348589, "lat": 9.7215804, "lon": 79.9445982, "tags": {"amenity": "hospital"}}, {"type": "node", "id": 4546380919, "lat": 8.3888369, "lon": 76.9783443, "tags": {"amenity": "hospital", "name": "Merry Land"}}, {"type": "node", "id": 4546380968, "lat": 8.3853064, "lon": 76.9802607, "tags": {"amenity": "hospital", "name": "Oliva", "wheelchair": "yes"}}, {"type": "node", "id": 4561921830, "lat": 9.7254467, "lon": 79.9978653, "tags": {"amenity": "hospital"}}, {"type": "node", "id": 4595801052, "lat": 6.8926568, "lon": 79.8712782, "tags": {"addr:housenumber": "75", "addr:street": "Kirula Road", "amenity": "hospital", "healthcare": "hospital", "name": "Western Dispensary", "opening_hours": "Mo-Fr 08:00-17:00; Sa,Su 08:00-14:00", "operator": "Health Cursive Department, Colombo Municipal Council", "phone": "0112582037", "wheelchair": "limited"}}, {"type": "node", "id": 4648645041, "lat": 8.523588, "lon": 76.9281025, "tags": {"amenity": "hospital", "healthcare": "hospital", "name": "Casuality"}}, {"type": "node", "id": 4649711590, "lat": 9.9879592, "lon": 76.2942771, "tags": {"amenity": "hospital", "name:ar": "\u0628\u0648\u0646\u0627\u0631\u0646\u0627\u0641\u0627", "name:en": "Punarnava Ayurveda Hospital"}}, {"type": "node", "id": 4653891140, "lat": 6.8723658, "lon": 79.8647627, "tags": {"amenity": "hospital", "healthcare": "hospital"}}, {"type": "node", "id": 4684828541, "lat": 8.4990262, "lon": 76.9601725, "tags": {"amenity": "hospital", "name": "Government Eye Hospital"}}, {"type": "node", "id": 4696695391, "lat": 8.7296054, "lon": 76.7334774, "tags": {"addr:district": "Thiruvananthapuram", "addr:full": "Varkala", "addr:postcode": "695141", "addr:state": "Kerala", "alt_name": "SSNMM Hospital", "amenity": "hospital", "fax": "2612798", "name": "Sivagiri Sree Narayana Medical Mission Hospital", "source": "OpenGovernmentData"}}, {"type": "node", "id": 4704694322, "lat": 6.9017271, "lon": 79.8530752, "tags": {"addr:housenumber": "423", "addr:street": "Galle Road", "amenity": "hospital", "check_date": "2022-10-18", "email": "vcare@vasanhealthcare.lk", "healthcare": "hospital", "name": "Vasan Eye Care", "name:en": "Vasan Eye Care", "opening_hours": "Mo-Fr 07:00-18:30; Sa 08:00-15:00; Su 08:00-13:00", "operator:type": "private", "phone": "+94 117 564 500", "website": "https://www.vasanhealthcare.lk/", "wheelchair": "yes"}}, {"type": "node", "id": 4742491822, "lat": 8.9278917, "lon": 76.5994009, "tags": {"addr:city": "anchalummood . chanthakkada road", "addr:housenumber": "123", "addr:postcode": "691601", "addr:street": "Kollam - Teni Highway", "amenity": "hospital", "name": "soukhyasanthi ayurmadom", "operator": "dr padmakumar"}}, {"type": "node", "id": 4746991323, "lat": 9.7866518, "lon": 76.6107924, "tags": {"addr:postcode": "686634", "addr:street": "Kurichithanam - Uzhavoor Road", "amenity": "hospital", "name": "K R Narayanan Memorial Government Hospital"}}, {"type": "node", "id": 4764533046, "lat": 8.1906311, "lon": 77.4356304, "tags": {"addr:district": "Kanniyakumari", "addr:full": "No 56/57, M S Road Vadesry, Nagercoil", "addr:postcode": "629001", "addr:state": "Tamil Nadu", "amenity": "hospital", "brand": "Vasan Eye Care", "healthcare": "hospital", "name": "Vasan Eye Care Hospital, Kanniyakumari", "source": "OpenGovernmentData"}}, {"type": "node", "id": 4764535106, "lat": 8.201188, "lon": 77.4552358, "tags": {"addr:district": "Kanniyakumari", "addr:full": "#5/146-2, Tirunelvely Main Road,Therekalputhoor,Thirupathisaram (Po)", "addr:postcode": "629001", "addr:state": "Tamil Nadu", "amenity": "hospital", "healthcare": "hospital", "name": "Srinivasa Hospitals", "source": "OpenGovernmentData"}}, {"type": "node", "id": 4764535890, "lat": 8.7622984, "lon": 77.7096196, "tags": {"amenity": "hospital", "healthcare": "hospital", "name": "Santhosh Hospital"}}, {"type": "node", "id": 4773912364, "lat": 9.5066247, "lon": 76.7311323, "tags": {"amenity": "hospital", "name": "Sushalayam Medical Trust Hospital"}}, {"type": "node", "id": 4800490223, "lat": 4.2625744, "lon": 72.9906215, "tags": {"amenity": "hospital", "healthcare": "hospital", "name:en": "Rasdhoo hospital"}}, {"type": "node", "id": 4823302223, "lat": 6.6176788, "lon": 73.0690075, "tags": {"addr:postcode": "02110", "amenity": "hospital", "name": "Kulhudhuffushi Regional Hospital", "opening_hours": "24/7", "phone": "+960 6528864"}}, {"type": "node", "id": 4823483321, "lat": 6.7020334, "lon": 73.1202471, "tags": {"amenity": "hospital", "name": "Nolhivaranfaru Health post", "name:en": "Nolhivaranfaru Health post", "opening_hours": "Su-Th 09:00-18:00"}}, {"type": "node", "id": 4829752021, "lat": 9.1735507, "lon": 76.4997033, "tags": {"addr:district": "Alappuzha", "addr:full": "Court Road, Kayamkulam, Kayamkulam", "addr:postcode": "690502", "addr:state": "Kerala", "amenity": "hospital", "healthcare": "hospital", "name": "Ebenezer Hospital", "name:en": "Ebenezer Hospital", "source": "OpenGovernmentData"}}, {"type": "node", "id": 4829752232, "lat": 9.1624227, "lon": 76.5055055, "tags": {"addr:district": "Alappuzha", "addr:full": "Kpac Junction, Kallummoodu, Kayamkulam", "addr:postcode": "690502", "addr:state": "Kerala", "amenity": "hospital", "name": "Christos Hospital", "name:ml": "\u0d15\u0d4d\u0d30\u0d3f\u0d38\u0d4d\u0d31\u0d4d\u0d31\u0d4b\u0d38\u0d4d \u0d39\u0d4b\u0d38\u0d4d\u0d2a\u0d3f\u0d31\u0d4d\u0d31\u0d7d", "source": "OpenGovernmentData"}}, {"type": "node", "id": 4865811621, "lat": 8.1914508, "lon": 77.3975965, "tags": {"addr:district": "Kanniyakumari", "addr:full": "#15-258 A-1, Trivandrum Road,Near Over Bridge,Parvathipuram, Kalkulam", "addr:postcode": "629003", "addr:state": "Tamil Nadu", "amenity": "hospital", "healthcare": "hospital", "name": "Franklin Hospital", "name:en": "franklin hospital", "source": "OpenGovernmentData"}}, {"type": "node", "id": 4867912497, "lat": 9.9194425, "lon": 76.3128645, "tags": {"CovidVaccineCenterId": "155434", "addr:city": "Ernakulam", "addr:postcode": "682040", "addr:street": "Nettoor PWD Road", "alt_name": "Nettoor PHC", "amenity": "hospital", "emergency": "no", "healthcare": "hospital", "name": "Nettoor Primary Health Center", "operator": "Government of Kerala"}}, {"type": "node", "id": 4869613924, "lat": 8.1710827, "lon": 77.4310027, "tags": {"amenity": "hospital", "healthcare": "hospital", "name:en": "ganeshmani hospital"}}, {"type": "node", "id": 4881691515, "lat": 9.9275395, "lon": 78.1551085, "tags": {"addr:district": "Madurai", "addr:full": "No. 2/183/2, 2nd Main Road,Gomathipuram,Sivagangai Main Road", "addr:postcode": "625020", "addr:state": "Tamil Nadu", "amenity": "hospital", "healthcare": "hospital", "name": "Golden Hospital, Madurai", "source": "OpenGovernmentData"}}, {"type": "node", "id": 4881692096, "lat": 9.9261661, "lon": 78.1573518, "tags": {"amenity": "hospital", "healthcare": "hospital"}}, {"type": "node", "id": 4945840541, "lat": 9.5837049, "lon": 77.9599606, "tags": {"amenity": "hospital", "healthcare": "hospital"}}, {"type": "node", "id": 4949292755, "lat": 9.4606037, "lon": 77.7863241, "tags": {"addr:block": "Sivakasi Mpty", "addr:district": "Virudhunagar", "addr:full": "Sub District Hospital Sivakasi, Railway Staion Nearest, Sivakasi, East Street", "addr:postcode": "626123", "addr:state": "Tamil Nadu", "addr:subdistrict": "Sivakasi", "amenity": "hospital", "name": "Sivakasi Goverment Hospital", "source": "OpenGovernmentData"}}, {"type": "node", "id": 4949292783, "lat": 9.4510259, "lon": 77.7933036, "tags": {"addr:block": "Sivakasi Mpty", "addr:district": "Virudhunagar", "addr:full": "29, Psr Rd, Parasakthi Colony, Sivakasi", "addr:postcode": "626123", "addr:state": "Tamil Nadu", "addr:subdistrict": "Sivakasi", "amenity": "hospital", "healthcare": "hospital", "name": "Lakshmi Hospital", "source": "OpenGovernmentData"}}, {"type": "node", "id": 4973686834, "lat": 9.5842695, "lon": 77.956573, "tags": {"amenity": "hospital", "healthcare": "hospital", "name": "Madhan Hospital"}}, {"type": "node", "id": 4982830922, "lat": 9.163441, "lon": 76.7063316, "tags": {"addr:district": "Pathanamthitta", "addr:full": "P.B. No. 46, 14Th Mile, Melood P.O", "addr:postcode": "691554", "addr:state": "Kerala", "amenity": "hospital", "contact:phone": "+91-4734-219500; +91-4734-223377", "name": "Lifeline Super Speciality Hospital", "source": "OpenGovernmentData", "website": "https://www.lifelinehospitalkerala.com/"}}, {"type": "node", "id": 5079391158, "lat": 8.1771309, "lon": 77.4317191, "tags": {"amenity": "hospital", "healthcare": "hospital", "name": "Balaji Clinic (eye)", "opening_hours": "Mo-Sa 17:30-20:00"}}, {"type": "node", "id": 5138971690, "lat": 9.9880943, "lon": 76.2827224, "tags": {"addr:district": "Ernakulam", "addr:full": "Kacheripady, Chittoor Road, Near Vimalalayam", "addr:postcode": "682018", "addr:state": "Kerala", "addr:street": "Chittoor Road", "amenity": "hospital", "healthcare": "hospital", "healthcare:speciality": "ophthalmology", "name": "Westend Eye Hospitals", "phone": "+91 9288605411", "source": "OpenGovernmentData"}}, {"type": "node", "id": 5144758421, "lat": 9.2847706, "lon": 79.2551395, "tags": {"addr:postcode": "623529", "addr:street": "Thangachimadam", "amenity": "hospital", "name:en": "Goverment Hospital", "opening_hours": "24/7"}}, {"type": "node", "id": 5188232523, "lat": 6.9206251, "lon": 79.8576248, "tags": {"addr:street": "union place", "amenity": "hospital", "healthcare": "hospital", "name:en": "Ratnam Private Hospital"}}, {"type": "node", "id": 5190987784, "lat": 8.9998822, "lon": 76.6138376, "tags": {"addr:city": "Munrothuruthu", "addr:street": "Kandramkani", "amenity": "hospital", "healthcare": "hospital", "healthcare:speciality": "general", "name": "Kochumattayil Clinic", "operator": "Dr. Boby"}}, {"type": "node", "id": 5248273022, "lat": 7.0188878, "lon": 79.9005354, "tags": {"amenity": "hospital", "name:en": "Navy Hospital Welisara"}}, {"type": "node", "id": 5286911440, "lat": 8.5699592, "lon": 76.8722107, "tags": {"amenity": "hospital", "healthcare": "hospital", "name": "Medical College OP"}}, {"type": "node", "id": 5286944523, "lat": 8.5224562, "lon": 76.9291783, "tags": {"amenity": "hospital", "healthcare": "hospital", "name": "Dental College OP Block"}}, {"type": "node", "id": 5338402909, "lat": 8.1763159, "lon": 77.4275999, "tags": {"addr:district": "Kanniyakumari", "addr:full": "Simon Nagar, Ramavarmapuram", "addr:postcode": "629001", "addr:state": "Tamil Nadu", "addr:subdistrict": "Agastheeswaram", "amenity": "hospital", "healthcare": "hospital", "name": "Be Well Hospital", "source": "OpenGovernmentData"}}, {"type": "node", "id": 5377921579, "lat": 6.9832212, "lon": 79.8761609, "tags": {"amenity": "hospital", "healthcare": "hospital", "healthcare:speciality": "ophthalmology", "name": "Lions Club Eye Hospital"}}, {"type": "node", "id": 5418179737, "lat": 8.5597929, "lon": 76.8741626, "tags": {"amenity": "hospital", "healthcare": "hospital", "name": "saji hospital"}}, {"type": "node", "id": 5418179743, "lat": 8.5595711, "lon": 76.8746707, "tags": {"amenity": "hospital", "healthcare": "hospital"}}, {"type": "node", "id": 5500129721, "lat": 9.2274846, "lon": 78.1377944, "tags": {"amenity": "hospital", "name": "\u0b85\u0bb0\u0b9a\u0bc1 \u0bae\u0bb0\u0bc1\u0ba4\u0bcd\u0ba4\u0bc1\u0bb5\u0bae\u0ba9\u0bc8 \u0ba8\u0b95\u0bb2\u0bbe\u0baa\u0bc1\u0bb0\u0bae\u0bcd", "name:en": "govt hospital nagalapuram"}}, {"type": "node", "id": 5518921573, "lat": 9.8022635, "lon": 76.6623757, "tags": {"addr:city": "Ramapuram", "addr:housenumber": "community health center Ramapuram", "addr:postcode": "686576", "addr:street": "Ramapuram- Pizhaku road", "amenity": "hospital", "district": "kottayam", "healthcare": "hospital", "name": "Community Health Centre Ramapuram", "operator": "Department of Health and Family Welfare", "operator:type": "government", "phone": "+91-4822-263806", "ref": "1395", "taluk": "meenachil"}}, {"type": "node", "id": 5574309273, "lat": 3.0560067, "lon": 72.8894855, "tags": {"amenity": "hospital", "email": "faafu.hospital@gmail.com", "fax": "+960 674 0089", "name": "Faafu Atoll Hospital", "phone": "+960 674 0086", "website": "http://www.fah.gov.mv/index.html", "wikidata": "Q5427549", "wikipedia": "en:Faafu Atoll Hospital"}}, {"type": "node", "id": 5695829521, "lat": 8.7000589, "lon": 76.8145453, "tags": {"addr:city": "Attingal", "addr:district": "Thiruvananthapuram", "addr:full": "Near SR Theatre, Attingal P.O", "addr:postcode": "695101", "addr:state": "Kerala", "addr:street": "Salem-Kochi-Kanyakumari Road", "amenity": "hospital", "healthcare": "hospital", "healthcare:speciality": "gynaecology", "name": "Amar Maternity & Fertility Centre", "phone": "+91-9495962977", "source": "OpenGovernmentData", "website": "https://amarfertility.com/"}}, {"type": "node", "id": 5729756639, "lat": 0.2304413, "lon": 73.2710992, "tags": {"amenity": "hospital", "healthcare": "hospital"}}, {"type": "node", "id": 5860529869, "lat": 9.7910482, "lon": 76.3769383, "tags": {"addr:city": "Vaikom", "addr:housenumber": "Chemmanakary", "addr:postcode": "686143", "addr:street": "Akkarappadam", "amenity": "hospital", "emergency": "yes", "healthcare": "hospital", "name": "Indo-American Hospital", "operator": "\u0d07\u0d28\u0d4d\u0d31\u0d4b \u0d05\u0d2e\u0d47\u0d30\u0d3f\u0d15\u0d4d\u0d15\u0d28\u0d4d\u200d \u0d06\u0d36\u0d41\u0d2a\u0d24\u0d4d\u0d30\u0d3f", "phone": "+914829273281, 273282, 273283", "website": "http://indoamericanhospital.in/"}}, {"type": "node", "id": 5867421589, "lat": 9.9641496, "lon": 76.3050675, "tags": {"addr:city": "Kochi", "addr:postcode": "682020", "addr:street": "Ponneth Temple Road", "amenity": "hospital", "email": "info@giridhareye.org", "emergency": "no", "healthcare": "hospital", "healthcare:speciality": "ophthalmology", "name": "Giridhar Eye Institute (GEI)", "phone": "+91-484-4170000", "website": "https://www.giridhareye.org/"}}, {"type": "node", "id": 5893896785, "lat": 9.9116748, "lon": 78.1197898, "tags": {"amenity": "hospital", "healthcare": "hospital", "name": "Vadamalaiyan hospital"}}, {"type": "node", "id": 6095604686, "lat": 8.1883774, "lon": 77.4173304, "tags": {"addr:district": "Kanniyakumari", "addr:full": "Vettoornimadam, Near By Vadasery Bus Stand", "addr:postcode": "629003", "addr:state": "Tamil Nadu", "amenity": "hospital", "healthcare": "hospital", "name": "Holy Cross Hospital", "name:en": "Holy Cross Hospital", "source": "OpenGovernmentData"}}, {"type": "node", "id": 6296945260, "lat": 9.2510843, "lon": 76.4511182, "tags": {"amenity": "hospital", "healthcare": "hospital", "name": "Chingoli Ayurveda Hospital And Research Centre"}}, {"type": "node", "id": 6376110767, "lat": 9.241286, "lon": 76.6728293, "tags": {"addr:street": "MC Road", "amenity": "hospital", "healthcare": "hospital", "name": "Medical Trust"}}, {"type": "node", "id": 6465137211, "lat": 9.9242502, "lon": 76.3579443, "tags": {"amenity": "hospital", "name": "Government Ayurvedic Hospital"}}, {"type": "node", "id": 6515047516, "lat": 6.8884745, "lon": 79.8766451, "tags": {"amenity": "hospital", "healthcare": "hospital", "name": "Lanka Hospitals"}}, {"type": "node", "id": 6552435292, "lat": 9.6537461, "lon": 76.7777115, "tags": {"addr:city": "Thidanad", "addr:postcode": "686508", "addr:street": "Sabarimala - Kodaikkanal Road", "amenity": "hospital", "healthcare": "hospital", "healthcare:speciality": "general", "name": "Primary Health Center, Thidanadu", "name:ml": "\u0d2a\u0d4d\u0d30\u0d3e\u0d25\u0d2e\u0d3f\u0d15\u0d3e\u0d30\u0d4b\u0d17\u0d4d\u0d2f \u0d15\u0d47\u0d28\u0d4d\u0d26\u0d4d\u0d30\u0d02", "operator": "DEPARTMENT OF HEALTH SERVICES", "operator:type": "government", "phone": "+91-4828-236888"}}, {"type": "node", "id": 6615719550, "lat": 6.9647924, "lon": 79.8649812, "tags": {"addr:city": "Colombo", "amenity": "hospital", "healthcare": "hospital", "name": "Free Dispensary"}}, {"type": "node", "id": 6631008087, "lat": 6.8854297, "lon": 79.8990978, "tags": {"addr:city": "Sri Jayawadhanapura Kotte", "addr:housenumber": "139/7A", "addr:street": "Pagoda Road", "amenity": "hospital", "healthcare": "hospital", "name": "Rawana Arana"}}, {"type": "node", "id": 6657814469, "lat": 6.8955508, "lon": 79.9601667, "tags": {"amenity": "hospital", "emergency": "no", "healthcare": "hospital", "name": "Body Doc Medical Center"}}, {"type": "node", "id": 6726164209, "lat": 9.9235862, "lon": 78.123292, "tags": {"amenity": "hospital", "emergency": "yes", "fee": "free Service", "healthcare": "hospital", "name": "SGH HOSPITAL"}}, {"type": "node", "id": 6763788379, "lat": 9.730261, "lon": 77.2802565, "tags": {"addr:block": "Cumbam", "addr:district": "Theni", "addr:full": "Gh-Cumbum, Muncipality Office, Cumbum, Kumuli Main Road", "addr:postcode": "625516", "addr:state": "Tamil Nadu", "addr:subdistrict": "Uthamapalayam", "amenity": "hospital", "healthcare": "hospital", "healthcare:speciality": "general;", "name": "cumbum government general hospital", "name:ta": "\u0b95\u0bae\u0bcd\u0baa\u0bae\u0bcd \u0b85\u0bb0\u0b9a\u0bc1 \u0baa\u0bca\u0ba4\u0bc1 \u0bae\u0bb0\u0bc1\u0ba4\u0bcd\u0ba4\u0bc1\u0bb5\u0bae\u0ba9\u0bc8", "operator": "public", "source": "OpenGovernmentData"}}, {"type": "node", "id": 6801453336, "lat": 8.8767219, "lon": 76.6256231, "tags": {"amenity": "hospital", "healthcare": "hospital"}}, {"type": "node", "id": 6802406185, "lat": 9.0212177, "lon": 76.9198844, "tags": {"addr:postcode": "691305", "amenity": "hospital", "healthcare": "hospital", "healthcare:speciality": "general;gynaecology", "name": "Bhanu Nursing Home"}}, {"type": "node", "id": 6819708995, "lat": 8.5294469, "lon": 76.9311827, "tags": {"addr:district": "Thiruvananthapuram", "addr:full": "Near Ulloor Bridge, Medical College", "addr:postcode": "695011", "addr:state": "Kerala", "addr:street": "ulloor", "amenity": "hospital", "city": "Thiruvananthapuram", "healthcare": "hospital", "name": "Ahalia Foundation Eye Hospital, Ulloor", "source": "OpenGovernmentData"}}, {"type": "node", "id": 6882704380, "lat": 8.6609709, "lon": 76.7866699, "tags": {"addr:city": "Chiryinkil", "addr:district": "Thiruvananthapuram", "addr:postcode": "695304", "addr:state": "Kerala", "amenity": "hospital", "contact:phone": "+91-4702646565", "healthcare": "hospital", "name": "Taluk Head Quarter Hospital Blood Bank", "opening_hours": "24/7", "operator": "Department of Health and Family Welfare", "operator:type": "government", "source": "OpenGovernmentData"}}, {"type": "node", "id": 6897439748, "lat": 9.8981551, "lon": 76.7098972, "tags": {"addr:district": "Idukki", "addr:full": "River View Road, Thodupuzha", "addr:postcode": "685584", "addr:state": "Kerala", "amenity": "hospital", "contact:phone": "+91 486 2300300", "healthcare": "hospital", "name": "Chazhikattu Hospital", "source": "OpenGovernmentData", "website": "https://cmshospital.in/"}}, {"type": "node", "id": 6897448618, "lat": 9.3387925, "lon": 76.7021246, "tags": {"amenity": "hospital", "healthcare": "hospital", "healthcare:speciality": "ophthalmology", "name": "Puthuoorans Eye Care"}}, {"type": "node", "id": 6897633326, "lat": 9.3369232, "lon": 76.7071649, "tags": {"addr:district": "Pathanamthitta", "addr:full": "Kozhencherry", "addr:postcode": "689647", "addr:state": "Kerala", "amenity": "hospital", "healthcare": "hospice", "name": "Mulamoottil Eye Hospital", "source": "OpenGovernmentData"}}, {"type": "node", "id": 6908300327, "lat": 9.339333, "lon": 76.7173845, "tags": {"addr:housenumber": "26", "addr:street": "residential road", "amenity": "hospital", "emergency": "ambulance_station", "entrance": "yes", "healthcare": "hospital", "name": "poyyanil", "operator": "9695901133"}}, {"type": "node", "id": 6914280088, "lat": 9.9213756, "lon": 78.1430107, "tags": {"addr:district": "Madurai", "addr:full": "Plot No. 130, Anna Nagar, Near Ambiga College, Alamaram Bus Stop", "addr:postcode": "625020", "addr:state": "Tamil Nadu", "amenity": "hospital", "healthcare": "hospital", "name": "Raksha Hospital", "source": "OpenGovernmentData"}}, {"type": "node", "id": 6914764646, "lat": 8.1896693, "lon": 77.4121463, "tags": {"addr:district": "Kanniyakumari", "addr:full": "13-507, Near Church, Kaliyancaud, Nagercoil., Tvm.Road", "addr:postcode": "629003", "addr:state": "Tamil Nadu", "addr:subdistrict": "Agastheeswaram", "amenity": "hospital", "healthcare": "hospital", "name": "Bensam Hospital", "source": "OpenGovernmentData", "wheelchair": "yes"}}, {"type": "node", "id": 6914764660, "lat": 9.8811644, "lon": 78.0573799, "tags": {"addr:district": "Madurai", "addr:full": "Rrc 270 D, G. S. T Road, Thirunagar 2nd Stop", "addr:postcode": "625006", "addr:state": "Tamil Nadu", "amenity": "hospital", "healthcare": "hospital", "name": "Manjarai Hospital", "source": "OpenGovernmentData"}}, {"type": "node", "id": 6914768007, "lat": 8.1774741, "lon": 77.432342, "tags": {"addr:district": "Kanniyakumari", "addr:full": "Old No-177B/New No-236, Chithambaranagar Chithambaranagar", "addr:postcode": "629002", "addr:state": "Tamil Nadu", "amenity": "hospital", "healthcare": "hospital", "name": "Thangam Hospital, Kanniyakumari", "source": "OpenGovernmentData"}}, {"type": "node", "id": 6914880495, "lat": 8.2875989, "lon": 77.2692463, "tags": {"addr:district": "Kanniyakumari", "addr:full": "Swamiyarmadam Kattathurai Marthandam Marthandam", "addr:postcode": "629158", "addr:state": "Tamil Nadu", "amenity": "hospital", "healthcare": "hospital", "name": "Vijayakumar Hospital", "source": "OpenGovernmentData"}}, {"type": "node", "id": 6914880506, "lat": 9.5049078, "lon": 78.1032523, "tags": {"addr:district": "Virudhunagar", "addr:full": "272 Thiruchuli Road Aruppukkottai", "addr:postcode": "626101", "addr:state": "Tamil Nadu", "amenity": "hospital", "healthcare": "hospital", "name": "Vijaya Hospital, Virudhunagar", "source": "OpenGovernmentData"}}, {"type": "node", "id": 6914880526, "lat": 9.9340044, "lon": 78.0917959, "tags": {"addr:district": "Madurai", "addr:full": "No-1, P.P.Chavadi Theni Main Road", "addr:postcode": "625016", "addr:state": "Tamil Nadu", "amenity": "hospital", "healthcare": "hospital", "name": "Vijaya Hospital, Madurai", "source": "OpenGovernmentData"}}, {"type": "node", "id": 6914880541, "lat": 9.440617, "lon": 77.5575954, "tags": {"addr:district": "Virudhunagar", "addr:full": "178 Pacr Road Rajapalayam Rajapalayam", "addr:postcode": "626117", "addr:state": "Tamil Nadu", "amenity": "hospital", "healthcare": "hospital", "name": "Chennai Hospital", "source": "OpenGovernmentData"}}, {"type": "node", "id": 6914880559, "lat": 8.1806149, "lon": 77.4189216, "tags": {"addr:district": "Kanniyakumari", "addr:full": "K.P.Road, Mathias Nagar, Nagercoil", "addr:postcode": "629001", "addr:state": "Tamil Nadu", "amenity": "hospital", "healthcare": "hospital", "name": "Moses Mathias Hospital", "source": "OpenGovernmentData"}}, {"type": "node", "id": 6914880564, "lat": 9.9358857, "lon": 78.1424099, "tags": {"addr:district": "Madurai", "addr:full": "11-A, Vinayaga Nagar, Opposite District Court, K K Nagar", "addr:postcode": "625020", "addr:state": "Tamil Nadu", "amenity": "hospital", "healthcare": "hospital", "name": "Mohan's Medicity Hospital", "source": "OpenGovernmentData"}}, {"type": "node", "id": 6914893990, "lat": 8.8805189, "lon": 76.6097769, "tags": {"addr:district": "Kollam", "addr:full": "Polayathode, Kollam", "addr:postcode": "631501", "addr:state": "Tamil Nadu", "amenity": "hospital", "name": "Modern Urology Centre", "source": "OpenGovernmentData"}}, {"type": "node", "id": 6914894000, "lat": 9.9259886, "lon": 78.1409588, "tags": {"addr:block": "Madurai Corp", "addr:district": "Madurai", "addr:full": "Opp To Milk Project, Madurai South, Sivengai Road", "addr:postcode": "625020", "addr:state": "Tamil Nadu", "addr:subdistrict": "Madurai South", "amenity": "hospital", "healthcare": "hospital", "name": "Mithra Hospital", "source": "OpenGovernmentData"}}, {"type": "node", "id": 6914894017, "lat": 9.8945704, "lon": 78.1195521, "tags": {"addr:district": "Madurai", "addr:full": "33/22, Vasuki Street, Ganapathy Nagar, Villapuram", "addr:postcode": "625012", "addr:state": "Tamil Nadu", "amenity": "hospital", "healthcare": "hospital", "name": "Meenakshi Sugam Hospital", "source": "OpenGovernmentData"}}, {"type": "node", "id": 6914896236, "lat": 9.9175022, "lon": 78.1041764, "tags": {"addr:district": "Madurai", "addr:full": "32, Sarvodaya Main Road, Ellis Nagar", "addr:postcode": "625016", "addr:state": "Tamil Nadu", "amenity": "hospital", "healthcare": "hospital", "name": "Quality Care Hospital", "source": "OpenGovernmentData"}}, {"type": "node", "id": 6914910270, "lat": 8.1802963, "lon": 77.250782, "tags": {"addr:block": "Colachel Mpty", "addr:district": "Kanniyakumari", "addr:full": "16-274, Near Leon Nagar, Colachel, Karungal Road", "addr:postcode": "629251", "addr:state": "Tamil Nadu", "addr:subdistrict": "Kalkulam", "amenity": "hospital", "name": "Sri Padmanaba Hospital", "source": "OpenGovernmentData"}}, {"type": "node", "id": 6914911770, "lat": 8.3062999, "lon": 77.2226214, "tags": {"addr:block": "Melpuram", "addr:district": "Kanniyakumari", "addr:full": "8B, Marthandam Po., Main Road", "addr:postcode": "629196", "addr:state": "Tamil Nadu", "addr:subdistrict": "Vilavancode", "amenity": "hospital", "healthcare": "hospital", "name": "Manju Hospital", "source": "OpenGovernmentData"}}, {"type": "node", "id": 6914917459, "lat": 9.9487954, "lon": 78.1428216, "tags": {"addr:district": "Madurai", "addr:full": "#38, Singaravelar St,Matha Kovil Main Road", "addr:postcode": "625007", "addr:state": "Tamil Nadu", "amenity": "hospital", "healthcare": "hospital", "name": "Leonard Hospital, Madurai", "source": "OpenGovernmentData"}}, {"type": "node", "id": 6914927092, "lat": 9.4528638, "lon": 77.7900615, "tags": {"addr:district": "Virudhunagar", "addr:full": "56-D, Uzhavar Santhai., Sivakasi, Chairman Shanmugam Road", "addr:postcode": "626123", "addr:state": "Tamil Nadu", "addr:subdistrict": "Sivakasi", "amenity": "hospital", "healthcare": "hospital", "name": "Meenakshi Hospital", "source": "OpenGovernmentData"}}, {"type": "node", "id": 6914927126, "lat": 8.9544983, "lon": 77.3023286, "tags": {"addr:district": "Tirunelveli", "addr:full": "Courtallam Road, Tenkasi", "addr:postcode": "627811", "addr:state": "Tamil Nadu", "amenity": "hospital", "healthcare": "hospital", "name": "Kp hospital", "source": "OpenGovernmentData"}}, {"type": "node", "id": 6914927137, "lat": 9.1657833, "lon": 77.8512467, "tags": {"addr:district": "Tuticorin", "addr:full": "520, Tirunelveli Nh, Kr Nagar Post", "addr:postcode": "628503", "addr:state": "Tamil Nadu", "amenity": "hospital", "healthcare": "hospital", "name": "Kovilpatti Venkateswara Hospitals (Run By Dhamayanthi Hospitals (P) Ltd)", "source": "OpenGovernmentData"}}, {"type": "node", "id": 6914927163, "lat": 9.9428234, "lon": 78.1299752, "tags": {"addr:district": "Madurai", "addr:full": "# 9-A, Vallabai Road, Chokkikulam", "addr:postcode": "625002", "addr:state": "Tamil Nadu", "amenity": "hospital", "healthcare": "hospital", "name": "Vadamalayan Hospitals, Chokkikulam", "source": "OpenGovernmentData"}}, {"type": "node", "id": 6914937590, "lat": 8.8695859, "lon": 77.4940838, "tags": {"addr:district": "Tirunelveli", "addr:full": "13/549,B,Tenkasi Main Road, Alangulam", "addr:postcode": "627851", "addr:state": "Tamil Nadu", "amenity": "hospital", "healthcare": "hospital", "name": "Sri Ram Hospital, Tirunelveli", "source": "OpenGovernmentData"}}, {"type": "node", "id": 6914937607, "lat": 8.1659249, "lon": 77.4474294, "tags": {"addr:district": "Kanniyakumari", "addr:full": "Edalakudy , Nagercoil", "addr:postcode": "629002", "addr:state": "Tamil Nadu", "amenity": "hospital", "healthcare": "hospital", "name": "Sri Ram Orthopaedic Hospital", "source": "OpenGovernmentData"}}, {"type": "node", "id": 6914937612, "lat": 9.5070532, "lon": 78.0953144, "tags": {"addr:block": "Aruppukottai Mpty", "addr:district": "Virudhunagar", "addr:full": "Near Ahamudiyar Mahal, Aruppukottai, Pattabiramar Kovil Street", "addr:postcode": "626101", "addr:state": "Tamil Nadu", "addr:subdistrict": "Aruppukkottai", "amenity": "hospital", "healthcare": "hospital", "name": "Sri Ram Hospital -Sugasthala", "source": "OpenGovernmentData"}}, {"type": "node", "id": 6915000700, "lat": 9.1741944, "lon": 77.8666735, "tags": {"addr:district": "Tuticorin", "addr:full": "#46C, Santhai Pettai Street", "addr:postcode": "628502", "addr:state": "Tamil Nadu", "amenity": "hospital", "healthcare": "hospital", "name": "Sri Murali Hospital, Tuticorin", "source": "OpenGovernmentData"}}, {"type": "node", "id": 6915182454, "lat": 9.918032, "lon": 78.1466813, "tags": {"addr:district": "Madurai", "addr:full": "107-A/1, Vaigal Colony, Near Ambika Theatre, Anna Nagar", "addr:postcode": "625020", "addr:state": "Tamil Nadu", "amenity": "hospital", "healthcare": "hospital", "name": "Balaji Hospital, Anna Nagar", "source": "OpenGovernmentData"}}, {"type": "node", "id": 6915201493, "lat": 8.5099294, "lon": 78.1177631, "tags": {"addr:district": "Tuticorin", "addr:full": "1/143 B, Tuticorin Road, Veerapandianratnam, Tiruchendur", "addr:postcode": "628215", "addr:state": "Tamil Nadu", "amenity": "hospital", "healthcare": "hospital", "name": "B G Hospital", "source": "OpenGovernmentData"}}, {"type": "node", "id": 6915211088, "lat": 9.5869307, "lon": 77.9519463, "tags": {"addr:block": "Virudhunagar Mpty", "addr:district": "Virudhunagar", "addr:full": "Near Old Bus Stand, Virudhunagar, West Car Street", "addr:postcode": "626001", "addr:state": "Tamil Nadu", "amenity": "hospital", "healthcare": "hospital", "name": "Lysander Hospital", "source": "OpenGovernmentData"}}, {"type": "node", "id": 6915215712, "lat": 8.1708572, "lon": 77.4400782, "tags": {"addr:block": "Nagercoil Mpty", "addr:district": "Kanniyakumari", "addr:full": "75-40, Kottar, Vagaiyadi South Street.", "addr:postcode": "0:00:00", "addr:state": "Tamil Nadu", "addr:subdistrict": "Agastheeswaram", "amenity": "hospital", "healthcare": "hospital", "name": "Padma Hospital", "source": "OpenGovernmentData"}}, {"type": "node", "id": 6915218700, "lat": 8.3023864, "lon": 77.2225758, "tags": {"addr:block": "Killiyur", "addr:district": "Kanniyakumari", "addr:full": "5/76G2, Marthandam & Po., Railway Station Road", "addr:postcode": "629196", "addr:state": "Tamil Nadu", "addr:subdistrict": "Vilavancode", "amenity": "hospital", "healthcare": "hospital", "name": "Vinodh Hospital", "source": "OpenGovernmentData"}}, {"type": "node", "id": 6915226941, "lat": 8.169484, "lon": 77.4365102, "tags": {"addr:district": "Kanniyakumari", "addr:full": "47B, Eathamozhi Rd, Opp.To George Mission Hospital, Chenthooran Nagar, Kottar", "addr:postcode": "629002", "addr:state": "Tamil Nadu", "addr:subdistrict": "Agastheeswaram", "amenity": "hospital", "healthcare": "hospital", "name": "George Mission Hospital", "source": "OpenGovernmentData"}}, {"type": "node", "id": 6915252063, "lat": 8.7103302, "lon": 77.7517073, "tags": {"addr:district": "Tirunelveli", "addr:full": "#7D High Ground St Thomas Road", "addr:postcode": "627011", "addr:state": "Tamil Nadu", "amenity": "hospital", "healthcare": "hospital", "name": "Vekateshwara Hospitals", "source": "OpenGovernmentData"}}, {"type": "node", "id": 6915292937, "lat": 8.2730496, "lon": 77.1433876, "tags": {"addr:block": "Munichirai", "addr:district": "Kanniyakumari", "addr:full": "Junction, Nithiravilai, Erumanthurai Road", "addr:postcode": "629172", "addr:state": "Tamil Nadu", "addr:subdistrict": "Vilavancode", "amenity": "hospital", "name": "St.Marys Hospital", "source": "OpenGovernmentData"}}, {"type": "node", "id": 6915460082, "lat": 8.5134522, "lon": 77.5574161, "tags": {"addr:district": "Tirunelveli", "addr:full": "180/273 Kannimaramman Kovil Street Tenkasi", "addr:postcode": "627811", "addr:state": "Tamil Nadu", "amenity": "hospital", "healthcare": "hospital", "name": "Shiva Hospital, Tirunelveli", "source": "OpenGovernmentData"}}, {"type": "node", "id": 6915858053, "lat": 8.8017177, "lon": 78.1375699, "tags": {"addr:district": "Tuticorin", "addr:full": "135, Palayamkottai Road", "addr:postcode": "628003", "addr:state": "Tamil Nadu", "amenity": "hospital", "check_date": "2022-11-03", "email": "contact@avmh.in", "emergency": "yes", "healthcare": "hospital", "name": "A.V. M. Hospital", "opening_hours": "24/7", "phone": "+91 461 232 5461", "source": "OpenGovernmentData", "start_date": "1992", "website": "https://www.avmh.in/"}}, {"type": "node", "id": 6916013275, "lat": 8.2736826, "lon": 77.1447462, "tags": {"addr:block": "Munichirai", "addr:district": "Kanniyakumari", "addr:full": "29/3A, Junction, Nithiravilai, Mankad Road", "addr:postcode": "629172", "addr:state": "Tamil Nadu", "addr:subdistrict": "Vilavancode", "amenity": "hospital", "name": "Pius Hospital", "source": "OpenGovernmentData"}}, {"type": "node", "id": 6916094871, "lat": 8.7331477, "lon": 77.7220957, "tags": {"addr:district": "Tirunelveli", "addr:full": "341/2, North Bye Pass Road, Vannarpettai", "addr:postcode": "627003", "addr:state": "Tamil Nadu", "amenity": "hospital", "healthcare": "hospital", "name": "Vasan Eye Care Hospital, Tirunelveli", "source": "OpenGovernmentData"}}, {"type": "node", "id": 6916123677, "lat": 9.3705264, "lon": 78.8337466, "tags": {"addr:district": "Ramanathapuram", "addr:full": "#61, I Main Road,R.R. Sethupathy Nagar", "addr:postcode": "623501", "addr:state": "Tamil Nadu", "amenity": "hospital", "healthcare": "hospital", "name": "Anandh Hospital", "source": "OpenGovernmentData"}}, {"type": "node", "id": 6916170044, "lat": 9.8809556, "lon": 78.0624036, "tags": {"addr:district": "Madurai", "addr:full": "272/1, Gst Road Harvipatti Bus Stop Tiruparakundrum Thirunagar", "addr:postcode": "625005", "addr:state": "Tamil Nadu", "amenity": "hospital", "healthcare": "hospital", "name": "Vasan Eye Care Hospital, Thirunagar,Madurai", "source": "OpenGovernmentData"}}, {"type": "node", "id": 6916208793, "lat": 9.3674301, "lon": 78.8297032, "tags": {"addr:district": "Ramanathapuram", "addr:full": "78/143, Salai Street, Aringnar Anna Salai", "addr:postcode": "623501", "addr:state": "Tamil Nadu", "amenity": "hospital", "healthcare": "hospital", "name": "Vasan Eye Care Hospital, Ramanathapuram", "source": "OpenGovernmentData"}}, {"type": "node", "id": 6926045317, "lat": 9.9579038, "lon": 78.1541292, "tags": {"addr:district": "Madurai", "addr:full": "Door No. 75/1, Kodikulam Ist Street, Alagarkovil Main Road, Surveyor Colony", "addr:postcode": "625007", "addr:state": "Tamil Nadu", "addr:subdistrict": "Madurai South", "amenity": "hospital", "healthcare": "hospital", "name": "Devadoss Multispeciality Hospital", "source": "OpenGovernmentData"}}, {"type": "node", "id": 6926049946, "lat": 8.3321736, "lon": 77.1732165, "tags": {"addr:district": "Kanniyakumari", "addr:full": "Ppm Junction,Near C.S.T.Chruch ,Vilavancode", "addr:postcode": "629153", "addr:state": "Tamil Nadu", "amenity": "hospital", "name": "Grace Hospital and Nursing Home", "source": "OpenGovernmentData"}}, {"type": "node", "id": 6926049967, "lat": 8.0833083, "lon": 77.5472505, "tags": {"addr:district": "Kanniyakumari", "addr:full": "Sf 605/2, Kanniyakumari, Antony Street", "addr:postcode": "629702", "addr:state": "Tamil Nadu", "addr:subdistrict": "Agastheeswaram", "amenity": "hospital", "healthcare": "hospital", "name": "Government Hospital, Kanniyakumari", "name:en": "Government Hospital, Kanniyakumari", "name:ta": "\u0b95\u0ba9\u0bcd\u0ba9\u0bbf\u0baf\u0bbe\u0b95\u0bc1\u0bae\u0bb0\u0bbf \u0b85\u0bb0\u0b9a\u0bc1 \u0bae\u0bb0\u0bc1\u0ba4\u0bcd\u0ba4\u0bc1\u0bb5\u0bae\u0ba9\u0bc8", "operator:type": "government", "source": "OpenGovernmentData"}}, {"type": "node", "id": 6926049983, "lat": 9.5073469, "lon": 78.0926912, "tags": {"addr:block": "Aruppukottai Mpty", "addr:district": "Virudhunagar", "addr:full": "P.Puliampatti, Aruppukkottai", "addr:postcode": "626101", "addr:state": "Tamil Nadu", "addr:subdistrict": "Aruppukkottai", "amenity": "hospital", "healthcare": "hospital", "name": "Gomathi Hospital", "source": "OpenGovernmentData"}}, {"type": "node", "id": 6926055910, "lat": 9.4415754, "lon": 77.557797, "tags": {"addr:block": "Erode Corp", "addr:district": "Erode", "addr:full": "592/2, Srirengapalayam, Psk Nagar, Rajapalayam,", "addr:postcode": "626117", "addr:state": "Tamil Nadu", "amenity": "hospital", "healthcare": "hospital", "name": "Bharathi Hospital, Rajapalayam", "source": "OpenGovernmentData"}}, {"type": "node", "id": 6926068997, "lat": 9.4513319, "lon": 77.7946226, "tags": {"addr:district": "Virudhunagar", "addr:full": "23, West Car St. Sivakasi", "addr:postcode": "626123", "addr:state": "Tamil Nadu", "amenity": "hospital", "healthcare": "hospital", "name": "Gnanadurai Hospital", "source": "OpenGovernmentData"}}, {"type": "node", "id": 6926107776, "lat": 8.2439412, "lon": 77.174223, "tags": {"addr:district": "Kanniyakumari", "addr:full": "Marthandam Road, Thengapattnam", "addr:postcode": "629173", "addr:state": "Tamil Nadu", "amenity": "hospital", "name": "St. Luke Hospital, Kanniyakumari", "source": "OpenGovernmentData"}}, {"type": "node", "id": 6926118201, "lat": 9.45035, "lon": 77.7961647, "tags": {"addr:district": "Virudhunagar", "addr:full": "#15, Sivan Sannathi,Sivan Kovil", "addr:postcode": "626123", "addr:state": "Tamil Nadu", "amenity": "hospital", "healthcare": "hospital", "name": "Giri Hospital", "source": "OpenGovernmentData"}}, {"type": "node", "id": 6926175049, "lat": 8.726199, "lon": 77.7220716, "tags": {"addr:district": "Tirunelveli", "addr:full": "Land Mark Towers, 10/1/15,South Bye Pass Road, Opp:To Bsnl,Vannarpet", "addr:postcode": "627003", "addr:state": "Tamil Nadu", "amenity": "hospital", "healthcare": "hospital", "name": "Dr Agarwal's Eye Hospital, Vannarpet", "operator": "Dr. Agarwal's Eye Hospital", "operator:wikidata": "Q17052044", "source": "OpenGovernmentData"}}, {"type": "node", "id": 6926188824, "lat": 8.1740293, "lon": 77.4348626, "tags": {"addr:district": "Kanniyakumari", "addr:full": "43/15A, Dvd Colony Kottar, Kottar,Nagercoil", "addr:postcode": "629001", "addr:state": "Tamil Nadu", "addr:subdistrict": "Agastheeswaram", "amenity": "hospital", "healthcare": "hospital", "name": "Kumaravel Hospital", "source": "OpenGovernmentData"}}, {"type": "node", "id": 6926437417, "lat": 8.3087934, "lon": 77.2174005, "tags": {"addr:block": "Melpuram", "addr:district": "Kanniyakumari", "addr:full": "Marthandam, Trivandrum Main Road", "addr:postcode": "629165", "addr:state": "Tamil Nadu", "addr:subdistrict": "Vilavancode", "amenity": "hospital", "name": "Dr Issac Bone Speciality Hospital", "phone": "+91 4651 274 553", "source": "OpenGovernmentData", "website": "https://isaachospitals.com"}}, {"type": "node", "id": 6926437439, "lat": 9.9190228, "lon": 78.154154, "tags": {"addr:district": "Madurai", "addr:full": "157/5, Vivekanandhar Main Road, Thasildar Nagar", "addr:postcode": "625020", "addr:state": "Tamil Nadu", "amenity": "hospital", "healthcare": "hospital", "name": "Habiba Speciality Hospital", "source": "OpenGovernmentData"}}, {"type": "node", "id": 6926437449, "lat": 9.4532978, "lon": 77.5571707, "tags": {"addr:district": "Virudhunagar", "addr:full": "501 / A2 Srirengapalayam Rajapalayam", "addr:postcode": "626117", "addr:state": "Tamil Nadu", "amenity": "hospital", "healthcare": "hospital", "name": "Gv Ortho Centre", "source": "OpenGovernmentData"}}, {"type": "node", "id": 6926437455, "lat": 9.914115, "lon": 78.1333159, "tags": {"addr:district": "Madurai", "addr:full": "46, Cmr Road", "addr:postcode": "625009", "addr:state": "Tamil Nadu", "amenity": "hospital", "healthcare": "hospital", "name": "Guna Sundari Bose Hospital", "source": "OpenGovernmentData"}}, {"type": "node", "id": 6926494037, "lat": 8.7336063, "lon": 77.7231109, "tags": {"addr:district": "Tirunelveli", "addr:full": "110E/20/1, North By-Pass Road Vannarpet", "addr:postcode": "627003", "addr:state": "Tamil Nadu", "amenity": "hospital", "healthcare": "hospital", "name": "Galaxy Hospitals", "source": "OpenGovernmentData", "wheelchair": "yes"}}, {"type": "node", "id": 6926687284, "lat": 8.1614014, "lon": 77.4439332, "tags": {"addr:district": "Kanniyakumari", "addr:full": "Kottar, Nagercoil Kanniyakumari", "addr:postcode": "629002", "addr:state": "Tamil Nadu", "amenity": "hospital", "healthcare": "hospital", "healthcare:speciality": "multi speciality", "name": "Abdul Khadir Hospital", "source": "OpenGovernmentData"}}, {"type": "node", "id": 6926783605, "lat": 9.4517764, "lon": 77.793484, "tags": {"addr:district": "Virudhunagar", "addr:full": "# 459, Main Road, Sattur", "addr:postcode": "626203", "addr:state": "Tamil Nadu", "amenity": "hospital", "healthcare": "hospital", "name": "Star Hospitals", "name:pa": "\u0a38\u0a1f\u0a3e\u0a30 \u0a39\u0a38\u0a2a\u0a24\u0a3e\u0a32", "name:ur": "\u0627\u0633\u0679\u0627\u0631 \u06c1\u0633\u067e\u062a\u0627\u0644", "source": "OpenGovernmentData"}}, {"type": "node", "id": 6926984476, "lat": 9.8724258, "lon": 78.1086101, "tags": {"addr:district": "Virudhunagar", "addr:full": "60-Telephone Road, Aruppukottai", "addr:postcode": "626101", "addr:state": "Tamil Nadu", "amenity": "hospital", "name": "Harshitha Hospital, Virudhunagar", "source": "OpenGovernmentData"}}, {"type": "node", "id": 6927275212, "lat": 9.3645309, "lon": 78.8327032, "tags": {"addr:block": "Ramanathapuram Mpty", "addr:district": "Ramanathapuram", "addr:full": "Chalai Bazar, Ramanathapuram", "addr:postcode": "623501", "addr:state": "Tamil Nadu", "amenity": "hospital", "healthcare": "hospital", "name": "Kanagamani Hospital", "source": "OpenGovernmentData"}},