{"version": 0.6, "generator": "Overpass API 0.7.61.5 4133829e", "osm3s": {"timestamp_osm_base": "2023-10-31T20:52:36Z", "copyright": "The data included in this document is from www.openstreetmap.org. The data is made available under ODbL."}, "elements": [{"type": "node", "id": 310166807, "lat": 6.0366488, "lon": 80.2161531, "tags": {"amenity": "hospital", "emergency": "no", "healthcare": "hospital", "is_in": "Galle, Galle District, Southern Province, Sri Lanka", "name": "Co-op Hospital"}}, {"type": "node", "id": 310166824, "lat": 6.0358559, "lon": 80.2161505, "tags": {"amenity": "hospital", "emergency": "no", "healthcare": "hospital", "is_in": "Galle, Galle District, Southern Province, Sri Lanka", "name": "Asiri Hospital"}}, {"type": "node", "id": 618657478, "lat": 7.8728249, "lon": 80.650505, "tags": {"amenity": "hospital", "healthcare": "hospital", "name": "Dambulla General Provincial Hospital", "name:en": "Dambulla Hospital", "source": "GPS"}}, {"type": "node", "id": 873842128, "lat": 6.9741095, "lon": 80.7803117, "tags": {"addr:city": "Nuwara Eliya", "amenity": "hospital", "emergency": "yes", "name": "Nuwara Eliya General Hospital"}}, {"type": "node", "id": 1105822178, "lat": 6.285, "lon": 81.2685667, "tags": {"addr:city": "Thissamaharama", "amenity": "hospital", "name": "Base Hospital"}}, {"type": "node", "id": 1148496061, "lat": 9.6616371, "lon": 80.1669594, "tags": {"amenity": "hospital", "healthcare": "hospital", "name": "Chavakachcheri Base Hospital", "phone": "+94213215429", "wikidata": "Q5088450"}}, {"type": "node", "id": 1179885197, "lat": 6.9858583, "lon": 81.0583567, "tags": {"amenity": "hospital", "emergency": "yes", "name": "Badulla Central Hospital"}}, {"type": "node", "id": 1292992413, "lat": 7.0906504, "lon": 80.0005285, "tags": {"amenity": "hospital", "name": "Arogya Gampaha"}}, {"type": "node", "id": 1304839120, "lat": 7.0424521, "lon": 80.3664892, "tags": {"amenity": "hospital", "name": "Rural Hospital Halgolla"}}, {"type": "node", "id": 1427183461, "lat": 5.9749081, "lon": 80.4189122, "tags": {"addr:city": "Walana", "amenity": "hospital", "emergency": "yes", "healthcare": "hospital", "name:en": "Weligama District Hospital", "opening_hours": "24/7"}}, {"type": "node", "id": 1463832354, "lat": 6.8461319, "lon": 80.042246, "tags": {"amenity": "hospital", "healthcare": "alternative", "healthcare:speciality": "ayurveda", "name": "Meegoda Ayurveda Hospital"}}, {"type": "node", "id": 1497165127, "lat": 6.0288675, "lon": 80.2162698, "tags": {"amenity": "hospital", "emergency": "yes", "healthcare": "hospital"}}, {"type": "node", "id": 1640241532, "lat": 5.9531215, "lon": 80.4541208, "tags": {"addr:city": "Mirissa", "addr:street": "Colombo -Matara Road", "amenity": "hospital", "name": "Rural Hospital"}}, {"type": "node", "id": 1722822880, "lat": 6.7554682, "lon": 81.3005801, "tags": {"amenity": "hospital", "name": "Okkampitiya Rural Hospital"}}, {"type": "node", "id": 1744023357, "lat": 6.4126218, "lon": 81.3388947, "tags": {"addr:city": "Katharagama UP", "amenity": "hospital", "name": "District Hospital, Katharagama."}}, {"type": "node", "id": 1796819687, "lat": 6.8400553, "lon": 80.0896596, "tags": {"amenity": "hospital", "name": "Padukka Base Hospital"}}, {"type": "node", "id": 1796922719, "lat": 6.6451235, "lon": 80.1789289, "tags": {"amenity": "hospital", "name": "Base Hospital"}}, {"type": "node", "id": 1796922986, "lat": 6.6448198, "lon": 80.1794385, "tags": {"amenity": "hospital", "name": "Athura Hospital"}}, {"type": "node", "id": 1805745347, "lat": 7.0245178, "lon": 80.261432, "tags": {"addr:city": "Karawanella SGP", "amenity": "hospital", "name": "Karawanella Base Hospital"}}, {"type": "node", "id": 1814595125, "lat": 6.1271953, "lon": 81.1224549, "tags": {"amenity": "hospital", "emergency": "yes", "healthcare": "hospital", "name": "Hambantota General Hospital"}}, {"type": "node", "id": 1818503771, "lat": 6.1147035, "lon": 81.0220545, "tags": {"amenity": "hospital", "name": "Ambalantota Hospital"}}, {"type": "node", "id": 1818771616, "lat": 6.8055733, "lon": 80.9571343, "tags": {"amenity": "hospital", "healthcare": "hospital", "name": "Diyatalawa Base Hospital"}}, {"type": "node", "id": 1819855346, "lat": 6.9346877, "lon": 80.9899055, "tags": {"amenity": "hospital", "name": "Ettampitiya Base Hospital"}}, {"type": "node", "id": 1830413983, "lat": 6.8548993, "lon": 80.6002986, "tags": {"amenity": "hospital", "name": "Dickoya Base Hospital"}}, {"type": "node", "id": 1830502778, "lat": 7.1639499, "lon": 80.5735309, "tags": {"addr:city": "Gampola", "addr:street": "Peradeniya-Badulla-Chenkaladi Road", "amenity": "hospital", "name": "Suwa Bawana Hospital"}}, {"type": "node", "id": 1831898507, "lat": 7.1733007, "lon": 80.5015841, "tags": {"addr:city": "Hemmathagama", "amenity": "hospital", "healthcare": "hospital", "name": "Hemmathagama Hospital"}}, {"type": "node", "id": 1831954351, "lat": 7.1061708, "lon": 80.564435, "tags": {"addr:city": "Ulapane", "addr:street": "Gampola-Nawalapitiya Road", "amenity": "hospital", "name": "Rural Hospital"}}, {"type": "node", "id": 1846323739, "lat": 5.9637929, "lon": 80.6018991, "tags": {"amenity": "hospital"}}, {"type": "node", "id": 1856812558, "lat": 7.2950405, "lon": 80.2378677, "tags": {"amenity": "hospital", "name": "Wanniarachchi Medical Center"}}, {"type": "node", "id": 1867157681, "lat": 7.8235267, "lon": 80.2824677, "tags": {"amenity": "hospital", "healthcare": "hospital", "name": "Mahawa Base Hospital"}}, {"type": "node", "id": 1877385268, "lat": 7.2262613, "lon": 81.5421294, "tags": {"amenity": "hospital", "name": "Inginiyagala Divisional Hospital"}}, {"type": "node", "id": 1932028147, "lat": 6.1496815, "lon": 80.6981565, "tags": {"amenity": "hospital", "healthcare": "hospital", "name": "Walasmulla"}}, {"type": "node", "id": 1933478833, "lat": 6.2067106, "lon": 80.6684374, "tags": {"amenity": "hospital", "name": "Kirama"}}, {"type": "node", "id": 1945644723, "lat": 6.9335724, "lon": 81.1524924, "tags": {"amenity": "hospital", "name": "District Hospital Passara"}}, {"type": "node", "id": 1960904428, "lat": 6.8740488, "lon": 81.0486572, "tags": {"amenity": "hospital", "healthcare": "hospital", "name": "Medical Center"}}, {"type": "node", "id": 1974694453, "lat": 7.3261607, "lon": 80.9907893, "tags": {"amenity": "hospital", "healthcare": "hospital", "name": "Mahiyanganaya Base Hospital"}}, {"type": "node", "id": 1976145973, "lat": 7.6555111, "lon": 80.125702, "tags": {"amenity": "hospital", "name": "Kobeigane Base Hospital"}}, {"type": "node", "id": 1977820865, "lat": 7.4312722, "lon": 80.2064789, "tags": {"amenity": "hospital", "name": "Hospital Narammala"}}, {"type": "node", "id": 1977820889, "lat": 7.4325701, "lon": 80.2125944, "tags": {"amenity": "hospital", "name": "Ayurweda Hospital Narammala"}}, {"type": "node", "id": 1981147412, "lat": 8.044023, "lon": 80.5960427, "tags": {"amenity": "hospital", "healthcare": "hospital", "name": "Kekirawa District Hospital"}}, {"type": "node", "id": 1981159943, "lat": 8.3547478, "lon": 80.5098112, "tags": {"amenity": "hospital", "name": "Mihintale district Hospital"}}, {"type": "node", "id": 1993203085, "lat": 6.7879708, "lon": 81.0110016, "tags": {"amenity": "hospital", "name": "Divisional Hospital"}}, {"type": "node", "id": 1994693274, "lat": 6.5306079, "lon": 80.3974002, "tags": {"addr:city": "Kalawana", "amenity": "hospital", "name": "Base Hospital"}}, {"type": "node", "id": 1994920168, "lat": 6.6871447, "lon": 80.3924992, "tags": {"amenity": "hospital", "emergency": "yes", "healthcare": "hospital", "name": "Ratnapura Teaching Hospital", "website": "http://thratnapura.health.gov.lk/"}}, {"type": "node", "id": 2001999417, "lat": 7.5309537, "lon": 81.3555798, "tags": {"amenity": "hospital", "name": "Mahaoya Base Hospital"}}, {"type": "node", "id": 2035811627, "lat": 6.9723493, "lon": 80.7681614, "tags": {"addr:city": "Nuwara Eliya", "amenity": "hospital", "healthcare": "hospital", "name": "Ideal Hospital"}}, {"type": "node", "id": 2035855678, "lat": 6.9951992, "lon": 80.818241, "tags": {"addr:city": "Kandapola", "amenity": "hospital", "name": "Kandapola Hospital"}}, {"type": "node", "id": 2087548638, "lat": 7.266409, "lon": 80.5981261, "tags": {"amenity": "hospital", "healthcare": "hospital", "name": "Peradeniya Teaching Hospital"}}, {"type": "node", "id": 2112572119, "lat": 7.7606317, "lon": 80.5716613, "tags": {"addr:city": "Galewela", "addr:street": "Kurunegala-Dambulla Road", "amenity": "hospital", "name": "Galewela Base Hospital", "name:en": "Galewela hospital gov"}}, {"type": "node", "id": 2146223914, "lat": 6.835309, "lon": 80.4075065, "tags": {"amenity": "hospital", "name": "Erathna Rural Hospital"}}, {"type": "node", "id": 2151514476, "lat": 6.6874477, "lon": 80.4027324, "tags": {"addr:city": "Rathnapura", "addr:street": "Bus Stand Road", "amenity": "hospital", "name": "Coop medical Centre"}}, {"type": "node", "id": 2152832489, "lat": 9.3727442, "lon": 80.4114281, "tags": {"amenity": "hospital", "name": "District General Hospital Killinochchi", "name:ta": "\u0bae\u0bbe\u0b9f\u0bcd\u0b9f \u0baa\u0bca\u0ba4\u0bc1 \u0bb5\u0bc8\u0ba4\u0bcd\u0ba4\u0bbf\u0baf\u0b9a\u0bbe\u0bb2\u0bc8"}}, {"type": "node", "id": 2155827557, "lat": 6.3796996, "lon": 80.3743171, "tags": {"amenity": "hospital", "name": "Rural Hospital"}}, {"type": "node", "id": 2176700458, "lat": 6.3575453, "lon": 80.5682703, "tags": {"amenity": "hospital", "name": "Deniyaya Hospital"}}, {"type": "node", "id": 2176940719, "lat": 6.3298078, "lon": 80.5223857, "tags": {"amenity": "hospital", "name": "Pallegama Rural Hospital"}}, {"type": "node", "id": 2285207608, "lat": 8.0468473, "lon": 80.9045308, "tags": {"amenity": "hospital", "name": "Minneriya Ayurveda Hospital"}}, {"type": "node", "id": 2286402631, "lat": 8.1430794, "lon": 80.9675466, "tags": {"amenity": "hospital", "name": "Medirigiriya Base Hospital"}}, {"type": "node", "id": 2303597213, "lat": 7.9485257, "lon": 81.2464883, "tags": {"amenity": "hospital", "name": "Welikanda"}}, {"type": "node", "id": 2304485570, "lat": 7.9046279, "lon": 81.113417, "tags": {"amenity": "hospital", "name": "Manampitiya Hospital"}}, {"type": "node", "id": 2315533313, "lat": 7.289746, "lon": 80.8151703, "tags": {"amenity": "hospital", "name": "Medamahanuwara Divisional Hospital"}}, {"type": "node", "id": 2323963211, "lat": 7.2981194, "lon": 80.2301666, "tags": {"amenity": "hospital", "name": "Alawwa District Hospital"}}, {"type": "node", "id": 2334181719, "lat": 7.3077388, "lon": 80.7644417, "tags": {"amenity": "hospital", "name": "Teldeniya District Base Hospital"}}, {"type": "node", "id": 2335114652, "lat": 7.2942769, "lon": 80.7348435, "tags": {"amenity": "hospital", "name": "Digana"}}, {"type": "node", "id": 2338860270, "lat": 7.1773575, "lon": 80.4587191, "tags": {"amenity": "hospital", "name": "Aranayake Hospital"}}, {"type": "node", "id": 2340164320, "lat": 7.2510461, "lon": 80.4497877, "tags": {"addr:city": "Mawanella", "amenity": "hospital", "name": "OSRO Hospital"}}, {"type": "node", "id": 2340165236, "lat": 7.2536811, "lon": 80.4458988, "tags": {"addr:city": "Mawanella", "amenity": "hospital", "comment": "no helipad", "emergency": "yes", "healthcare": "hospital", "name": "Base Hospital Mawanella"}}, {"type": "node", "id": 2342937786, "lat": 7.2714146, "lon": 80.7070344, "tags": {"amenity": "hospital", "emergency": "no", "healthcare": "alternative", "healthcare:speciality": "ayurveda", "name": "Pallekele Ayurveda Hospital"}}, {"type": "node", "id": 2343111695, "lat": 7.298646, "lon": 80.6676499, "tags": {"amenity": "hospital", "healthcare": "hospital", "name": "Yakghapitiya Divisional Hospital"}}, {"type": "node", "id": 2370163010, "lat": 6.0378367, "lon": 80.391441, "tags": {"amenity": "hospital", "name": "Imaduwa Hospital"}}, {"type": "node", "id": 2388337545, "lat": 7.2511826, "lon": 80.6893614, "tags": {"amenity": "hospital", "name": "Thalathuoya Hospital"}}, {"type": "node", "id": 2410576900, "lat": 8.7483331, "lon": 80.4940509, "tags": {"amenity": "hospital", "name": "Abisha Hospital"}}, {"type": "node", "id": 2426388316, "lat": 6.741412, "lon": 80.162144, "tags": {"amenity": "hospital", "healthcare": "hospital", "name": "Ingiriya District Hospital"}}, {"type": "node", "id": 2524559604, "lat": 6.9381972, "lon": 80.8904325, "tags": {"amenity": "hospital", "name": "District Hospitel Uva-Paranagama"}}, {"type": "node", "id": 2558644076, "lat": 7.2918223, "lon": 80.1857597, "tags": {"amenity": "hospital", "name": "Thalwaththa Hospital"}}, {"type": "node", "id": 2559270088, "lat": 7.3372132, "lon": 80.1779798, "tags": {"amenity": "hospital", "name": "Public Dispensary"}}, {"type": "node", "id": 2610271942, "lat": 6.3023047, "lon": 80.249527, "tags": {"amenity": "hospital", "healthcare": "hospital", "name": "Primary Health Care Centre"}}, {"type": "node", "id": 2610318045, "lat": 6.2882861, "lon": 80.4016012, "tags": {"amenity": "hospital", "name": "Rural Hospital"}}, {"type": "node", "id": 2610405672, "lat": 6.2343884, "lon": 80.8800558, "tags": {"amenity": "hospital", "name": "Rural Hospital"}}, {"type": "node", "id": 2739101635, "lat": 9.315524, "lon": 80.7045806, "tags": {"amenity": "hospital", "emergency": "no", "name": "Base Hospital - Puthukudrippu", "source": "http://www.panoramio.com/photo/118529201"}}, {"type": "node", "id": 2739103173, "lat": 9.3217334, "lon": 80.702062, "tags": {"amenity": "hospital"}}, {"type": "node", "id": 2828331566, "lat": 7.266579, "lon": 80.599262, "tags": {"amenity": "hospital", "name": "Peradeniya Dental Hospital"}}, {"type": "node", "id": 2831618989, "lat": 7.9476358, "lon": 81.2458432, "tags": {"amenity": "hospital", "name": "Welikanda"}}, {"type": "node", "id": 2831625523, "lat": 7.5661087, "lon": 81.0416685, "tags": {"amenity": "hospital", "name": "Ayurveda Central Hospital"}}, {"type": "node", "id": 2900426653, "lat": 6.2390668, "lon": 80.0544144, "tags": {"addr:city": "Ambalangoda", "addr:street": "Ambalangoda -Batapola Road", "amenity": "hospital", "healthcare": "hospital", "name": "Roseth Hospital"}}, {"type": "node", "id": 2901379801, "lat": 6.6821753, "lon": 80.4034419, "tags": {"addr:city": "Rathnapura", "addr:street": "Inner Circular Road", "amenity": "hospital", "name": "Aloka Hospital"}}, {"type": "node", "id": 2901418998, "lat": 6.6909091, "lon": 80.3944372, "tags": {"addr:city": "Rathnapura", "addr:street": "Colombo - Ratnapura Road", "amenity": "hospital", "healthcare": "hospital", "name": "Singhe Hospital", "website": "https://www.singhehospital.com/"}}, {"type": "node", "id": 2902312873, "lat": 6.0084654, "lon": 80.5007265, "tags": {"amenity": "hospital", "name": "Akkurugoda MOH"}}, {"type": "node", "id": 2905118777, "lat": 6.9020699, "lon": 80.920467, "tags": {"amenity": "hospital", "emergency": "no", "name": "ayurweda hospital"}}, {"type": "node", "id": 2910213594, "lat": 6.2934953, "lon": 80.0413396, "tags": {"amenity": "hospital", "healthcare": "hospital"}}, {"type": "node", "id": 2910216436, "lat": 8.3265775, "lon": 80.4113074, "tags": {"amenity": "hospital", "emergency": "yes", "healthcare": "hospital", "name": "Aurvedic Center"}}, {"type": "node", "id": 2913891490, "lat": 7.2135973, "lon": 80.5928891, "tags": {"amenity": "hospital"}}, {"type": "node", "id": 2915434805, "lat": 6.9090322, "lon": 80.9087119, "tags": {"amenity": "hospital", "emergency": "yes", "name": "Welimada Base Hospital", "source": "survey"}}, {"type": "node", "id": 2921319349, "lat": 6.1614238, "lon": 80.1804779, "tags": {"amenity": "hospital", "designation": "Government", "emergency": "yes", "name": "Baddegama Hospital"}}, {"type": "node", "id": 2980887901, "lat": 6.3256369, "lon": 80.8433486, "tags": {"addr:city": "Embilipitiya", "addr:housenumber": "14", "addr:street": "Hospital Road", "amenity": "hospital", "name": "Indika Pharmacy"}}, {"type": "node", "id": 3031566819, "lat": 7.0324364, "lon": 80.100181, "tags": {"addr:street": "Weliweriya-Kirindiwela Road", "amenity": "hospital", "name": "Radawana Divisional Hospital"}}, {"type": "node", "id": 3090091975, "lat": 6.8482459, "lon": 80.2643708, "tags": {"addr:city": "Eheliyagoda", "amenity": "hospital", "name": "Base Hospital"}}, {"type": "node", "id": 3098340244, "lat": 5.9541051, "lon": 80.5250197, "tags": {"amenity": "hospital", "name": "bsr"}}, {"type": "node", "id": 3145014128, "lat": 6.4252834, "lon": 80.8162356, "tags": {"addr:city": "Udawalawe", "amenity": "hospital", "name": "Udawalawe Rural Hospital"}}, {"type": "node", "id": 3147175363, "lat": 6.3310635, "lon": 80.8575621, "tags": {"addr:city": "Embilipitiya", "amenity": "hospital", "healthcare": "hospital", "name": "Green Medicare Hospital"}}, {"type": "node", "id": 3154127034, "lat": 6.8881022, "lon": 80.2723446, "tags": {"amenity": "hospital", "name": "Panawala Ayurveda Hospital"}}, {"type": "node", "id": 3213933933, "lat": 7.4404367, "lon": 80.5701698, "tags": {"addr:city": "Ankumbura", "amenity": "hospital", "name": "Ankumbura Divitional Hospital"}}, {"type": "node", "id": 3215354223, "lat": 7.0528085, "lon": 80.5352495, "tags": {"addr:city": "Nawalapitiya", "addr:street": "Nawalapitiya - Dimbula Road", "amenity": "hospital", "name": "District General Hospital"}}, {"type": "node", "id": 3220016706, "lat": 7.2474986, "lon": 80.345705, "tags": {"addr:city": "Kegalle", "addr:housename": "Teaching Hospital Kegalle", "amenity": "hospital", "designation": "Teaching Hospital Kegalle", "emergency": "yes", "name": "Teaching Hospital Kegalle"}}, {"type": "node", "id": 3331326390, "lat": 7.4174236, "lon": 81.8074135, "tags": {"addr:city": "Kalmunai", "amenity": "hospital", "name": "Chenaikudiruppu Base Hospital"}}, {"type": "node", "id": 3331351770, "lat": 7.4327928, "lon": 81.8111066, "tags": {"addr:city": "Maruthamunai", "amenity": "hospital", "name": "Divisional Hospital"}}, {"type": "node", "id": 3333281914, "lat": 7.4667411, "lon": 81.8116993, "tags": {"addr:city": "Periyakallar", "amenity": "hospital", "name": "Base Hospital", "name:en": "Divisional Hospital"}}, {"type": "node", "id": 3377388729, "lat": 6.0227057, "lon": 80.796872, "tags": {"addr:city": "Tangalle", "amenity": "hospital", "name": "Base Hospital"}}, {"type": "node", "id": 3455205573, "lat": 5.948234, "lon": 80.5466443, "tags": {"addr:city": "Matara", "addr:street": "Sri Karathota nahimi Mawath", "amenity": "hospital", "name": "Mohotti Private Hostpital"}}, {"type": "node", "id": 3455219378, "lat": 5.9487624, "lon": 80.5385787, "tags": {"addr:city": "Matara", "addr:street": "Anagarika Dharmapala Mawatha", "amenity": "hospital", "name": "Asiri Hospital (PVT)"}}, {"type": "node", "id": 3521708167, "lat": 6.5757017, "lon": 80.1581676, "tags": {"amenity": "hospital", "emergency": "yes", "name": "Pimbura Distric Hospital"}}, {"type": "node", "id": 3537669661, "lat": 7.1212801, "lon": 80.0260558, "tags": {"amenity": "hospital", "name": "Bemmulla Clinic"}}, {"type": "node", "id": 3590070473, "lat": 5.9509878, "lon": 80.4959268, "tags": {"amenity": "hospital", "name": "Medagoda"}}, {"type": "node", "id": 3590215199, "lat": 7.0785193, "lon": 80.8925778, "tags": {"amenity": "hospital", "name": "Nildandahinna Genaral Hospital"}}, {"type": "node", "id": 3633843118, "lat": 6.2018314, "lon": 80.5919817, "tags": {"amenity": "hospital", "name": "Mawarala Hospital"}}, {"type": "node", "id": 3634924475, "lat": 7.6308071, "lon": 81.0283613, "tags": {"amenity": "hospital", "name": "Central Dispensary"}}, {"type": "node", "id": 3665944325, "lat": 8.6591013, "lon": 80.312435, "tags": {"amenity": "hospital", "name": "Chettikulam Hospital"}}, {"type": "node", "id": 3699456580, "lat": 6.1652567, "lon": 80.8997815, "tags": {"amenity": "hospital", "name": "Angunukolapeless"}}, {"type": "node", "id": 3727831288, "lat": 6.036438, "lon": 80.2165098, "tags": {"amenity": "hospital", "healthcare": "hospital", "name": "Thasim Chest Clinic"}}, {"type": "node", "id": 3729663235, "lat": 7.3124054, "lon": 80.6321242, "tags": {"amenity": "hospital", "name": "Kandy Private Hospital", "wheelchair": "yes"}}, {"type": "node", "id": 3753926197, "lat": 7.0819686, "lon": 80.4712432, "tags": {"addr:city": "Dolosbage", "addr:street": "Gampola-Dolosbage Road", "amenity": "hospital", "name": "Dolosbage Divisional Hospital"}}, {"type": "node", "id": 3765219866, "lat": 8.7524912, "lon": 80.3671949, "tags": {"amenity": "hospital", "name": "Poovarasankulam Divisional Hospital"}}, {"type": "node", "id": 3769921344, "lat": 6.1450937, "lon": 80.765182, "tags": {"addr:city": "Weeraketiya", "addr:street": "Tangalle - Weeraketiya Road", "amenity": "hospital", "name": "Hospital"}}, {"type": "node", "id": 3770559783, "lat": 6.0884432, "lon": 80.7437221, "tags": {"amenity": "hospital"}}, {"type": "node", "id": 3778409802, "lat": 7.0661314, "lon": 81.0529372, "tags": {"amenity": "hospital", "name": "Aurvedic Dispensary"}}, {"type": "node", "id": 3798153917, "lat": 7.1612264, "lon": 80.6047234, "tags": {"amenity": "hospital", "name": "Kahawatte Rural Hospital"}}, {"type": "node", "id": 3801578860, "lat": 8.6794289, "lon": 80.5266415, "tags": {"amenity": "hospital", "ele": "120", "name": "Divisional Hospital - Sithaparapuram"}}, {"type": "node", "id": 3822963761, "lat": 7.6694499, "lon": 81.0469431, "tags": {"amenity": "hospital", "name": "New City Channeling Centre"}}, {"type": "node", "id": 3842184774, "lat": 7.0532237, "lon": 80.3289831, "tags": {"amenity": "hospital", "name": "gampaha"}}, {"type": "node", "id": 3865839230, "lat": 9.6712073, "lon": 80.0215101, "tags": {"amenity": "hospital", "healthcare": "hospital", "name": "Sugantha Nursing Home"}}, {"type": "node", "id": 3867347215, "lat": 8.0919436, "lon": 80.4706225, "tags": {"amenity": "hospital", "name": "Senapura (Kagama) Rural Hospital", "phone": "025 2 245162"}}, {"type": "node", "id": 3874862041, "lat": 6.8312378, "lon": 80.8807052, "tags": {"amenity": "hospital", "name": "Rural Ayurvedic Hospital"}}, {"type": "node", "id": 3880396357, "lat": 6.9779048, "lon": 80.7656051, "tags": {"amenity": "hospital", "healthcare": "hospital", "name": "Co-operative Hospital"}}, {"type": "node", "id": 3880398627, "lat": 6.974379, "lon": 80.7673681, "tags": {"amenity": "hospital", "healthcare": "hospital", "name": "Medisi Channel Centre"}}, {"type": "node", "id": 3889586527, "lat": 7.4332264, "lon": 80.1354938, "tags": {"amenity": "hospital", "name": "Rukkasagara Ayuruwedic hospital", "operator": "Department of health"}}, {"type": "node", "id": 3907647596, "lat": 6.9904156, "lon": 81.052442, "tags": {"amenity": "hospital", "name": "NTS Badulla"}}, {"type": "node", "id": 3918017664, "lat": 7.0219408, "lon": 80.009878, "tags": {"amenity": "hospital", "name": "ayurvedic hospital"}}, {"type": "node", "id": 3925585410, "lat": 6.2491338, "lon": 80.0625085, "tags": {"amenity": "hospital", "healthcare": "hospital", "name": "Ambalangoda Districut Hospital"}}, {"type": "node", "id": 3926600649, "lat": 9.1280175, "lon": 80.4470247, "tags": {"amenity": "hospital", "name": "Mankulam Base Hospital", "operator": "Ministry of Health"}}, {"type": "node", "id": 3926651395, "lat": 6.2384053, "lon": 80.0540939, "tags": {"amenity": "hospital", "healthcare": "hospital", "name": "Hemas Hospital Laboratory"}}, {"type": "node", "id": 3926842867, "lat": 8.9646044, "lon": 80.5258698, "tags": {"addr:city": "Puliyankulam", "addr:district": "Vauniya", "amenity": "hospital", "dispensing": "yes", "name": "Puliyankulam Divisional Hospital"}}, {"type": "node", "id": 3926880521, "lat": 9.0537012, "lon": 80.6528729, "tags": {"addr:city": "Vavuniya", "addr:province": "Northern", "addr:suburb": "Nedunkerny", "amenity": "hospital", "emergency": "yes", "name": "Divisional Hospital - Nedunkerny", "name:ta": "\u0baa\u0bbf\u0bb0\u0ba4\u0bc7\u0b9a \u0bb5\u0bc8\u0ba4\u0bcd\u0ba4\u0bbf\u0baf\u0b9a\u0bbe\u0bb2\u0bc8 - \u0ba8\u0bc6\u0b9f\u0bc1\u0b99\u0bcd\u0b95\u0bc7\u0ba3\u0bbf"}}, {"type": "node", "id": 3931996584, "lat": 8.7605684, "lon": 80.4388746, "tags": {"amenity": "hospital", "emergency": "no", "name": "Auyuvedic Hospital Vavuniya "}}, {"type": "node", "id": 3958960457, "lat": 9.6146574, "lon": 80.3254895, "tags": {"amenity": "hospital", "name": "Divisional Hospital Pallai"}}, {"type": "node", "id": 3967289227, "lat": 8.7059888, "lon": 80.4209895, "tags": {"amenity": "hospital", "name": "Pavatkulam Divisional Hospital", "name:ta": "\u0baa\u0bbe\u0bb5\u0bb1\u0bcd\u0b95\u0bc1\u0bb3\u0bae\u0bcd \u0baa\u0bbf\u0bb0\u0ba4\u0bc7\u0b9a \u0bb5\u0bc8\u0ba4\u0bcd\u0ba4\u0bbf\u0baf\u0b9a\u0bbe\u0bb2\u0bc8"}}, {"type": "node", "id": 3983331257, "lat": 8.6016568, "lon": 80.3701343, "tags": {"amenity": "hospital", "name": "Neriyakulam Divisional Hospital", "name:ta": "\u0ba8\u0bc7\u0bb0\u0bbf\u0baf\u0b95\u0bc1\u0bb3\u0bae\u0bcd \u0baa\u0bbf\u0bb0\u0ba4\u0bc7\u0b9a \u0bb5\u0bc8\u0ba4\u0bcd\u0ba4\u0bbf\u0baf \u0b9a\u0bbe\u0bb2\u0bc8"}}, {"type": "node", "id": 3992483614, "lat": 7.2498267, "lon": 81.7135553, "tags": {"amenity": "hospital", "name": "Divisional Hospital"}}, {"type": "node", "id": 4039495741, "lat": 7.3463532, "lon": 80.705658, "tags": {"addr:city": "Kundasale", "addr:street": "Katugastota-Bambarella Road", "amenity": "hospital", "name": "Makkanigama Hospital"}}, {"type": "node", "id": 4045200420, "lat": 6.5786992, "lon": 80.575266, "tags": {"addr:city": "Kahawatta", "addr:street": "Pelmadulla - Embilipitiya - Nonagama Highway", "amenity": "hospital", "name": "Base Hospital"}}, {"type": "node", "id": 4045295751, "lat": 6.5018627, "lon": 80.65651, "tags": {"addr:city": "Godakawela", "addr:street": "Rathnapura - Embilipitiya Road", "amenity": "hospital", "name": "District Hospital"}}, {"type": "node", "id": 4045303043, "lat": 6.4715878, "lon": 80.614724, "tags": {"addr:city": "Rakwana", "addr:street": "Bulutota Road", "amenity": "hospital", "name": "Rakwana District Hospital"}}, {"type": "node", "id": 4068054466, "lat": 7.2895042, "lon": 80.5133213, "tags": {"amenity": "hospital", "name": "Kotaligoda Hospital"}}, {"type": "node", "id": 4080128395, "lat": 9.4101913, "lon": 80.5174503, "tags": {"amenity": "hospital", "name": "Divisional Hospital Tharmapuram", "name:ta": "\u0baa\u0bbf\u0bb0\u0ba4\u0bc7\u0b9a \u0bb5\u0bc8\u0ba4\u0bcd\u0ba4\u0bbf\u0baf\u0b9a\u0bbe\u0bb2\u0bc8 \u0ba4\u0bb0\u0bc1\u0bae\u0baa\u0bc1\u0bb0\u0bae\u0bcd"}}, {"type": "node", "id": 4089673111, "lat": 7.2819521, "lon": 80.6215994, "tags": {"addr:city": "Kandy", "addr:street": "Colombo-Kandy Road", "amenity": "hospital", "name": "Suwasewana Hospital"}}, {"type": "node", "id": 4109862321, "lat": 9.6613214, "lon": 80.1681377, "tags": {"amenity": "hospital", "healthcare": "hospital", "name": "Ever Green Hospital Pvt Ltd"}}, {"type": "node", "id": 4124124130, "lat": 9.1627819, "lon": 80.6604767, "tags": {"addr:city": "Oddusuddan", "amenity": "hospital", "name": "Divisional Hospital Oddusuddan"}}, {"type": "node", "id": 4178027149, "lat": 9.5074244, "lon": 80.2080776, "tags": {"amenity": "hospital", "name": "Poonakary Divisional Hospital"}}, {"type": "node", "id": 4235158961, "lat": 6.2451002, "lon": 80.2678824, "tags": {"amenity": "hospital", "healthcare": "hospital", "name": "Gallinda Base Hospital", "name:si": "\u0d9c\u0dbd\u0dca\u0dbd\u0dd2\u0db3 \u0db8\u0dd4\u0dbd\u0dd2\u0d9a \u0dbb\u0ddd\u0dc4\u0dbd"}}, {"type": "node", "id": 4254145900, "lat": 8.6814799, "lon": 81.1929629, "tags": {"addr:city": "Nilaveli", "amenity": "hospital", "name": "Divisional Hospital"}}, {"type": "node", "id": 4265986683, "lat": 7.4693747, "lon": 81.0190559, "tags": {"amenity": "hospital", "name": "Girandurukotte Hospital"}}, {"type": "node", "id": 4271220164, "lat": 7.6532267, "lon": 80.3790486, "tags": {"amenity": "hospital", "name": "hiripitiya"}}, {"type": "node", "id": 4322762450, "lat": 9.744428, "lon": 80.1074921, "tags": {"amenity": "hospital", "name": "Primary Medical Care Unit (PMCU) Puttur", "operator": "Ministry of Health"}}, {"type": "node", "id": 4350798591, "lat": 7.126219, "lon": 80.111786, "tags": {"amenity": "hospital", "name": "Bandaranayake Private Hospital", "phone": "0332282296"}}, {"type": "node", "id": 4355198590, "lat": 9.3117868, "lon": 80.3148952, "tags": {"addr:city": "Akkarayankulam", "amenity": "hospital", "name": "Divisional Hospital Akkarayankulam", "name:ta": "\u0baa\u0bbf\u0bb0\u0ba4\u0bc7\u0b9a \u0bb5\u0bc8\u0ba4\u0bcd\u0ba4\u0bbf\u0baf\u0b9a\u0bbe\u0bb2\u0bc8- \u0b85\u0b95\u0bcd\u0b95\u0bb0\u0bbe\u0baf\u0ba9\u0bcd\u0b95\u0bc1\u0bb3\u0bae\u0bcd"}}, {"type": "node", "id": 4355292191, "lat": 9.2436926, "lon": 80.1428799, "tags": {"addr:city": "Mulankavil", "amenity": "hospital", "name": "Base Hospital Mulankavil"}}, {"type": "node", "id": 4355324065, "lat": 9.3929259, "lon": 80.3582977, "tags": {"amenity": "hospital", "name": "Divisional Hospital, Urthipuram", "name:ta": "\u0baa\u0bbf\u0bb0\u0ba4\u0bc7\u0b9a \u0bb5\u0bc8\u0ba4\u0bcd\u0ba4\u0bbf\u0baf\u0b9a\u0bbe\u0bb2\u0bc8 - \u0b89\u0bb0\u0bc1\u0ba4\u0bcd\u0ba4\u0bbf\u0bb0\u0baa\u0bc1\u0bb0\u0bae\u0bcd"}}, {"type": "node", "id": 4361510689, "lat": 6.0202465, "lon": 80.2475954, "tags": {"amenity": "hospital"}}, {"type": "node", "id": 4362941945, "lat": 9.6220356, "lon": 80.3968237, "tags": {"amenity": "hospital", "name": "Divisional Hospital - Maruthankerny", "name:ta": "\u0baa\u0bbf\u0bb0\u0ba4\u0bc7\u0b9a \u0bb5\u0bc8\u0ba4\u0bcd\u0ba4\u0bbf\u0baf\u0b9a\u0bbe\u0bb2\u0bc8 - \u0bae\u0bb0\u0bc1\u0ba4\u0b99\u0bcd\u0b95\u0bc7\u0ba3\u0bbf"}}, {"type": "node", "id": 4370700755, "lat": 9.7743309, "lon": 80.0311803, "tags": {"amenity": "hospital", "healthcare": "hospital", "name": "Tellipalai Co-operative Hospital", "name:en": "Co-operative Hospital"}}, {"type": "node", "id": 4373836089, "lat": 7.2919632, "lon": 81.6758569, "tags": {"amenity": "hospital", "name:en": "Prabodha Hospital"}}, {"type": "node", "id": 4374453492, "lat": 9.8019129, "lon": 80.2059903, "tags": {"amenity": "hospital", "healthcare": "hospital", "name:en": "Rubhins Hospital"}}, {"type": "node", "id": 4395603151, "lat": 9.7727802, "lon": 80.1154777, "tags": {"amenity": "hospital", "healthcare": "hospital", "name": "Divisional Hospital - Atchuvely", "name:ta": "\u0baa\u0bbf\u0bb0\u0ba4\u0bc7\u0b9a \u0bb5\u0bc8\u0ba4\u0bcd\u0ba4\u0bbf\u0baf\u0b9a\u0bbe\u0bb2\u0bc8 \u0b85\u0b9a\u0bcd\u0b9a\u0bc1\u0bb5\u0bc7\u0bb2\u0bbf"}}, {"type": "node", "id": 4405229473, "lat": 9.0109302, "lon": 80.0655415, "tags": {"amenity": "hospital", "name": "Divisional Hospital Vidathalthivu", "name:ta": "\u0baa\u0bbf\u0bb0\u0ba4\u0bc7\u0b9a \u0bb5\u0bc8\u0ba4\u0bcd\u0ba4\u0bbf\u0baf\u0b9a\u0bbe\u0bb2\u0bc8 \u0bb5\u0bbf\u0b9f\u0ba4\u0bcd\u0ba4\u0bb2\u0bcd\u0ba4\u0bc0\u0bb5\u0bc1"}}, {"type": "node", "id": 4405536098, "lat": 7.4142948, "lon": 80.9369035, "tags": {"addr:street": "Batumula Rd", "amenity": "hospital", "name": "Batumulla Divisional Hospital"}}, {"type": "node", "id": 4405856550, "lat": 8.8366766, "lon": 80.0378205, "tags": {"amenity": "hospital", "name": "Divisional Hospital Murunkan"}}, {"type": "node", "id": 4428987893, "lat": 7.3436413, "lon": 80.7319772, "tags": {"amenity": "hospital", "name": "Narampanawa Government Hospital"}}, {"type": "node", "id": 4430211089, "lat": 7.062514, "lon": 80.6854689, "tags": {"amenity": "hospital", "healthcare": "hospital", "name": "Divisional Hospital Kothmale"}}, {"type": "node", "id": 4438936190, "lat": 9.7320752, "lon": 80.0068443, "tags": {"amenity": "hospital", "name": "Primary Medical Care Unit (PMCU) Uduvil", "name:en": "Primary Medical Care Unit (PMCU) Uduvil", "operator": "Government of Sri Lanka", "phone": "094213001224"}}, {"type": "node", "id": 4443856594, "lat": 6.794878, "lon": 80.6784721, "tags": {"addr:city": "Bogawantalawa", "addr:street": "Norwood-Bogawantalawa Road", "amenity": "hospital", "name": "Divisional Hospital Bogawanthalawa"}}, {"type": "node", "id": 4443922076, "lat": 6.8701143, "lon": 80.6852925, "tags": {"amenity": "hospital", "name": "Agarapatana Divisional Hospital"}}, {"type": "node", "id": 4448911930, "lat": 9.6525893, "lon": 80.0195767, "tags": {"amenity": "hospital", "healthcare": "hospital", "name": "Divisional Hospital Gurunagar", "operator": "Ministry of Health, Nutrition and Indigenous Medicine", "operator:wikidata": "Q16147207"}}, {"type": "node", "id": 4449065628, "lat": 9.7932917, "lon": 80.2038454, "tags": {"amenity": "hospital", "emergency": "no", "healthcare": "hospital", "operator": "Ministry of Health"}}, {"type": "node", "id": 4449392003, "lat": 9.8234617, "lon": 80.2385715, "tags": {"amenity": "hospital", "emergency": "no", "healthcare": "hospital", "name": "Primary Medical Care Unit Point Pedro", "operator": "Ministry of Health", "short_name": "PMCU Point Pedro"}}, {"type": "node", "id": 4451031394, "lat": 9.6778861, "lon": 80.2366658, "tags": {"amenity": "hospital", "emergency": "yes", "operator": "Ministry of Health", "phone": "+94213213619"}}, {"type": "node", "id": 4451051809, "lat": 9.7295995, "lon": 80.2261638, "tags": {"amenity": "hospital", "name": "Divisional Hospital Varany", "operator": "Ministry of Health"}}, {"type": "node", "id": 4451163156, "lat": 9.7727859, "lon": 80.0636819, "tags": {"amenity": "hospital", "healthcare": "hospital", "name": "Primary Medical Care Unit (PMCU) Kurumpasiddy", "operator": "Ministry of Health"}}, {"type": "node", "id": 4451525458, "lat": 7.1162933, "lon": 80.6252466, "tags": {"amenity": "hospital", "name": "Pussellawa Hospital"}}, {"type": "node", "id": 4452191892, "lat": 9.6704278, "lon": 80.0941832, "tags": {"amenity": "hospital", "name": "Sidha Medicine Teaching Hospital", "operator": "Ministry of Health"}}, {"type": "node", "id": 4452191894, "lat": 9.6697389, "lon": 80.0904193, "tags": {"amenity": "hospital", "name": "Primary Medical Care Unit (PMCU) Kaithady", "operator": "Government of Sri Lanka"}}, {"type": "node", "id": 4452212068, "lat": 9.750513, "lon": 80.058077, "tags": {"amenity": "hospital", "name": "Primary Medical Care Unit (PMCU) Punnalaikadduvan", "operator": "Ministry of Health"}}, {"type": "node", "id": 4452212069, "lat": 9.7203939, "lon": 80.0459595, "tags": {"amenity": "hospital", "name": "Primary Medical Care Unit (PMCU) Urumpirai", "operator": "Ministry of Education"}}, {"type": "node", "id": 4454568727, "lat": 9.1346083, "lon": 80.3087492, "tags": {"amenity": "hospital", "name": "Base Hospital Mallavi", "name:ta": "\u0bae\u0bb2\u0bcd\u0bb2\u0bbe\u0bb5\u0bbf \u0b86\u0ba4\u0bbe\u0bb0 \u0bb5\u0bc8\u0ba4\u0bcd\u0ba4\u0bbf\u0baf\u0b9a\u0bbe\u0bb2\u0bc8"}}, {"type": "node", "id": 4469448559, "lat": 9.7165166, "lon": 80.0180701, "tags": {"amenity": "hospital", "name": "Primary Medical Care Unit (PMCU) Inuvil", "operator": "Ministry of Health"}}, {"type": "node", "id": 4481217105, "lat": 5.9483687, "lon": 80.6137895, "tags": {"amenity": "hospital", "name": "Rural Hospital"}}, {"type": "node", "id": 4515019298, "lat": 6.9062215, "lon": 81.5484357, "tags": {"amenity": "hospital"}}, {"type": "node", "id": 4547311821, "lat": 9.7061641, "lon": 80.0649518, "tags": {"amenity": "hospital"}}, {"type": "node", "id": 4631865301, "lat": 6.9767207, "lon": 80.117468, "tags": {"amenity": "hospital", "name": "Government Dispensery"}}, {"type": "node", "id": 4682730891, "lat": 6.1407286, "lon": 80.0994826, "tags": {"amenity": "hospital", "name:en": "Hikkaduwa clinic", "name:uk": "\u041b\u0456\u043a\u0430\u0440\u043d\u044f"}}, {"type": "node", "id": 4731459322, "lat": 8.8141025, "lon": 80.0231452, "tags": {"amenity": "hospital", "name:en": "\u0b8e\u0bb2\u0bc1\u0bae\u0bcd\u0baa\u0bc1 \u0bae\u0bc1\u0bb1\u0bbf\u0bb5\u0bc1 \u0b9a\u0bbf\u0b95\u0bbf\u0b9a\u0bcd\u0b9a\u0bc8 \u0ba8\u0bbf\u0bb2\u0bc8\u0baf\u0bae\u0bcd"}}, {"type": "node", "id": 4741171622, "lat": 7.4503257, "lon": 81.6278567, "tags": {"amenity": "hospital", "name:en": "District Hospital Senarathpura"}}, {"type": "node", "id": 4741177121, "lat": 7.29895, "lon": 81.6892025, "tags": {"amenity": "hospital", "name": "District General Hospital Ampara", "wikidata": "Q4748050"}}, {"type": "node", "id": 4833926653, "lat": 6.0365933, "lon": 80.2162355, "tags": {"addr:city": "Galle", "amenity": "hospital", "healthcare": "hospital", "name": "Car Park"}}, {"type": "node", "id": 4833926726, "lat": 6.9799565, "lon": 81.3750928, "tags": {"amenity": "hospital", "name": "Dambagalla rural hospital"}}, {"type": "node", "id": 4884211665, "lat": 6.0957342, "lon": 80.5647207, "tags": {"addr:city": "Andapana", "amenity": "hospital", "name": "Kamburupitiya Base Hospital"}}, {"type": "node", "id": 4885968676, "lat": 6.8961677, "lon": 80.8743927, "tags": {"amenity": "hospital", "name": "Keppetipola Dispensary"}}, {"type": "node", "id": 4890143149, "lat": 6.9905174, "lon": 80.4893267, "tags": {"amenity": "hospital", "name": "Ginigathhena Diivisional Hospital"}}, {"type": "node", "id": 4894390564, "lat": 6.422959, "lon": 80.8151802, "tags": {"amenity": "hospital", "name": "Udawalawa Government Hospital"}}, {"type": "node", "id": 4904980063, "lat": 8.2885862, "lon": 80.7170704, "tags": {"amenity": "hospital", "name": "Galenbindunuwewa Hospital"}}, {"type": "node", "id": 4907040922, "lat": 6.0507459, "lon": 80.7392932, "tags": {"amenity": "hospital", "name:en": "Base Hospital Beliatta"}}, {"type": "node", "id": 4910764095, "lat": 7.8741635, "lon": 80.6487466, "tags": {"addr:city": "Dambulla", "addr:street": "Kurunegala - Dambulla Road", "amenity": "hospital", "healthcare": "hospital", "name": "Dambulla Ayurveda Hospital"}}, {"type": "node", "id": 4921735461, "lat": 7.037552, "lon": 81.2009194, "tags": {"amenity": "hospital", "name": "Lunugala District Hospital"}}, {"type": "node", "id": 4936849273, "lat": 7.685545, "lon": 80.5770925, "tags": {"amenity": "hospital", "name": "Maadipola Hospital"}}, {"type": "node", "id": 4939070630, "lat": 7.1287805, "lon": 80.5313918, "tags": {"amenity": "hospital", "name": "Kurunduwaththa Divisional Hospital"}}, {"type": "node", "id": 4945471065, "lat": 7.6646097, "lon": 80.6368594, "tags": {"addr:city": "Nalanda", "addr:street": "Jaffna - Kandy Road", "amenity": "hospital", "name": "Nalanda Hospital"}}, {"type": "node", "id": 4946331206, "lat": 7.5403487, "lon": 80.9143335, "tags": {"amenity": "hospital", "name": "Wilgamuwa Divisional Hospital"}}, {"type": "node", "id": 4986424414, "lat": 7.5871219, "lon": 80.9575018, "tags": {"amenity": "hospital", "name": "Maraka Divisional Hospital"}}, {"type": "node", "id": 4993702022, "lat": 6.2677965, "lon": 80.6980836, "tags": {"amenity": "hospital", "name:en": "Government Hospital - Katuwana"}}, {"type": "node", "id": 4993702925, "lat": 6.2589936, "lon": 80.763909, "tags": {"amenity": "hospital", "name:en": "Government Hospital - Middeniya"}}, {"type": "node", "id": 5019110507, "lat": 6.954086, "lon": 80.20941, "tags": {"amenity": "hospital", "healthcare": "hospital", "name": "Gomez PVT Hospital"}}, {"type": "node", "id": 5030141284, "lat": 7.4715658, "lon": 80.9485962, "tags": {"addr:street": "Hettipola - Hasalaka Road", "amenity": "hospital", "name": "Divisional Hospital - Kolongoda"}}, {"type": "node", "id": 5124245208, "lat": 6.8295684, "lon": 80.8955211, "tags": {"amenity": "hospital", "emergency": "yes", "name": "Boralanda Base Hospital", "operator": "Government"}}, {"type": "node", "id": 5124245209, "lat": 6.8623086, "lon": 80.875676, "tags": {"amenity": "hospital", "emergency": "yes", "name": "Bogahakumbura Base Hospital", "operator": "Government"}}, {"type": "node", "id": 5138765246, "lat": 7.9417419, "lon": 80.7321821, "tags": {"addr:city": "Sigiriya", "addr:street": "Sigiriya Road", "addr:unit": "Kibissa", "amenity": "hospital", "name": "Sigiriya Base Hospital"}}, {"type": "node", "id": 5160601972, "lat": 7.4360985, "lon": 80.5736346, "tags": {"amenity": "hospital", "healthcare": "hospital", "name": "Ankumbura Ayurweda Dispensary"}}, {"type": "node", "id": 5173638392, "lat": 7.2910283, "lon": 80.6450197, "tags": {"amenity": "hospital", "healthcare": "hospital", "name": "Kandy Nursing Home"}}, {"type": "node", "id": 5176117555, "lat": 6.2131626, "lon": 80.0638204, "tags": {"addr:city": "Ambalangoda", "addr:street": "Aluthwala Road", "amenity": "hospital", "healthcare": "hospital", "name": "Madampagama Rural Hospital"}}, {"type": "node", "id": 5181352383, "lat": 7.3999425, "lon": 80.5788187, "tags": {"amenity": "hospital", "healthcare": "hospital", "name": "Godahena Rural Hospital"}}, {"type": "node", "id": 5185617923, "lat": 9.6664323, "lon": 80.0127075, "tags": {"addr:street": "Hospital Road", "amenity": "hospital", "healthcare": "hospital", "name:en": "Jaffna Teaching Hospital", "wikidata": "Q6121967"}}, {"type": "node", "id": 5217490656, "lat": 7.7878962, "lon": 81.1881513, "tags": {"amenity": "hospital", "name": "Aralaganwila Hospital"}}, {"type": "node", "id": 5219301101, "lat": 7.4612119, "lon": 80.58734, "tags": {"amenity": "hospital", "name": "Owilikanda Hospital"}}, {"type": "node", "id": 5226835391, "lat": 9.662776, "lon": 80.0240579, "tags": {"amenity": "hospital", "healthcare": "hospital"}}, {"type": "node", "id": 5226846898, "lat": 9.6627531, "lon": 80.0217624, "tags": {"amenity": "hospital", "healthcare": "hospital"}}, {"type": "node", "id": 5320624184, "lat": 7.3265329, "lon": 80.395554, "tags": {"amenity": "hospital", "healthcare": "hospital", "name": "Rambukkana Hospital"}}, {"type": "node", "id": 5356102193, "lat": 7.4403955, "lon": 80.4480207, "tags": {"amenity": "hospital", "name": "Mawathagama Divisional Hospital"}}, {"type": "node", "id": 5400935336, "lat": 7.2362993, "lon": 81.1082277, "tags": {"amenity": "hospital", "name": "Uraniya District Hospital"}}, {"type": "node", "id": 5435909721, "lat": 8.0384853, "lon": 80.7561797, "tags": {"amenity": "hospital", "name": "Habarana Divisional Hospital"}}, {"type": "node", "id": 5456012528, "lat": 7.357817, "lon": 80.5663665, "tags": {"amenity": "hospital", "name": "Medawala Divisional Hospital"}}, {"type": "node", "id": 5623747063, "lat": 7.915977, "lon": 81.5599545, "tags": {"amenity": "hospital", "healthcare": "hospital"}}, {"type": "node", "id": 5634795266, "lat": 7.0667315, "lon": 80.840092, "tags": {"amenity": "hospital", "healthcare": "hospital", "name": "High Forest Government Hospital"}}, {"type": "node", "id": 5661757672, "lat": 6.9847243, "lon": 81.1976713, "tags": {"amenity": "hospital", "name": "Hopton Hospital"}}, {"type": "node", "id": 5759109537, "lat": 7.8930667, "lon": 80.1129261, "tags": {"amenity": "hospital", "healthcare": "hospital"}}, {"type": "node", "id": 5803824055, "lat": 7.3191871, "lon": 80.8783298, "tags": {"amenity": "hospital", "name:en": "District Hospital- Udadumbara"}}, {"type": "node", "id": 5807374453, "lat": 7.3725053, "lon": 80.5245613, "tags": {"amenity": "hospital", "name:en": "District Hospital-Galagedara"}}, {"type": "node", "id": 5807374554, "lat": 7.3716547, "lon": 80.5251747, "tags": {"amenity": "hospital", "name:en": "Medical officer of Health Office- Galagedara"}}, {"type": "node", "id": 5907970351, "lat": 7.5336572, "lon": 80.1866005, "tags": {"amenity": "hospital", "name": "Katupotha Divisional Hospital"}}, {"type": "node", "id": 5968440712, "lat": 6.3327708, "lon": 80.3885883, "tags": {"amenity": "hospital", "name": "Hospital"}}, {"type": "node", "id": 5973240867, "lat": 7.3487704, "lon": 80.1376735, "tags": {"amenity": "hospital", "name": "Dambadeniya hospital"}}, {"type": "node", "id": 6066663511, "lat": 7.3258412, "lon": 80.5057539, "tags": {"amenity": "hospital", "name": "Primary Care Hospital"}}, {"type": "node", "id": 6183173991, "lat": 7.3427233, "lon": 80.4772566, "tags": {"addr:city": "Hataraliyadda", "addr:street": "Galagedara-Rambukkana Road", "amenity": "hospital", "healthcare": "hospital", "name": "Hatharaliyadda Divisional Hospital"}}, {"type": "node", "id": 6183183898, "lat": 7.3721084, "lon": 80.5243428, "tags": {"addr:city": "Galagedara", "addr:street": "Galagedara-Rambukkana Road", "amenity": "hospital", "healthcare": "hospital", "name": "District Hospital Galagedara"}}, {"type": "node", "id": 6184437040, "lat": 7.1205112, "lon": 80.9259072, "tags": {"amenity": "hospital", "name": "Theripehe Hospital"}}, {"type": "node", "id": 6185575100, "lat": 7.0537261, "lon": 80.9264195, "tags": {"amenity": "hospital", "name": "Madulla Dispensary"}}, {"type": "node", "id": 6236736780, "lat": 6.5701994, "lon": 80.0729245, "tags": {"amenity": "hospital", "name": "Wellatha Rural Hospital"}}, {"type": "node", "id": 6268756985, "lat": 7.770675, "lon": 80.5798523, "tags": {"amenity": "hospital", "name:en": "\u0dbd\u0dba \u0dc0\u0dd2\u0dbb\u0dda\u0d9a \u0db8\u0db0\u0dca\u200d\u0dba\u0dc3\u0dca\u0dae\u0dcf\u0db1\u0dba", "phone": "0662289279"}}, {"type": "node", "id": 6495229525, "lat": 6.3434554, "lon": 80.0784364, "tags": {"amenity": "hospital"}}, {"type": "node", "id": 6536295719, "lat": 6.9225061, "lon": 80.014342, "tags": {"amenity": "hospital", "name": "M D.H. Jayawardana Divisional Hospital Nawagamuwa"}}, {"type": "node", "id": 6542571795, "lat": 6.4831595, "lon": 80.7063831, "tags": {"amenity": "hospital", "name": "Pallebedda Divisional Hospital"}}, {"type": "node", "id": 6579895565, "lat": 7.133569, "lon": 80.4005349, "tags": {"addr:city": "Ganthuna", "addr:postcode": "71222", "addr:street": "Pallegama,", "amenity": "hospital", "description": "Government hospital with primary care unit", "emergency": "yes", "healthcare": "hospital", "name": "Divisional Hospital Ganthuna", "operator": "Government of Sri Lanka", "phone": "+94 35 3953558"}}, {"type": "node", "id": 6611417521, "lat": 7.291136, "lon": 80.64486, "tags": {"amenity": "hospital", "healthcare": "hospital", "name": "Kandy Nursing Home"}}, {"type": "node", "id": 6702869774, "lat": 6.9916573, "lon": 81.0524343, "tags": {"addr:city": "Badulla", "addr:street": "Badulla - Bandarawela Road", "amenity": "hospital", "healthcare": "hospital", "name": "Provincial General Hospital"}}, {"type": "node", "id": 6754747985, "lat": 7.2160191, "lon": 80.0113727, "tags": {"addr:street": "Minuwangoda-Diwulapitiya Road", "amenity": "hospital", "name:en": "Government Hospital"}}, {"type": "node", "id": 7159759462, "lat": 7.4994802, "lon": 80.3535125, "tags": {"amenity": "hospital", "healthcare": "hospital"}}, {"type": "node", "id": 7159813015, "lat": 6.1539661, "lon": 80.6010273, "tags": {"amenity": "hospital", "name": "deiyandara hospital"}}, {"type": "node", "id": 7205314153, "lat": 7.3980322, "lon": 80.7331905, "tags": {"amenity": "hospital", "name": "Madolkele Hospital"}}, {"type": "node", "id": 7265765513, "lat": 7.3809646, "lon": 80.5907241, "tags": {"amenity": "hospital", "healthcare": "hospital", "name": "MOH Office - Pujapitiya"}}, {"type": "node", "id": 7682218677, "lat": 6.6832054, "lon": 80.4017812, "tags": {"addr:city": "Rathnapura", "addr:street": "Inner Circular Road", "amenity": "hospital", "healthcare": "hospital", "name": "Corporative Channel Centre"}}, {"type": "node", "id": 7781439399, "lat": 6.3313532, "lon": 80.3223076, "tags": {"amenity": "hospital", "name": "Hiniduma Distric Hospital"}}, {"type": "node", "id": 7954026585, "lat": 6.9920018, "lon": 81.0515802, "tags": {"amenity": "hospital", "healthcare": "hospital", "name:en": "Provincial General Hospital"}}, {"type": "node", "id": 8326706066, "lat": 6.7185924, "lon": 80.0766541, "tags": {"amenity": "hospital", "healthcare": "hospital", "name": "ABC HOSPITAL"}}, {"type": "node", "id": 8380640537, "lat": 7.2797312, "lon": 80.6822248, "tags": {"amenity": "hospital", "healthcare": "hospital", "name": "Police Hospital - Kundasale"}}, {"type": "node", "id": 8393934616, "lat": 6.6893429, "lon": 80.3945651, "tags": {"amenity": "hospital", "healthcare": "hospital", "name": "Arya Hospital", "wheelchair": "yes"}}, {"type": "node", "id": 8400160771, "lat": 6.7111686, "lon": 80.378143, "tags": {"amenity": "hospital", "healthcare": "hospital", "name": "Sirimavo Bandaranayake Government Ayurvedic Hospital", "phone": "+94 45 222 8982"}}, {"type": "node", "id": 8595831008, "lat": 7.2734056, "lon": 80.5918036, "tags": {"addr:city": "Kandy", "addr:street": "Gannoruwa Road", "amenity": "hospital", "healthcare": "hospital", "name": "Suwasevana hospital"}}, {"type": "node", "id": 9399892407, "lat": 7.9977404, "lon": 80.1767677, "tags": {"amenity": "hospital", "healthcare": "hospital", "name": "Mahananneriya District Hospital"}}, {"type": "node", "id": 9400769331, "lat": 7.9168413, "lon": 80.2420581, "tags": {"amenity": "hospital", "healthcare": "hospital", "name": "Divisional Hospital Ambanpola"}}, {"type": "node", "id": 9448962251, "lat": 7.3127506, "lon": 80.7048663, "tags": {"amenity": "hospital", "name": "Divisional Hospital"}}, {"type": "node", "id": 9740549811, "lat": 6.8255699, "lon": 80.5214882, "tags": {"amenity": "hospital", "healthcare": "hospital", "name": "old hospital"}}, {"type": "node", "id": 9767295827, "lat": 8.3514924, "lon": 81.2857616, "tags": {"amenity": "hospital", "name": "Ayurvedic Hospital,Kiliveddy"}}, {"type": "node", "id": 9769345590, "lat": 7.4494282, "lon": 80.6796789, "tags": {"amenity": "hospital", "name": "Kandenuwara General  Hospital"}}, {"type": "node", "id": 9771132582, "lat": 7.2898434, "lon": 80.8151441, "tags": {"amenity": "hospital", "name": "Medamahanuwara Divisional Hospital"}}, {"type": "node", "id": 9771162663, "lat": 7.5184272, "lon": 80.6767853, "tags": {"addr:city": "Rattota", "addr:postcode": "21400", "addr:street": "Matale - Rattota - Pallegama Road", "amenity": "hospital", "emergency": "yes", "healthcare:speciality": "general", "name": "Rattota Divisional Hospital"}}, {"type": "node", "id": 9771220747, "lat": 7.7983392, "lon": 81.5809241, "tags": {"amenity": "hospital", "healthcare": "hospital", "name": "University Hospital"}}, {"type": "node", "id": 9771625020, "lat": 7.9094977, "lon": 81.5338311, "tags": {"amenity": "hospital", "healthcare": "hospital", "name": "Valaichenai Base Hospital"}}, {"type": "node", "id": 9776389408, "lat": 6.8742319, "lon": 80.6036836, "tags": {"amenity": "hospital"}}, {"type": "node", "id": 9776389411, "lat": 6.873497, "lon": 80.6048791, "tags": {"amenity": "hospital"}}, {"type": "node", "id": 9776850058, "lat": 6.8896731, "lon": 80.5984059, "tags": {"amenity": "hospital", "healthcare": "hospital"}}, {"type": "node", "id": 9776850064, "lat": 6.8883361, "lon": 80.5974926, "tags": {"amenity": "hospital", "healthcare": "hospital"}}, {"type": "node", "id": 9777000034, "lat": 6.8897109, "lon": 80.5972337, "tags": {"amenity": "hospital"}}, {"type": "node", "id": 9779584112, "lat": 9.7057632, "lon": 80.0301377, "tags": {"amenity": "hospital", "healthcare": "hospital", "name": "HOSPITAL  GROUND"}}, {"type": "node", "id": 9779584113, "lat": 9.7058645, "lon": 80.0298504, "tags": {"amenity": "hospital", "healthcare": "hospital", "name": "MOH office", "operator": "Ministry of Health, Nutrition and Indigenous Medicine", "operator:wikidata": "Q16147207"}}, {"type": "node", "id": 9779628035, "lat": 9.7046081, "lon": 80.0311879, "tags": {"amenity": "hospital", "healthcare": "hospital"}}, {"type": "node", "id": 9780882305, "lat": 9.7054013, "lon": 80.0299246, "tags": {"amenity": "hospital", "healthcare": "hospital", "operator": "Ministry of Health, Nutrition and Indigenous Medicine", "operator:wikidata": "Q16147207"}}, {"type": "node", "id": 9780882306, "lat": 9.7057787, "lon": 80.0301429, "tags": {"amenity": "hospital", "healthcare": "hospital"}}, {"type": "node", "id": 9780882309, "lat": 9.7059054, "lon": 80.0298406, "tags": {"amenity": "hospital", "healthcare": "hospital", "operator": "Ministry of Health, Nutrition and Indigenous Medicine", "operator:wikidata": "Q16147207"}}, {"type": "node", "id": 9780989140, "lat": 9.7058375, "lon": 80.0301482, "tags": {"amenity": "hospital", "healthcare": "hospital"}}, {"type": "node", "id": 9785764862, "lat": 6.9333693, "lon": 80.9250417, "tags": {"amenity": "hospital", "name": "Downside Divisonal Hospital"}}, {"type": "node", "id": 9793173329, "lat": 6.8938109, "lon": 80.869818, "tags": {"amenity": "hospital", "name": "Weerasekara Aurwedha medical Center"}}, {"type": "node", "id": 9970637901, "lat": 7.1547138, "lon": 80.5700934, "tags": {"amenity": "hospital", "healthcare": "hospital", "name": "Pat care Animal Hospital"}}, {"type": "node", "id": 9972579478, "lat": 7.1553422, "lon": 80.5656001, "tags": {"amenity": "hospital", "healthcare": "hospital", "name": "Lanka Medical"}}, {"type": "node", "id": 9991604797, "lat": 7.0834698, "lon": 80.8938924, "tags": {"addr:city": "Nildandahinna", "addr:postcode": "22280", "addr:street": "Morangahathenna Road", "amenity": "hospital", "healthcare": "hospital", "healthcare:speciality": "general", "name": "Ayurweda Hospital Nildandahinna", "not:operator:wikidata": "Q16147207", "operator": "Ministry of Health", "operator:type": "government"}}, {"type": "node", "id": 10030668800, "lat": 6.6253422, "lon": 80.0668767, "tags": {"amenity": "hospital", "healthcare": "hospital"}}, {"type": "node", "id": 10030733044, "lat": 6.6137155, "lon": 80.088663, "tags": {"amenity": "hospital", "healthcare": "hospital"}}, {"type": "node", "id": 10139130307, "lat": 6.9436652, "lon": 80.7397239, "tags": {"amenity": "hospital", "healthcare": "hospital", "name": "GLASSUGH A.A.DIVISION HOSPITAL"}}, {"type": "node", "id": 10139139602, "lat": 6.942405, "lon": 80.7444972, "tags": {"amenity": "hospital", "healthcare": "hospital", "name": "NANUOYA HOSPITAL"}}, {"type": "node", "id": 10150959135, "lat": 6.6311352, "lon": 80.0679552, "tags": {"amenity": "hospital", "healthcare": "hospital"}}, {"type": "node", "id": 10155823625, "lat": 8.4812833, "lon": 81.2925642, "tags": {"amenity": "hospital", "healthcare": "hospital", "name": "Sampur"}}, {"type": "node", "id": 10162146096, "lat": 7.3929, "lon": 80.5532062, "tags": {"amenity": "hospital", "name": "bokkawala"}}, {"type": "node", "id": 10243221102, "lat": 6.8779492, "lon": 81.7179159, "tags": {"amenity": "hospital", "healthcare": "hospital", "name": "Divisional Hospital - Lahugala", "operator": "Ministry of Health, Nutrition and Indigenous Medicine", "operator:type": "government", "operator:wikidata": "Q16147207"}}, {"type": "node", "id": 10578445503, "lat": 7.2544273, "lon": 80.4451963, "tags": {"amenity": "hospital", "name": "Medi Sevana Private Hosepital"}}, {"type": "node", "id": 10614985210, "lat": 8.3229365, "lon": 81.2997025, "tags": {"amenity": "hospital", "healthcare": "hospital", "name": "Hospital, serunuwara"}}, {"type": "node", "id": 10618470666, "lat": 6.9663393, "lon": 80.9320067, "tags": {"amenity": "hospital", "healthcare": "hospital"}}, {"type": "node", "id": 10783985525, "lat": 5.9466474, "lon": 80.5400533, "tags": {"amenity": "hospital", "healthcare": "hospital", "name:en": "COOP Hospital"}}, {"type": "node", "id": 10839918583, "lat": 7.4149436, "lon": 81.7354717, "tags": {"amenity": "hospital", "healthcare": "hospital", "name": "Central Camp Government Hospital"}}, {"type": "node", "id": 10936388555, "lat": 7.2258011, "lon": 80.1957774, "tags": {"amenity": "hospital", "healthcare": "hospital", "name": "base hospital"}}, {"type": "node", "id": 10989218950, "lat": 6.8109241, "lon": 80.0843247, "tags": {"amenity": "hospital", "healthcare": "hospital"}}, {"type": "node", "id": 11056066385, "lat": 7.7377169, "lon": 81.2062726, "tags": {"amenity": "hospital", "healthcare": "hospital", "name": "Primary Medical Center - Damminna"}}, {"type": "node", "id": 11068267299, "lat": 7.0391267, "lon": 81.2748228, "tags": {"addr:city": "Medagama", "addr:street": "Bibila-Medagama,Hospital Road", "amenity": "hospital", "healthcare": "hospital", "name": "Medagama Hospitle"}}, {"type": "node", "id": 11081539151, "lat": 8.9959573, "lon": 80.8228774, "tags": {"amenity": "hospital", "healthcare": "hospital", "name": "Kiriibanwewa - Primary Medical Care Unit", "name:ta": "\u0b95\u0bbf\u0bb0\u0bbf\u0baa\u0bcd\u0baa\u0ba9\u0bcd\u0bb5\u0bc6\u0bb5 \u0b86\u0bb0\u0bae\u0bcd\u0baa \u0bae\u0bb0\u0bc1\u0ba4\u0bcd\u0ba4\u0bc1\u0bb5\u0baa\u0bcd \u0baa\u0bb0\u0bbe\u0bae\u0bb0\u0bbf\u0baa\u0bcd\u0baa\u0bc1 \u0ba8\u0bbf\u0bb2\u0bc8\u0baf\u0bae\u0bcd"}}, {"type": "node", "id": 11142898009, "lat": 6.4712636, "lon": 80.1032987, "tags": {"amenity": "hospital", "healthcare": "hospital", "name": "hijama treatment center"}}, {"type": "node", "id": 11155244745, "lat": 7.4763813, "lon": 80.3603073, "tags": {"amenity": "hospital", "healthcare": "hospital", "name": "Dharmajaya ground"}}, {"type": "node", "id": 11155256557, "lat": 7.4790196, "lon": 80.3583529, "tags": {"amenity": "hospital", "emergency": "yes", "healthcare": "hospital", "name": "Teaching Hospital, Kurunegala", "operator": "Ministry of Health, Nutrition and Indigenous Medicine", "operator:type": "government", "operator:wikidata": "Q16147207"}}, {"type": "node", "id": 11271020360, "lat": 7.4489678, "lon": 81.754918, "tags": {"amenity": "hospital", "healthcare": "hospital"}}, {"type": "way", "id": 99282980, "center": {"lat": 9.6658682, "lon": 80.0148961}, "nodes": [1148495828, 5257129069, 1644133041, 5216478565, 1644133037, 5216478571, 1644133059, 5233721901, 7399186966, 1644133062, 5233721902, 5233721903, 1644133043, 2050947466, 2449012588, 2050947486, 2449012496, 2050947473, 5539291046, 5539319928, 2050947395, 2059434741, 6684676722, 5539434133, 5241649455, 5539434131, 4439537123, 847467324, 5257080178, 847467323, 847467322, 4511591869, 4511591866, 5257080175, 5257080176, 1154201020, 4511555695, 4511552163, 5474756491, 5474756492, 847467320, 5257129072, 847467318, 2449012467, 1148495828], "tags": {"amenity": "hospital", "healthcare": "hospital", "name": "Jaffna General (Teaching) Hospital"}}, {"type": "way", "id": 99660576, "center": {"lat": 6.7112399, "lon": 80.0669863}, "nodes": [1152310277, 1152310300, 10902502910, 10912061953, 1152310276, 10902502912, 11179016181, 10902502911, 1152310246, 10902382260, 1152310306, 1152310283, 1152310259, 1152310277], "tags": {"amenity": "hospital", "emergency": "yes", "healthcare": "hospital", "name": "Base Hospital -Horana"}}, {"type": "way", "id": 102371565, "center": {"lat": 8.325781, "lon": 80.4133865}, "nodes": [1181921603, 1181921623, 3348142012, 1181921855, 1181921817, 4965226713, 4965226714, 4965226715, 4891318447, 4891318446, 4891318445, 1181921603], "tags": {"amenity": "hospital", "emergency": "yes", "healthcare": "hospital", "name": "Anuradhapura Teaching Hospital"}}, {"type": "way", "id": 108344847, "center": {"lat": 8.5641501, "lon": 81.2396572}, "nodes": [5285160209, 4372070274, 5474656979, 5228784161, 5474656974, 5474656980, 5228784162, 5474656981, 5228784163, 5474656982, 5228784164, 1243386877, 6528585606, 1243386870, 3804306269, 5474630871, 1243386918, 1243386893, 1243386876, 5285160209], "tags": {"amenity": "hospital", "emergency": "yes", "healthcare": "hospital", "name": "Base General Hospital", "wikidata": "Q7842319"}}, {"type": "way", "id": 151406002, "center": {"lat": 6.0652155, "lon": 80.2275865}, "nodes": [1642272810, 1642272808, 1642272805, 1642272806, 1642272810], "tags": {"amenity": "hospital", "building": "yes", "emergency": "no", "healthcare": "hospital", "name": "Cancer Unit Karapitiya"}}, {"type": "way", "id": 151406006, "center": {"lat": 6.0665678, "lon": 80.225809}, "nodes": [1642272821, 1642272827, 1642272823, 1642272811, 1642272821], "tags": {"amenity": "hospital", "building": "yes", "emergency": "yes", "healthcare": "hospital", "internet_access": "wlan", "name": "Karapitiya Teaching Hospital", "name:en": "Karapiti", "name:si": "\u0d9a\u0dbb\u0dcf\u0db4\u0dd2\u0da7\u0dd2\u0dba \u0dbb\u0ddd\u0dc4\u0dbd"}}, {"type": "way", "id": 155095132, "center": {"lat": 6.4187073, "lon": 80.0029902}, "nodes": [1675272841, 1675272838, 1675272845, 1675272844, 1675272841], "tags": {"amenity": "hospital", "healthcare": "hospital", "name": "Bentota Medical center"}}, {"type": "way", "id": 169929855, "center": {"lat": 8.7635577, "lon": 80.4882291}, "nodes": [1810893231, 2375504462, 1810893234, 1810893236, 1810893238, 1810893231], "tags": {"amenity": "hospital", "name": "Kali Kovil", "religion": "hindu"}}, {"type": "way", "id": 179661793, "center": {"lat": 6.0661999, "lon": 80.2257915}, "nodes": [1900833147, 1900833149, 1900833151, 1900833145, 1900833147], "tags": {"amenity": "hospital", "healthcare": "hospital"}}, {"type": "way", "id": 198120803, "center": {"lat": 7.2252647, "lon": 80.1960423}, "nodes": [2083007724, 2083007726, 2083007730, 2083007728, 2083007724], "tags": {"amenity": "hospital", "building": "yes", "name": "District Hospital Warakapola"}}, {"type": "way", "id": 204765569, "center": {"lat": 7.0913917, "lon": 80.0009822}, "nodes": [8933799514, 8933799507, 8933799516, 8834066780, 2147413468, 3875833330, 3799780748, 8933799513, 8933799514], "tags": {"amenity": "hospital", "name": "Gamapaha General Hospital"}}, {"type": "way", "id": 219751540, "center": {"lat": 7.7076453, "lon": 81.6900756}, "nodes": [2288886292, 2288886291, 2288886294, 2288886293, 2288886296, 2288886295, 2288886290, 2288886289, 2288886292], "tags": {"amenity": "hospital", "building": "yes", "building:foundation_height": "1", "building:levels": "1", "building:material": "plaster", "building:use": "hospital", "roof:material": "tile", "roof:shape": "gabled"}}, {"type": "way", "id": 219766963, "center": {"lat": 7.7062839, "lon": 81.6888289}, "nodes": [2289018993, 2289019044, 2289019014, 2289019010, 2289018990, 2289018941, 2289018993], "tags": {"amenity": "hospital"}}, {"type": "way", "id": 220691100, "center": {"lat": 7.6856272, "lon": 81.7199284}, "nodes": [2297837866, 2297837915, 2297837869, 2297837826, 2297837866], "tags": {"amenity": "hospital", "building": "yes", "building:foundation_height": "1", "building:levels": "1", "building:material": "plaster", "building:use": "hospital", "name": "Ayurvedic Hospital", "roof:material": "tile", "roof:shape": "gabled"}}, {"type": "way", "id": 220865796, "center": {"lat": 7.7085707, "lon": 81.6913761}, "nodes": [2299458435, 2299458433, 2299458429, 2299458579, 2299458585, 2299458544, 2299458548, 2299458439, 2299458435], "tags": {"amenity": "hospital", "building": "hospital", "building:foundation_height": "3", "building:levels": "3", "building:material": "plaster", "name": "MOH Office", "roof:material": "tile", "roof:shape": "gabled"}}, {"type": "way", "id": 223716494, "center": {"lat": 7.7211428, "lon": 81.7026499}, "nodes": [2325987439, 2325987533, 2325987431, 2325987371, 2325987439], "tags": {"amenity": "hospital", "building": "yes", "building:foundation_height": "1", "building:levels": "1", "building:material": "plaster", "building:use": "hospital", "name": "Aathura Hospital", "roof:material": "concrete", "roof:shape": "lean_to"}}, {"type": "way", "id": 224219892, "center": {"lat": 7.7539708, "lon": 81.6414194}, "nodes": [2330413116, 2330413085, 2330413025, 2330413069, 2330413116], "tags": {"amenity": "hospital", "building": "yes", "name": "Miyani hospitel"}}, {"type": "way", "id": 230305605, "center": {"lat": 7.7352227, "lon": 81.7094416}, "nodes": [2388267181, 2388267187, 2388267179, 2388267171, 2388267181], "tags": {"amenity": "hospital", "name": "Navalady Hospital"}}, {"type": "way", "id": 231896464, "center": {"lat": 7.7491451, "lon": 81.6717417}, "nodes": [2402214646, 2402214644, 2402214642, 2402214645, 2402214646], "tags": {"amenity": "hospital", "healthcare": "hospital", "name": "Kokkuvil Village Hospital"}}, {"type": "way", "id": 232513799, "center": {"lat": 7.6894564, "lon": 81.7257391}, "nodes": [2408609617, 4655489068, 2408609579, 2408609561, 2408609568, 2408609603, 2408609617], "tags": {"amenity": "hospital", "name": "Mohideen Thaika Mosque"}}, {"type": "way", "id": 232761550, "center": {"lat": 7.7074301, "lon": 81.690754}, "nodes": [2410853789, 2410853784, 2410853755, 2410853750, 2410853747, 2410853746, 2410853742, 2410853740, 2410853732, 2410853735, 2410853733, 2410853730, 2410853724, 2410853726, 2410853728, 2410853676, 2410853625, 2410853623, 2410853608, 2410853610, 2410853649, 2410853647, 2410853643, 2410853642, 2410853640, 2410853636, 2410853635, 2410853618, 2410853612, 2410853627, 2410853638, 2410853645, 2410853665, 2410853670, 2410853688, 2410853745, 2410853789], "tags": {"amenity": "hospital", "name": "Teaching Hospital, Batticaloa", "operator": "Ministry of Health, Sri Lanka"}}, {"type": "way", "id": 235773421, "center": {"lat": 8.0584611, "lon": 80.5870485}, "nodes": [2438398421, 2438398423, 2438398410, 2438398405, 2438398421], "tags": {"amenity": "hospital", "building": "yes", "healthcare": "hospital", "name": "Railway Town"}}, {"type": "way", "id": 244931049, "center": {"lat": 6.8400047, "lon": 80.9846979}, "nodes": [2522029206, 2522029208, 2522029211, 2522029213, 2522029215, 2522029216, 2522029203, 2522029202, 2522029197, 2522029194, 2522029190, 2522029193, 2522029185, 2522029183, 2522029179, 2522029177, 2522029173, 2522029171, 2522029169, 2522029168, 2522029159, 2522029152, 2522029154, 2522029145, 2522029140, 2522029134, 2522029137, 2522029138, 2522029144, 2522029150, 2522029157, 2522029163, 2522029166, 2522029165, 2522029172, 2522029176, 2522029178, 2522029174, 2522029161, 2522029155, 2522029167, 2522029170, 2522029175, 2522029180, 2522029184, 2522029181, 2522029186, 2522029189, 2522029191, 2522029187, 2522029198, 2522029196, 2522029199, 2522029205, 2522029200, 2522029201, 2522029204, 2522029219, 2522029221, 2522029238, 2522029225, 2522029231, 2522029232, 2522029249, 2522029245, 2522029252, 2522029241, 2522029206], "tags": {"amenity": "hospital", "building": "yes", "name": "Bandarawela Base Hopital"}}, {"type": "way", "id": 247310373, "center": {"lat": 7.6972898, "lon": 81.654645}, "nodes": [2542220623, 2542220627, 2542220628, 2542220633, 2542220635, 2542220639, 2542220641, 2542220643, 2542220623], "tags": {"amenity": "hospital", "building": "yes", "name": "Vavunathivu MOH"}}, {"type": "way", "id": 251400128, "center": {"lat": 6.8749445, "lon": 81.0472975}, "nodes": [2576256702, 2830161671, 2830161672, 2830161675, 2830161674, 2576256705, 2576256704, 2576256701, 2576256702], "tags": {"amenity": "hospital", "building": "yes", "name": "Medical Center"}}, {"type": "way", "id": 254455917, "center": {"lat": 6.9493142, "lon": 80.0593916}, "nodes": [3059724569, 2602646843, 3059724570, 3059724573, 3059724572, 3059724571, 3059724569], "tags": {"amenity": "hospital", "emergency": "yes", "name": "Dompe Hospital"}}, {"type": "way", "id": 257069710, "center": {"lat": 7.7215644, "lon": 81.7040479}, "nodes": [2626866821, 2626866822, 2626866823, 2626866824, 2626866826, 2626866820, 2626866818, 2626866819, 2626866821], "tags": {"amenity": "hospital", "name": "GV Hospital"}}, {"type": "way", "id": 260647545, "center": {"lat": 9.3510462, "lon": 80.0788855}, "nodes": [2661661620, 2661661599, 2661661597, 2661661608, 2661661604, 2661661585, 2661661587, 2661661589, 2661661591, 2661661583, 2661661577, 2661661581, 2661661579, 2661661575, 2661661572, 2661661595, 2661661593, 2661661601, 2661661606, 2661661614, 2661661616, 2661661610, 2661661612, 2661661618, 2661661620], "tags": {"addr:city": "Veravil", "amenity": "hospital", "building": "yes", "emergency": "yes", "name": "Divisonal Hospital - Veravil", "website": "http://www.panoramio.com/photo/97869360"}}, {"type": "way", "id": 261215185, "center": {"lat": 7.2959972, "lon": 80.7309551}, "nodes": [2668407904, 2828160523, 2828160524, 2668407908, 2668407909, 2668407910, 2668407911, 2668407912, 2668407913, 2668407917, 2668407921, 2828160530, 2828160529, 2828160526, 2828160525, 2828160528, 2828160527, 2828160531, 2668407925, 2668407926, 2668407930, 2668407931, 2668407904], "tags": {"addr:city": "Digana", "addr:housename": "Digana Village", "amenity": "hospital", "emergency": "yes", "name": "Rehabilitation Hospital Digana", "phone": "+94812374213", "wheelchair": "yes"}}, {"type": "way", "id": 276745101, "center": {"lat": 7.9433458, "lon": 81.0093878}, "nodes": [2279266045, 2279266017, 3842276077, 2813290082, 2279266033, 2279266049, 2279266058, 2279266065, 2279266014, 2279266023, 2279266019, 2279266043, 2279266038, 2279266061, 2279266027, 2279266015, 2279266031, 2279266050, 2279266063, 2279266021, 2279266039, 2279266016, 2279266018, 2279266053, 2279266022, 2279266036, 4076614243, 4076614242, 1241547694, 1241547713, 4076614239, 258523390, 4076614238, 4076614237, 1241534154, 4076614235, 2279266045], "tags": {"amenity": "hospital", "emergency": "yes", "name": "Polonnaruwa Hospital"}}, {"type": "way", "id": 276748058, "center": {"lat": 7.9412018, "lon": 81.0182747}, "nodes": [9165730174, 2813315635, 2813315636, 2813315637, 2813315638, 2813315639, 2813315640, 2813315641, 2813315642, 2813315643, 2813315631, 9165730174], "tags": {"amenity": "hospital", "name": "Venus Nursing Home"}}, {"type": "way", "id": 278138613, "center": {"lat": 7.6165329, "lon": 80.2502564}, "nodes": [5779515109, 2825621599, 2825621600, 2825621601, 2825621602, 2825621603, 2825621604, 2825621605, 2825621606, 2825621607, 2825621608, 2825621609, 2825621610, 2825621611, 2825621612, 2825621613, 2825621614, 2825621615, 2825621616, 2825621617, 2825621618, 2825621619, 2825621620, 5779515107, 5779515110, 5779515108, 5779515109], "tags": {"addr:city": "Wariyapola", "addr:postcode": "60400", "addr:street": "Kurunegala Road", "amenity": "hospital", "emergency": "yes", "healthcare": "hospital", "healthcare:speciality": "general", "name": "Wariyapola Divisional Hospital", "name:si": "\u0dc0\u0dcf\u0dbb\u0dd2\u0dba\u0db4\u0ddc\u0dbd \u0daf\u0dd2\u0dc3\u0dcf \u0dbb\u0ddd\u0dc4\u0dbd"}}, {"type": "way", "id": 286363215, "center": {"lat": 6.840611, "lon": 80.0932686}, "nodes": [2900199462, 2900199463, 2900199464, 2900199465, 2900199466, 2900199467, 2900199462], "tags": {"amenity": "hospital", "name": "Jeewaka Private Hospital"}}, {"type": "way", "id": 286396419, "center": {"lat": 7.8850677, "lon": 80.0025756}, "nodes": [2900580680, 2900580681, 2900580682, 2900580683, 2900580680], "tags": {"addr:city": "Anamaduwa", "addr:street": "Katugastota-Kurunegala-Puttalam Road", "amenity": "hospital", "emergency": "yes", "name": "Anamaduwa Hospital"}}, {"type": "way", "id": 286437930, "center": {"lat": 7.3679045, "lon": 81.8127848}, "nodes": [2901120095, 2901120096, 2901120097, 2901120098, 2901120099, 2901120100, 2901120301, 2901120302, 2901120095], "tags": {"addr:city": "Sammanthurai", "addr:postcode": "32000", "addr:street": "Ampara-Karavitu Road", "amenity": "hospital", "emergency": "yes", "healthcare": "hospital", "name": "Sammanthurai Base Hospital- OPT unit"}}, {"type": "way", "id": 286832935, "center": {"lat": 7.3683648, "lon": 81.8129464}, "nodes": [2905115414, 2905115415, 2905115416, 2905115417, 2905115418, 2905115419, 2905115420, 2905115421, 2905115422, 2905115423, 2905115424, 2905115425, 2905115426, 2905115427, 2905115414], "tags": {"addr:city": "Sammanthurai", "addr:postcode": "32200", "addr:street": "Ampara-Karavitu Road", "amenity": "hospital", "healthcare": "hospital", "name": "Sammanthurai Base Hospital"}}, {"type": "way", "id": 286996322, "center": {"lat": 6.9555499, "lon": 80.2064235}, "nodes": [2906616414, 2906616415, 2906616416, 2906616417, 2906616418, 5114567672, 5114567671, 2906616419, 2906616414], "tags": {"addr:city": "Avissawella", "amenity": "hospital", "building": "yes", "name": "Kelani Valley Private Hospital"}}, {"type": "way", "id": 287238675, "center": {"lat": 6.6588306, "lon": 80.7123628}, "nodes": [2908726308, 3263935175, 2908726309, 2908726310, 2908726311, 2908726312, 2908726313, 2908726314, 2908726315, 5095296138, 2908726316, 2908726317, 2908726318, 2908726319, 2908726320, 2908726308], "tags": {"amenity": "hospital", "name": "Base Hospital- Balangoda"}}, {"type": "way", "id": 287439574, "center": {"lat": 7.5183235, "lon": 80.6774109}, "nodes": [2910409248, 2910409249, 2910409250, 2910409251, 2910409248], "tags": {"amenity": "hospital", "building": "yes", "name": "Rattota Hospital"}}, {"type": "way", "id": 287815898, "center": {"lat": 7.2136, "lon": 80.5926552}, "nodes": [2913830857, 2913830858, 2913830859, 2913830860, 2913830857], "tags": {"amenity": "hospital", "healthcare": "hospital", "name": "Gelioya Hospital"}}, {"type": "way", "id": 287995206, "center": {"lat": 6.8721141, "lon": 80.9377507}, "nodes": [2915465435, 2915465429, 2915465465, 2915465455, 2915465454, 2915465462, 2915465441, 2915465443, 2915465437, 2915465445, 2915465436, 2915465435], "tags": {"amenity": "hospital"}}, {"type": "way", "id": 287995207, "center": {"lat": 6.8716507, "lon": 80.9378029}, "nodes": [2915465432, 2915465439, 2915465468, 2915465448, 2915465460, 2915465442, 2915465432], "tags": {"amenity": "hospital"}}, {"type": "way", "id": 287995208, "center": {"lat": 6.8719826, "lon": 80.9380203}, "nodes": [2915465440, 2915465458, 2915465453, 2915465464, 2915465466, 2915465444, 2915465430, 2915465438, 2915465447, 2915465451, 2915465459, 2915465452, 2915465434, 2915465431, 2915465456, 2915465467, 2915465449, 2915465450, 2915465433, 2915465461, 2915465440], "tags": {"amenity": "hospital", "emergency": "no", "name": "Mirahawaththa hospital"}}, {"type": "way", "id": 287995209, "center": {"lat": 6.8716294, "lon": 80.938015}, "nodes": [2915465463, 2915465446, 2915465457, 2915465428, 2915465463], "tags": {"amenity": "hospital"}}, {"type": "way", "id": 288132123, "center": {"lat": 8.5811751, "lon": 81.2276648}, "nodes": [2916727870, 2916727871, 2916727872, 2916727873, 2916727870], "tags": {"amenity": "hospital", "healthcare": "hospital", "name": "Aurvadic Hospital"}}, {"type": "way", "id": 288252819, "center": {"lat": 6.962404, "lon": 81.035938}, "nodes": [2918131389, 2918131390, 2918131387, 2918131388, 2918131389], "tags": {"addr:city": "Haliela", "amenity": "hospital", "name": "Haliela Medical Centre"}}, {"type": "way", "id": 288264400, "center": {"lat": 6.2938317, "lon": 80.1642436}, "nodes": [2918225161, 2918225162, 2918225163, 2918225164, 2918225165, 2904515329, 2904515323, 2918225166, 2918225167, 2918225168, 2918225169, 2918225161], "tags": {"amenity": "hospital", "healthcare": "hospital", "name": "Elpitiya Base Hospital"}}, {"type": "way", "id": 288265617, "center": {"lat": 7.0912518, "lon": 80.0377228}, "nodes": [2918234329, 2918234330, 2918234331, 2918234332, 2918234333, 2918234334, 2918234335, 2918234336, 2918234337, 3809462722, 2918234338, 2918234339, 2918234340, 2918234341, 2918234342, 2918234343, 2918234344, 2918234345, 2918234329], "tags": {"amenity": "hospital", "name": "Gampaha Wickramarachchi Ayurveda Teaching Hospital"}}, {"type": "way", "id": 303472159, "center": {"lat": 7.4782607, "lon": 80.3600757}, "nodes": [4991633740, 5243838819, 4991633732, 3078329580, 3078329581, 3078329582, 4991633746, 4991633748, 3078329583, 3078329584, 3078329570, 3078329571, 3078329572, 4992033840, 3171715804, 3078329573, 3078329574, 3171715805, 4991902160, 4991902159, 4991633740], "tags": {"addr:city": "Kurunegala", "amenity": "hospital", "name": "Kurunegala Teaching Hospital"}}, {"type": "way", "id": 304200805, "center": {"lat": 6.0693537, "lon": 80.2271794}, "nodes": [3087287322, 3087287323, 3087287324, 3087287325, 3087287326, 3087287327, 3087287328, 3087287329, 3087287330, 3087287332, 3087289235, 3087287322], "tags": {"amenity": "hospital", "contact:phone": "+94912234060", "emergency": "yes", "healthcare": "hospital", "name": "Ruhunu Hospital", "name:si": "\u0dbb\u0dd4\u0dc4\u0dd4\u0dab\u0dd4 \u0dbb\u0ddd\u0dc4\u0dc5", "phone": "+94912234059", "website": "https://www.ruhunuhospital.lk/", "wheelchair": "yes"}}, {"type": "way", "id": 311966785, "center": {"lat": 7.478078, "lon": 80.3586467}, "nodes": [3177486328, 3177486326, 3177486330, 4991633745, 3177486324, 3177486329, 3177486327, 3177486328], "tags": {"amenity": "hospital", "healthcare": "hospital", "healthcare:speciality": "cardiology", "name": "Cardiology Unit"}}, {"type": "way", "id": 313939889, "center": {"lat": 7.1453884, "lon": 80.7822782}, "nodes": [3199828300, 3199828305, 3199828306, 11016181588, 3199828308, 3199828309, 5138500737, 3199828310, 5138500739, 11016181587, 5138500740, 3199828311, 3199828312, 5138500731, 5138500730, 3199828313, 5138500727, 3199828315, 3199828316, 3199828317, 2078335258, 2078335242, 3199828322, 2078335247, 3199828324, 2078334676, 2078334952, 3199828325, 2078335140, 2078334777, 3199828328, 2078335043, 3199828330, 3199828300], "tags": {"amenity": "hospital", "healthcare": "hospital", "name": "Rikillagaskada Hospital"}}, {"type": "way", "id": 319401987, "center": {"lat": 6.0226478, "lon": 80.7975837}, "nodes": [3258131635, 3258131647, 3258131634, 3258131632, 3258131629, 3258131618, 3258131609, 3258131607, 3258131603, 3258131597, 3258131582, 3258131579, 3258131576, 3258131570, 3258131588, 3258131591, 3258131608, 3258131606, 3258131605, 3377388728, 3258131616, 3258131617, 3258131610, 3258131613, 3258131611, 3258131612, 3258131626, 3258131615, 3258131635], "tags": {"amenity": "hospital", "building": "hospital"}}, {"type": "way", "id": 320173821, "center": {"lat": 5.9625376, "lon": 80.6775822}, "nodes": [3266728345, 3266728346, 3266728343, 3266728344, 3266728355, 3266728354, 3266728462, 3266728461, 3266728465, 3266728463, 3266728345], "tags": {"amenity": "hospital", "building": "yes", "name": "Batheegama District Hospital"}}, {"type": "way", "id": 321983043, "center": {"lat": 6.4339065, "lon": 80.0016286}, "nodes": [3287505757, 3287505754, 3287505745, 3287505731, 3287505728, 3287505727, 3287505726, 3287505757], "tags": {"amenity": "hospital", "healthcare": "hospital", "name": "Aluthgama Hospital"}}, {"type": "way", "id": 329250239, "center": {"lat": 5.9643151, "lon": 80.4936414}, "nodes": [3360969026, 3360969027, 3360969028, 3360969029, 3360969030, 3360969031, 3360969032, 3360969033, 3360969034, 3590072487, 3360969035, 3360969036, 3360969037, 3360969038, 3360969026], "tags": {"addr:city": "Kamburugamuwa", "addr:street": "labeema", "amenity": "hospital", "emergency": "no", "name": "Korea Sri Lanka Friendship Hospital Complex"}}, {"type": "way", "id": 330060990, "center": {"lat": 6.5755017, "lon": 80.1586999}, "nodes": [3370213500, 3370213501, 3370213498, 3370213496, 3370213495, 3370213493, 3370212791, 3370212789, 3370212788, 3370212790, 3370212792, 3370213494, 3370213497, 3370213499, 3370213500], "tags": {"amenity": "hospital", "name": "Pimbura Distric Hospital"}}, {"type": "way", "id": 354253532, "center": {"lat": 6.7581423, "lon": 81.2398175}, "nodes": [3600054765, 3600054766, 3600054767, 3600054768, 3600054769, 3600054770, 3612957635, 3600054773, 3600054774, 3600054775, 3600054776, 3584784593, 3600054777, 3600054765], "tags": {"addr:street": "Colombo - Ratnapura - Wellawaya - Batticaloa Road", "amenity": "hospital", "name": "Buttala Base Hospital"}}, {"type": "way", "id": 354780115, "center": {"lat": 7.218158, "lon": 81.8483918}, "nodes": [3604566582, 3604566583, 3604566584, 3604566585, 3604566582], "tags": {"addr:city": "Akkaraipattu", "addr:street": "Akkaraipattu-Varupattanchenai Road", "amenity": "hospital", "name": "JAI hospitel", "operator": "Mrs.C.Thevarajan", "phone": "0672052414"}}, {"type": "way", "id": 356141538, "center": {"lat": 9.3111636, "lon": 80.2352622}, "nodes": [3616544104, 3616544103, 3616544105, 3616544106, 3616544107, 3616544104], "tags": {"amenity": "hospital", "emergency": "no", "name": "Primary Helath Cetnre"}}, {"type": "way", "id": 362364038, "center": {"lat": 5.9479065, "lon": 80.5496589}, "nodes": [3666895454, 3666895451, 3666895450, 3666895455, 4885745175, 3666895456, 3666895461, 3666895459, 3666895458, 3666895460, 3666895453, 3666895463, 3666895466, 3666895449, 3666895464, 3666895467, 3666895452, 3666895462, 3666895457, 3666895454], "tags": {"addr:city": "Matara", "amenity": "hospital", "emergency": "yes", "name": "Matara General Hospital (SP)"}}, {"type": "way", "id": 366604317, "center": {"lat": 7.0907279, "lon": 80.0001613}, "nodes": [3705974890, 3705974891, 3705974892, 3806448065, 3705974890], "tags": {"addr:city": "Gampaha", "addr:street": "Gampaha Miriswatta Road", "amenity": "hospital", "building": "hospital", "building:foundation_height": "1 to 1.5", "building:levels": "3", "building:material": "other", "phone": "033 7200818", "roof:material": "concrete", "roof:shape": "lean_to"}}, {"type": "way", "id": 368381541, "center": {"lat": 7.476341, "lon": 80.3565356}, "nodes": [3722244538, 3722244539, 3722244540, 3722244541, 3722244542, 3722244543, 3722244546, 3722244545, 3722244538], "tags": {"addr:city": "Kurunegala", "addr:housenumber": "No. 303", "addr:postcode": "60000", "addr:street": "Ambepussa- Kurunegala Road", "amenity": "hospital", "name": "Co-operative Hospital Kurunegala", "operator": "Department of Co-operative Development", "phone": "+94 37 2 232242"}}, {"type": "way", "id": 369163686, "center": {"lat": 7.2816792, "lon": 80.6204918}, "nodes": [3729778121, 3729778122, 5464886044, 5464886045, 3729778123, 5446105377, 3729779425, 3729778121], "tags": {"amenity": "hospital", "healthcare": "hospital", "name": "Suwasevana Hospital"}}, {"type": "way", "id": 373558526, "center": {"lat": 7.0002929, "lon": 81.0576913}, "nodes": [3769963769, 3769963770, 4950186525, 3769963771, 3769963772, 3769963773, 3769963774, 3769963775, 3769963776, 3769963777, 3769963778, 3769963769], "tags": {"amenity": "hospital"}}, {"type": "way", "id": 376041043, "center": {"lat": 7.3371027, "lon": 80.3038353}, "nodes": [3793841296, 3793841297, 3793841298, 3793841299, 3793841300, 3793841301, 3793841302, 3793841296], "tags": {"addr:city": "Polgahawela", "addr:street": "Kulipitiya Road", "amenity": "hospital", "healthcare": "hospital", "name": "Polgahawela Base Hospital"}}, {"type": "way", "id": 376770321, "center": {"lat": 8.6686372, "lon": 80.4078092}, "nodes": [3801569048, 3801569049, 3801569046, 3801569047, 3801569048], "tags": {"amenity": "hospital", "name": "Divisional Hospital - Periyaulukkulama"}}, {"type": "way", "id": 378083022, "center": {"lat": 7.0873819, "lon": 80.0317108}, "nodes": [3814996282, 3814996277, 3814996263, 3814996274, 3814996282], "tags": {"amenity": "hospital", "building": "hospital", "building:age": "more_than_20", "building:foundation_height": "1_to_1.5", "building:levels": "1", "building:material": "plaster", "name": "Ruwanara Ayurwedic Medical Center", "roof:material": "tile", "roof:shape": "4 faces (hipped)"}}, {"type": "way", "id": 380936230, "center": {"lat": 7.1240738, "lon": 80.1090964}, "nodes": [3842308018, 3842308019, 3842308020, 3842308021, 3842308018], "tags": {"addr:city": "Wathupitiwala", "addr:street": "Wathupitiwala Road", "amenity": "hospital", "emergency": "yes", "name": "Wathupitiwala Base Hospital"}}, {"type": "way", "id": 385943679, "center": {"lat": 8.1599468, "lon": 81.4210056}, "nodes": [3892843801, 3892843802, 3892843800, 3892843799, 3892843801], "tags": {"amenity": "hospital", "building": "yes", "healthcare": "hospital", "name": "Ayurvedic Hospital"}}, {"type": "way", "id": 386360355, "center": {"lat": 7.9118735, "lon": 81.5317246}, "nodes": [3896793583, 3896793599, 3896793597, 3896793581, 3896793580, 3896793570, 3896793571, 3896793569, 3896793574, 3896793575, 3896793577, 3896793585, 3896793583], "tags": {"amenity": "hospital", "healthcare": "hospital"}}, {"type": "way", "id": 386360383, "center": {"lat": 7.9112586, "lon": 81.5323039}, "nodes": [3896793375, 3896793284, 3896793276, 3896793368, 3896793375], "tags": {"amenity": "hospital", "healthcare": "hospital"}}, {"type": "way", "id": 386360399, "center": {"lat": 7.911532, "lon": 81.5320397}, "nodes": [3896793392, 3896793385, 3896793432, 3896793436, 3896793392], "tags": {"amenity": "hospital", "healthcare": "hospital"}}, {"type": "way", "id": 386360403, "center": {"lat": 7.9110675, "lon": 81.5326856}, "nodes": [3896793227, 3896793275, 3896793327, 3896793257, 3896793227], "tags": {"addr:city": "Valaichchenai", "addr:postcode": "30400", "addr:street": "Main Street, Valaichchenai", "amenity": "hospital", "emergency": "yes", "healthcare": "hospital", "name": "Base Hospital, Valaichchenai", "operator": "SL Government"}}, {"type": "way", "id": 386360420, "center": {"lat": 7.9111615, "lon": 81.5320483}, "nodes": [3896793270, 3896793265, 3896793334, 3896793335, 3896793270], "tags": {"amenity": "hospital", "healthcare": "hospital"}}, {"type": "way", "id": 386360440, "center": {"lat": 7.9113426, "lon": 81.5324801}, "nodes": [3896793391, 3896793399, 3896793323, 3896793317, 3896793391], "tags": {"amenity": "hospital", "healthcare": "hospital"}}, {"type": "way", "id": 386360450, "center": {"lat": 7.9113367, "lon": 81.5320521}, "nodes": [3896793374, 3896793379, 3896793342, 3896793337, 3896793374], "tags": {"amenity": "hospital", "healthcare": "hospital"}}, {"type": "way", "id": 386360452, "center": {"lat": 7.9116058, "lon": 81.531599}, "nodes": [3896793425, 3896793416, 3896793445, 3896793456, 3896793425], "tags": {"amenity": "hospital", "healthcare": "hospital"}}, {"type": "way", "id": 386360459, "center": {"lat": 7.9117841, "lon": 81.5323218}, "nodes": [3896793568, 3896793567, 3896793584, 3896793586, 3896793568], "tags": {"amenity": "hospital", "healthcare": "hospital"}}, {"type": "way", "id": 386360474, "center": {"lat": 7.9107217, "lon": 81.532813}, "nodes": [3896793214, 3896793218, 3896793202, 3896793196, 3896793016, 3896793005, 3896793217, 3896793223, 3896793214], "tags": {"amenity": "hospital", "emergency": "yes", "healthcare": "hospital", "name": "ETU"}}, {"type": "way", "id": 388418458, "center": {"lat": 7.8031089, "lon": 81.5786729}, "nodes": [3916189949, 3916193169, 3916193157, 3916189937, 3916189949], "tags": {"amenity": "hospital", "name": "Aaurveda Hospital"}}, {"type": "way", "id": 388634913, "center": {"lat": 7.8156684, "lon": 81.558115}, "nodes": [3918148970, 3918148978, 3918148975, 4493917893, 4493917895, 11207429329, 4493917896, 4493917894, 4493917892, 11207429328, 3918148970], "tags": {"amenity": "hospital", "building": "yes", "name": "Bone Facture repair Hospital"}}, {"type": "way", "id": 392043040, "center": {"lat": 8.1341481, "lon": 81.4346553}, "nodes": [3953214013, 3953214006, 3953214000, 3953213998, 3953213997, 3953213996, 3953213995, 3953213999, 3953214007, 3953214008, 3953214009, 3953214010, 3953214011, 3953214012, 3953214013], "tags": {"amenity": "hospital", "healthcare": "hospital", "name": "District Hospital- Vakarai"}}, {"type": "way", "id": 392473375, "center": {"lat": 9.022148, "lon": 80.5906566}, "nodes": [3956911232, 3956911230, 3956911233, 3956911229, 3956911231, 3956911227, 3956911228, 3956911234, 3956911232], "tags": {"amenity": "hospital", "emergency": "no", "name": "Rural Ayurvedic Hospital", "name:ta": "\u0b95\u0bbf\u0bb0\u0bbe\u0bae \u0b86\u0baf\u0bc1\u0bb3\u0bcd\u0bb5\u0bc7\u0ba4 \u0bb5\u0bc8\u0ba4\u0bcd\u0ba4\u0bbf\u0baf\u0b9a\u0bbe\u0bb2\u0bc8"}}, {"type": "way", "id": 401685787, "center": {"lat": 9.7381568, "lon": 80.0283447}, "nodes": [4040975007, 4040974988, 4040974971, 4040974976, 4040974969, 4040974974, 4040974979, 4040974983, 4040975007], "tags": {"amenity": "hospital", "healthcare": "hospital", "name": "Primary Medical Care Unit (PMCU) Chunnakam", "operator": "Ministry of Health"}}, {"type": "way", "id": 403602050, "center": {"lat": 6.7707557, "lon": 81.2508347}, "nodes": [4059494714, 4059494713, 4059494711, 4059494712, 4059494714], "tags": {"amenity": "hospital", "building": "yes"}}, {"type": "way", "id": 403602424, "center": {"lat": 6.3364317, "lon": 80.0296514}, "nodes": [4059499793, 4059499795, 4059499799, 4059499798, 4059499790, 4059499683, 4059499676, 4059499793], "tags": {"amenity": "hospital", "building": "yes", "name": "Kosgoda Hospital"}}, {"type": "way", "id": 406914869, "center": {"lat": 8.154075, "lon": 80.2942571}, "nodes": [4089546251, 4089546252, 4089546253, 4089546254, 4089546255, 4089546256, 4089546257, 4089546258, 4089546251], "tags": {"amenity": "hospital", "name": "Thabuttegama Hospital"}}, {"type": "way", "id": 424006783, "center": {"lat": 7.114548, "lon": 80.054279}, "nodes": [4234983200, 4234983205, 4234983208, 4234983210, 4234983212, 4234983207, 4234983206, 4234983202, 4234983197, 4234983195, 4234983194, 4234983192, 4234983199, 4234983200], "tags": {"amenity": "hospital", "name": "Central Dispensary - Kalagedihena", "operator": "Government"}}, {"type": "way", "id": 424025008, "center": {"lat": 7.1135077, "lon": 80.0542937}, "nodes": [4235111270, 4235111268, 4235111264, 4235111260, 4235111257, 4235111253, 4235111265, 4235111270], "tags": {"amenity": "hospital", "emergency": "yes", "name": "Alpha Lanka Diabetic Hospital"}}, {"type": "way", "id": 433824661, "center": {"lat": 8.4143223, "lon": 80.612984}, "nodes": [4323169792, 4323169583, 4323169586, 4323169581, 4323169572, 4323169568, 4323169564, 4323169567, 4323169565, 4323169577, 4323169790, 4323169792], "tags": {"amenity": "hospital", "name": "XX Hospital"}}, {"type": "way", "id": 434307643, "center": {"lat": 8.4046334, "lon": 80.6094717}, "nodes": [4324677882, 4324677881, 4324677880, 4324678289, 4324678294, 4324678298, 4324678306, 4324678310, 4324678311, 4324678308, 4324678299, 4324678296, 4324678291, 4324678295, 4324677887, 4324677882], "tags": {"amenity": "hospital", "name": "Hospital"}}, {"type": "way", "id": 434308746, "center": {"lat": 6.0114849, "lon": 80.306424}, "nodes": [4324687746, 4324687732, 4324687702, 4324687674, 4324687657, 4324687622, 4324687605, 4324687592, 4324687564, 4324687529, 4324687514, 4324687500, 4324687494, 4324687088, 4324687084, 4324687082, 4324687077, 4324687497, 4324687508, 4324687557, 4324687603, 4324687618, 4324687638, 4324687676, 4324687700, 4324687746], "tags": {"amenity": "hospital", "operator": "Kalugala Hospital - Meepe"}}, {"type": "way", "id": 434308951, "center": {"lat": 7.5673721, "lon": 81.0416279}, "nodes": [4324688569, 4324688566, 4324688567, 4324688570, 4324688571, 4324688574, 4324688573, 4324688568, 4324688569], "tags": {"amenity": "hospital", "building": "hospital", "name": "Central Dispensary"}}, {"type": "way", "id": 435104176, "center": {"lat": 9.3745404, "lon": 80.4546981}, "nodes": [4330594090, 4330593487, 4330593484, 4330593486, 4330594090], "tags": {"amenity": "hospital", "building": "hospital", "name": "Vaddakkachchi Hospital"}}, {"type": "way", "id": 439337673, "center": {"lat": 6.0357763, "lon": 80.216071}, "nodes": [4369536277, 4369536278, 4369536238, 4369536237, 4369536266, 4369536265, 4369536311, 4369536310, 4369536329, 4369536330, 4369536337, 4369536336, 4369536349, 4369536350, 4369536352, 4369536353, 4369536345, 4369536335, 4369536334, 4369536318, 4369536319, 4369536277], "tags": {"amenity": "hospital", "building": "yes", "healthcare": "hospital", "name": "Asiri Hospital"}}, {"type": "way", "id": 439643437, "center": {"lat": 6.0366975, "lon": 80.2164766}, "nodes": [4373170630, 4373170631, 4373170632, 4373170633, 4373170630], "tags": {"addr:city": "Galle", "amenity": "hospital", "building": "yes", "healthcare": "hospital", "name": "Co-op Hospital New Bullding"}}, {"type": "way", "id": 446722232, "center": {"lat": 9.8051927, "lon": 80.2241181}, "nodes": [4439572183, 4439572171, 4439572173, 4439572176, 4439572180, 4439572185, 4439572189, 4439572172, 4439572174, 4439572177, 4439572181, 4439572186, 4439572178, 4439572182, 4439572187, 4439572170, 4439572175, 4439572179, 4439572184, 4439572188, 4439572183], "tags": {"amenity": "hospital", "emergency": "yes", "healthcare": "hospital", "name": "Base Hospital Point pedro", "operator": "Ministry of Health", "phone": "+94212263261", "wheelchair": "yes", "wikidata": "Q7208113"}}, {"type": "way", "id": 446752783, "center": {"lat": 9.7057502, "lon": 80.0301178}, "nodes": [4439913187, 4439913589, 9780823747, 4439913593, 4439913187], "tags": {"addr:city": "Kondavil", "amenity": "hospital", "healthcare": "hospital", "name": "Divisional Hospital Kondavil", "operator": "Ministry of Health, Nutrition and Indigenous Medicine", "operator:wikidata": "Q16147207", "phone": "+94213213616"}}, {"type": "way", "id": 450707255, "center": {"lat": 7.6751354, "lon": 81.7266985}, "nodes": [4476247468, 4476247470, 4476247472, 4476247469, 4476247468], "tags": {"amenity": "hospital", "building": "yes", "name": "Medical Officer of Health"}}, {"type": "way", "id": 450737751, "center": {"lat": 7.7834021, "lon": 81.6060192}, "nodes": [4476455277, 4476455271, 4476455266, 4476455268, 4476455277], "tags": {"amenity": "hospital", "building": "yes", "name": "Eravur Base Hospital", "operator": "Government"}}, {"type": "way", "id": 450943089, "center": {"lat": 7.7830927, "lon": 81.6062913}, "nodes": [4478348495, 4478348507, 4478348505, 4478348492, 4478348495], "tags": {"amenity": "hospital", "building": "yes", "name": "Eravur Base Hospital", "operator": "Government"}}, {"type": "way", "id": 450943096, "center": {"lat": 7.7831259, "lon": 81.6061245}, "nodes": [4478348502, 4478348510, 4478348508, 4478348497, 4478348502], "tags": {"amenity": "hospital", "building": "yes", "name": "Eravur Base Hospital", "operator": "Government"}}, {"type": "way", "id": 450943135, "center": {"lat": 7.7831349, "lon": 81.6059993}, "nodes": [4478348504, 4478348509, 4478348506, 4478348499, 4478348504], "tags": {"amenity": "hospital", "building": "yes", "name": "Eravur Base Hospital", "operator": "Government"}}, {"type": "way", "id": 450999309, "center": {"lat": 7.5168617, "lon": 81.7851153}, "nodes": [4478654460, 4478654458, 4478654459, 4478654461, 4478654462, 4478658897, 4478658905, 4478658904, 4478658895, 4478658898, 4478658900, 4478658902, 4478658903, 4634048429, 4478654481, 4634048428, 4478654460], "tags": {"amenity": "hospital", "name": "Base hospital kaluwanchikudi", "operator": "government"}}, {"type": "way", "id": 452224997, "center": {"lat": 7.7807605, "lon": 81.5943393}, "nodes": [4490139572, 4856994393, 4490139571, 4856994392, 4490139570, 4490139569, 4490139572], "tags": {"amenity": "hospital", "building": "yes", "name": "Mithilapuri medical", "shop": "medical_supply"}}, {"type": "way", "id": 452359859, "center": {"lat": 7.7270128, "lon": 81.5529157}, "nodes": [4491699809, 4491699825, 4491699824, 4491699808, 4491699827, 4491699826, 4491699829, 4491699828, 4491699809], "tags": {"amenity": "hospital", "building": "hospital", "name": "Ayurbedic Hospital"}}, {"type": "way", "id": 453948462, "center": {"lat": 7.9015552, "lon": 81.5233073}, "nodes": [4506017019, 4506017018, 4506017017, 4506017016, 4506017019], "tags": {"amenity": "hospital", "healthcare": "hospital", "name": "Meeravodai Rural Hospital"}}, {"type": "way", "id": 455048073, "center": {"lat": 7.8086571, "lon": 81.5671067}, "nodes": [4515051041, 4515051042, 4515051049, 4515051051, 4515051050, 4515051048, 4515051040, 4515051039, 4515051041], "tags": {"amenity": "hospital", "name": "Rural Hospital Mavadybempu", "tourism": "hostel"}}, {"type": "way", "id": 455427871, "center": {"lat": 9.8257205, "lon": 80.1787968}, "nodes": [4518295305, 4518295322, 4518295303, 4518295311, 4518295319, 4518295300, 4518295305], "tags": {"amenity": "hospital", "emergency": "yes", "healthcare": "hospital", "name": "Divisional Hospital Valvettithurai", "operator": "Ministry of Health"}}, {"type": "way", "id": 455684720, "center": {"lat": 9.7688897, "lon": 80.0073027}, "nodes": [4520419346, 4520419327, 4520419331, 4520419338, 4520419348, 4520419346], "tags": {"amenity": "hospital", "healthcare": "hospital", "name": "Alaveddy Divisional Hospital", "operator": "Ministry of Health"}}, {"type": "way", "id": 455892012, "center": {"lat": 9.7324347, "lon": 80.0068833}, "nodes": [4522775425, 4522775436, 4522775412, 4522775415, 4522775422, 4522775427, 4522775417, 4522775432, 4522775438, 4522775425], "tags": {"amenity": "hospital"}}, {"type": "way", "id": 456887561, "center": {"lat": 7.9013229, "lon": 81.5233152}, "nodes": [4531221600, 4531221599, 4531221282, 4531221281, 4531221280, 4531221279, 4531221284, 4531221596, 4531221595, 4531221283, 4531221598, 4531221597, 4531221600], "tags": {"addr:city": "Meeravodai", "addr:street": "Hospital Road", "amenity": "hospital", "healthcare": "hospital", "healthcare:speciality": "general", "name": "Meeravodai Rural Hospital", "operator": "Government"}}, {"type": "way", "id": 457552087, "center": {"lat": 9.7727989, "lon": 80.0637142}, "nodes": [4536902856, 4536902863, 4536902851, 4536902871, 4536902856], "tags": {"amenity": "hospital", "healthcare": "hospital"}}, {"type": "way", "id": 458128923, "center": {"lat": 7.1408462, "lon": 80.3497646}, "nodes": [4541744450, 4541744451, 4541744452, 4541744453, 4541744454, 4541744455, 4541744456, 4541744457, 4541744458, 4541744459, 4541744460, 4541744461, 4541744450], "tags": {"addr:city": "Undugoda", "addr:street": "Kegalle - Bulathkohupitiya - Karawanella Road", "amenity": "hospital", "building": "yes", "name": "District Hospital Undugoda"}}, {"type": "way", "id": 458305382, "center": {"lat": 8.6647327, "lon": 80.8422363}, "nodes": [4543344357, 4543344359, 4543344360, 4543344356, 4543344362, 4543344358, 4543344355, 4543344361, 4543344357], "tags": {"amenity": "hospital", "name": "Divisional Hospital Kapugollewa"}}, {"type": "way", "id": 458780943, "center": {"lat": 9.7062897, "lon": 80.0652012}, "nodes": [4547311811, 4547311823, 4547311804, 4547311384, 4547311816, 4547311797, 4547311809, 4547311790, 11271258053, 4547311811], "tags": {"amenity": "hospital", "name": "Divisional Hospital Kopay"}}, {"type": "way", "id": 458984551, "center": {"lat": 9.7933338, "lon": 80.2039896}, "nodes": [4549087749, 4549087726, 4549087732, 4549087739, 4549089014, 4549087749], "tags": {"amenity": "hospital", "healthcare": "hospital", "name": "Divisional Hospital Karaveddy"}}, {"type": "way", "id": 459464422, "center": {"lat": 9.6781097, "lon": 80.2368417}, "nodes": [4553127862, 4553127871, 4553127875, 4553127880, 4553127858, 4553127863, 4553127868, 4553127873, 4553127877, 4553127882, 4553127860, 4553127865, 4553127862], "tags": {"amenity": "hospital", "name": "Divisional Hospital Kodikamam"}}, {"type": "way", "id": 463592836, "center": {"lat": 7.6542612, "lon": 81.656832}, "nodes": [4588571528, 4588571527, 4588571523, 4588571525, 4588571526, 4588571524, 4588571522, 4588571521, 4588571528], "tags": {"amenity": "hospital", "name": "Puthumandapaththady Hospital"}}, {"type": "way", "id": 470165135, "center": {"lat": 7.7004203, "lon": 81.5399658}, "nodes": [4643864673, 4643864672, 4643864671, 4643864670, 4643864669, 4643864668, 4643864667, 4643864666, 4643864665, 4643864664, 4643864663, 4643864662, 4643864661, 4643864673], "tags": {"amenity": "hospital", "name": "Karadiyanaru Hospital"}}, {"type": "way", "id": 477612972, "center": {"lat": 7.1714043, "lon": 80.1391155}, "nodes": [4709292306, 4709292303, 4709292304, 4709292305, 4709292306], "tags": {"amenity": "hospital", "building": "yes", "name": "hospital"}}, {"type": "way", "id": 477612973, "center": {"lat": 7.1715432, "lon": 80.1391287}, "nodes": [4709292310, 4709292307, 4709292308, 4709292309, 4709292310], "tags": {"amenity": "hospital", "building": "yes", "name": "hospital"}}, {"type": "way", "id": 483378851, "center": {"lat": 7.6598552, "lon": 81.4869087}, "nodes": [4761243931, 4761243930, 4761243929, 4761243928, 4761243931], "tags": {"amenity": "hospital", "name": "Ayulvedig Hospital"}}, {"type": "way", "id": 483630218, "center": {"lat": 7.782302, "lon": 81.5945173}, "nodes": [4763736400, 4763736399, 4763736398, 4763736397, 4763736400], "tags": {"amenity": "hospital", "building": "yes", "name": "Global Hospital"}}, {"type": "way", "id": 483864771, "center": {"lat": 7.8113625, "lon": 81.5661295}, "nodes": [4766123837, 4766123836, 4898703668, 4766123835, 4766123834, 4766123833, 4766123832, 4766123837], "tags": {"amenity": "hospital", "name": "Aarogya Hospital"}}, {"type": "way", "id": 483921863, "center": {"lat": 7.7837071, "lon": 81.5902313}, "nodes": [4766760215, 4766760214, 4766760213, 4766760212, 4766760211, 4766760210, 4766760209, 4766760208, 4766760207, 4766760206, 4766760205, 4766760204, 4766760203, 4766760202, 4766760201, 4766760215], "tags": {"amenity": "hospital"}}, {"type": "way", "id": 487606077, "center": {"lat": 7.8281474, "lon": 81.4700892}, "nodes": [4800547881, 4800547880, 4800547879, 4800547878, 4800547877, 4800547876, 4800547875, 4800547874, 4800547873, 4800547872, 4800547871, 4800547870, 4800547869, 4800547868, 4800547867, 4800547881], "tags": {"amenity": "hospital", "name": "Thilipan Hospital"}}, {"type": "way", "id": 489039308, "center": {"lat": 8.2191753, "lon": 81.4040464}, "nodes": [4813261400, 4813261407, 4813261401, 4813261402, 4813261399, 4813261398, 4813261400], "tags": {"amenity": "hospital", "healthcare": "hospital", "name": "MOH Kathiravelly"}},