{"version": 0.6, "generator": "Overpass API 0.7.61.5 4133829e", "osm3s": {"timestamp_osm_base": "2023-10-31T20:51:35Z", "copyright": "The data included in this document is from www.openstreetmap.org. The data is made available under ODbL."}, "elements": [{"type": "node", "id": 419588091, "lat": 3.8570057, "lon": 11.5175834, "tags": {"amenity": "hospital", "emergency": "yes", "healthcare": "hospital", "name": "Centre M\u00e9dico Social fran\u00e7ais", "short_name": "CMS"}}, {"type": "node", "id": 976652143, "lat": 5.8893875, "lon": 10.5355739, "tags": {"amenity": "hospital", "name": "Rawado Philantropic Rural Hospital"}}, {"type": "node", "id": 1013434376, "lat": 4.0765156, "lon": 11.2097151, "tags": {"amenity": "hospital", "beds": "6", "consultation": "5/month", "doctors": "1", "laboratory": "0", "medical_service:malaria": "no", "medical_service:vct_hiv_counselling_test": "no", "name": "Central Medical de Nkol Poblo", "pharmacy": "0"}}, {"type": "node", "id": 1049493736, "lat": 9.4874892, "lon": 13.6779014, "tags": {"amenity": "hospital", "beds": "10", "cases:malaria": "250", "consultation": "500", "disease:AIDS:HIV": "25", "name": "Centre de Sante Integre de Badjengo", "pharmacy": "yes"}}, {"type": "node", "id": 1049493897, "lat": 9.6040725, "lon": 13.7124193, "tags": {"amenity": "hospital", "name": "Centre de Sante Integre de Babanguel I"}}, {"type": "node", "id": 1050198424, "lat": 9.3341626, "lon": 13.6023827, "tags": {"No of IDE": "1", "amenity": "hospital", "beds": "8", "cases:HIV": "1/month", "cases:malaria": "180/month", "consultation": "558/month", "laboratory": "yes", "name": "Centre de Sante integre de langui Social", "pharmacy": "yes"}}, {"type": "node", "id": 1067289952, "lat": 4.0270672, "lon": 11.3827584, "tags": {"amenity": "hospital", "healthcare": "hospital", "name": "La Morque d'Okola"}}, {"type": "node", "id": 1067306173, "lat": 9.3886932, "lon": 13.5078617, "tags": {"No of INF": "7", "amenity": "hospital", "beds": "48", "cases:malaria": "110/month", "consultation": "300/month", "disease:AIDS:HIV": "1/month", "laboratory": "yes", "name": "Hopital district de Pitoa", "pharmacy": "yes", "staff_count:doctors": "1"}}, {"type": "node", "id": 1067306203, "lat": 9.3821932, "lon": 13.5023772, "tags": {"amenity": "hospital", "cases:malaria": "15/month", "consultation": "115/Month", "disease:AIDS:HIV": "2/month", "name": "Guerriseur Traditionnel"}}, {"type": "node", "id": 1067306381, "lat": 9.3839583, "lon": 13.4987594, "tags": {"amenity": "hospital", "name": "Hopital Moustapha de Pitoa Bounguel", "note:en": "No data sheet filled"}}, {"type": "node", "id": 1069053734, "lat": 6.0008731, "lon": 10.4446815, "tags": {"amenity": "hospital", "beds": "80", "cases:HIV": "135 (Sep.2010)", "cases:malaria": "187 (sep.2010)", "consultation": "853 (Sep.2010)", "laboratory": "3", "name": "Ndop District Hospital", "pharmacy": "2", "source": "data of Sep 2010", "staff_count:doctors": "2", "staff_count:nurses": "15"}}, {"type": "node", "id": 1069081719, "lat": 5.9741739, "lon": 10.4875384, "tags": {"amenity": "hospital", "beds": "18", "cases:malaria": "65", "consultation": "77", "disease:AIDS": "no", "disease:HIV": "no", "laboratory": "yes", "name": "Bamunka Rural Health Centre", "pharmacy": "yes", "staff_count:nurses": "4"}}, {"type": "node", "id": 1069146931, "lat": 5.9856367, "lon": 10.4326955, "tags": {"amenity": "hospital", "beds": "18", "cases:HIV": "12/Month", "cases:malaria": "310", "consultation": "653", "laboratory": "yes", "name": "Bamunka Health Centre", "pharmacy": "yes", "staff_count:doctors": "0", "staff_count:nurses": "4"}}, {"type": "node", "id": 1988445664, "lat": 8.6784336, "lon": 16.580231, "tags": {"amenity": "hospital", "project:eurosha_2012": "yes", "source": "Bing, GPS survey"}}, {"type": "node", "id": 2000954236, "lat": 7.9229922, "lon": 16.6308121, "tags": {"amenity": "hospital", "health_facility_type": "cal_health_center_with_beds", "healthcare_departments:general_medicine": "yes", "name": "Ancien H\u00f4pital de Gor\u00e9", "operational_status": "open", "operator_type": "government", "project:eurosha_2012": "yes", "source": "gps", "source:date": "2012-11-06"}}, {"type": "node", "id": 2084480255, "lat": 6.6681332, "lon": 19.7992484, "tags": {"addr:city": "Mbr\u00e8s", "addr:full": "NANA-GRIBIZI, Mbr\u00e8s, Mbr\u00e8s, Mbr\u00e8s, Centre ville", "amenity": "hospital", "capacity:beds": "43", "health_facility:type": "health_center", "health_facility_type": "cal_health_center_with_beds", "healthcare": "hospital", "healthcare_departments:operating_room": "no", "name": "Centre de Sant\u00e9 de Mbr\u00e8s", "operational_status": "open", "operator:type": "government", "project:eurosha_2012": "yes", "source": "UNICEF", "source:date": "2012", "source:healthcare_departments": "project:eurosha_2012", "source:operational_status": "project:eurosha_2012", "toilets:number": "3"}}, {"type": "node", "id": 2110769192, "lat": 7.6916847, "lon": 18.6269677, "tags": {"amenity": "hospital", "capacity:beds": "90", "health_facility_type": "cal_health_center_with_beds", "name": "Centre de Sant\u00e9 Kabo", "name:en": "Kabo Health Center", "name:fr": "Centre de Sant\u00e9 Kabo", "operational_status": "open", "operator:type": "government / ONG", "project:eurosha_2012": "yes", "source": "MSF,UNICEF", "source:date": "2013", "toilets_number": "6"}}, {"type": "node", "id": 2123854256, "lat": 8.1511223, "lon": 16.5206645, "tags": {"addr:city": "\u062a\u064a\u0645\u0628\u0631\u064a", "amenity": "hospital", "health_facility_type": "dispensary", "healthcare:cholera": "unspecified", "operational_status": "open", "operator_type": "private", "project:eurosha_2012": "yes", "source": "bing"}}, {"type": "node", "id": 2150257170, "lat": 8.556487, "lon": 16.0781498, "tags": {"addr:housenumber": "Hopital R\u00e9gional de R\u00e9f\u00e9rence de Moundou", "amenity": "hospital", "operational_status": "open", "operator_type": "government", "project:eurosha_2012": "yes", "source": "bing", "source:date": "18/02/2014"}}, {"type": "node", "id": 2175773423, "lat": 8.4376385, "lon": 18.753135, "tags": {"amenity": "hospital", "capacity:beds": "20", "health_facility_type": "hospital", "healthcare_departments:general_medicine": "yes", "healthcare_departments:medical_laboratory": "no", "name": "Centre de Sant\u00e9 de Moula", "operational_status": "open", "operator": "CSSI", "operator:type": "NGO", "project:eurosha_2012": "yes", "source": "GPS survey", "source:date": "2013-02-26"}}, {"type": "node", "id": 2225249940, "lat": 4.361229, "lon": 18.5554329, "tags": {"amenity": "hospital", "capacity:beds": "2", "health_facility_type": "cal_health_center_with_beds", "healthcare_departments:general_medicine": "no", "name": "Centre de Sant\u00e9 Urbain de Lakouanga", "operational_status": "open", "operator": "Minist\u00e8re de la Sant\u00e9 Publique", "operator:type": "government", "place:description": "2eme arrondissement", "project:eurosha_2012": "yes", "source": "Survey", "source:date": "2013-03-08"}}, {"type": "node", "id": 2225267665, "lat": 4.3528661, "lon": 18.5307914, "tags": {"amenity": "hospital", "capacity:beds": "6", "health_facility_type": "hospital", "name": "Centre de Sant\u00e9 Guitangola", "operational_status": "open", "place:area_alternate": "Bimbo III", "project:eurosha_2012": "yes", "source": "Survey", "source:date": "2013-03-08"}}, {"type": "node", "id": 2225267750, "lat": 4.4054344, "lon": 18.5752308, "tags": {"addr:street": "Boy - Raba", "alt_name": "Saint Luc Monast\u00e8re", "amenity": "hospital", "capacity:beds": "12", "healthcare_departments:general_medicine": "yes", "healthcare_departments:others": "service p\u00e9diatrique", "name": "Centre de sant\u00e9 Saint Luc", "operator:type": "private", "place:area_alternate": "4eme arrondissement", "project:eurosha_2012": "yes", "source": "survey", "source:date": "2013-03-12"}}, {"type": "node", "id": 2225279274, "lat": 4.4532809, "lon": 18.5340163, "tags": {"amenity": "hospital", "capacity:beds": "31", "healthcare_departments:general_medicine": "yes", "healthcare_departments:operating_room": "yes", "healthcare_departments:others": "neurologie, maladies infectieuses", "name": "Hopital de district de Begoua", "operational_status": "open", "operator:type": "government", "place:description": "Sortie nord de Bangu, Bimbo IIi", "project:eurosha_2012": "yes", "source": "survey", "source:date": "2013-03-11"}}, {"type": "node", "id": 2225470752, "lat": 4.3454013, "lon": 18.5432165, "tags": {"amenity": "hospital", "health_facility_type": "cal_health_center_with_beds", "healthcare_departments:general_medicine": "yes", "healthcare_departments:medical_laboratory": "yes", "healthcare_departments:others": "Urgence, service p\u00e9diatrique", "name": "Centre de sant\u00e9 Urbain de Petevo", "operational_status": "open", "operator:type": "government", "place:area_alternate": "6eme arrondissement", "place:description": "Quartier P\u00e9t\u00e9vo", "project:eurosha_2012": "yes", "source": "survey", "source:date": "2013-03-14"}}, {"type": "node", "id": 2225484450, "lat": 4.3972977, "lon": 18.5299148, "tags": {"addr:street": "Quartier Bangui MPOKO II", "amenity": "hospital", "health_facility_type": "hospital", "name": "Centre de Sant\u00e9 St. Jonas", "operational_status": "open", "operator": "Bienfaisance", "operator:type": "NGO", "place:area_alternate": "5\u00e8me arrdt", "project:eurosha_2012": "yes", "source": "Survey", "source:date": "2013-03-11"}}, {"type": "node", "id": 2225509419, "lat": 4.4163667, "lon": 18.5566787, "tags": {"addr:street": "Cit\u00e9 Jean XXIII", "amenity": "hospital", "health_facility_type": "hospital", "name": "Centre de sant\u00e9 communautaire Cit\u00e9 Jean XXIII", "operational_status": "open", "operator:type": "NGO", "place:area_alternate": "4\u00e8me arrdt", "project:eurosha_2012": "yes", "source": "Survey", "source:date": "2013-02-21"}}, {"type": "node", "id": 2225514666, "lat": 4.3777174, "lon": 18.5479785, "tags": {"amenity": "hospital", "capacity:beds": "60", "health_facility_type": "cal_health_center_with_beds", "healthcare_departments:general_medicine": "yes", "healthcare_departments:others": "service ambulance", "name": "Centre de Sant\u00e9 Urbain des Castors", "operational_status": "open", "operator": "Minist\u00e8re de Sant\u00e9", "operator:type": "government", "place:description": "3i\u00e8me arrondissement", "source": "survey", "source:date": "2013-03-04"}}, {"type": "node", "id": 2225615058, "lat": 4.3664217, "lon": 18.6204699, "tags": {"amenity": "hospital", "capacity:beds": "1", "health_facility_type": "cal_health_center_with_beds", "name": "Centre de Sant\u00e9 Urbain de Ouango Bangui", "operational_status": "open", "operator:type": "government", "place:area_alternate": "7\u00e8me arrdt", "project:eurosha_2012": "yes", "source": "Survey", "source:date": "2013-02-07"}}, {"type": "node", "id": 2225650029, "lat": 4.359702, "lon": 18.5458815, "tags": {"amenity": "hospital", "capacity:beds": "7", "health_facility_type": "cal_health_center_with_beds", "name": "Centre de Sant\u00e9 Saint-Jacques", "operational_status": "open", "operator:type": "private", "place:area_alternate": "Kp\u00e8ten\u00e9", "place:description": "6\u00e8me arrdt", "project:eurosha_2012": "yes", "source": "Survey", "source:date": "2013-03-15"}}, {"type": "node", "id": 2225666466, "lat": 4.3562896, "lon": 18.5370229, "tags": {"amenity": "hospital", "name": "Centre de Sant\u00e9 de ADECOM", "project:eurosha_2012": "yes", "source": "Survey", "source:date": "2013-03-06"}}, {"type": "node", "id": 2274142847, "lat": 6.4258707, "lon": 10.8046348, "tags": {"amenity": "hospital", "healthcare": "hospital", "name": "Ndu Hospital"}}, {"type": "node", "id": 2283555316, "lat": 3.8342187, "lon": 11.5061824, "tags": {"amenity": "hospital", "name": "H\u00f4pital d'Efoulan"}}, {"type": "node", "id": 2284209683, "lat": 3.8698391, "lon": 11.502893, "tags": {"addr:city": "Yaound\u00e9 II", "addr:housenumber": "1", "addr:street": "Rue 3.359", "amenity": "hospital", "cuisine": "french;cameroonian;cafe_noir", "healthcare": "hospital", "healthcare:speciality": "general", "internet_access": "yes", "internet_access:fee": "yes", "name": "Camp Yeyap 2", "operator": "hopital militaire", "operator:type": "public", "source": "Geocameroun"}}, {"type": "node", "id": 2344205652, "lat": 5.3071766, "lon": 10.3138918, "tags": {"amenity": "hospital", "name": "H\u00f4pital de Tchomso"}}, {"type": "node", "id": 2412540996, "lat": 6.32201, "lon": 16.3723, "tags": {"addr:city": "Bozoum", "amenity": "hospital", "capacity:beds": "44", "health_facility:type": "prefectoral_hospital", "lat": "6.32201", "lon": "16.3723", "name": "HP Bozoum", "operator:type": "government", "toilets:number": "8"}}, {"type": "node", "id": 2412541010, "lat": 6.41692, "lon": 16.3497, "tags": {"addr:city": "Kokol", "amenity": "hospital", "capacity:beds": "1", "health_facility:type": "dispensary", "lat": "6.41692", "lon": "16.3497", "name": "Kokol", "operator:type": "private", "toilets:number": "2"}}, {"type": "node", "id": 2412541031, "lat": 6.64659, "lon": 16.3193, "tags": {"addr:city": "Beh", "amenity": "hospital", "capacity:beds": "2", "health_facility:type": "dispensary", "lat": "6.64659", "lon": "16.3193", "name": "PS de Beh", "operator:type": "government", "toilets:number": "4"}}, {"type": "node", "id": 2412541037, "lat": 6.34884, "lon": 16.2745, "tags": {"addr:city": "Ndonga", "amenity": "hospital", "capacity:beds": "2", "health_facility:type": "dispensary", "lat": "6.34884", "lon": "16.2745", "name": "PS de Ndonga", "operator:type": "government", "toilets:number": "2"}}, {"type": "node", "id": 2417190469, "lat": 7.2434172, "lon": 16.4381761, "tags": {"addr:city": "Paoua", "amenity": "hospital", "capacity:beds": "1", "health_facility:type": "dispensary", "lat": "7.24345", "long": "16.4381", "name": "ACABEF", "operator:type": "government", "source": "UNICEF,2012", "toilets_number": "2"}}, {"type": "node", "id": 2417190544, "lat": 7.0873083, "lon": 16.2739949, "tags": {"addr:city": "Kounpo1", "amenity": "hospital", "capacity:beds": "4", "health_facility:type": "dispensary", "lat": "7.0872", "lon": "16.2742", "name": "Kounpo", "operator:type": "government", "source": "UNICEF,2012", "toilets:number": "2"}}, {"type": "node", "id": 2417190573, "lat": 7.06702, "lon": 16.3706, "tags": {"addr:city": "Gouze", "amenity": "hospital", "capacity:beds": "0", "health_facility:type": "dispensary", "lat": "7.06702", "lon": "16.3706", "name": "PS Gouze", "operator:type": "government", "source": "UNICEF,2012", "toilets:number": "2"}}, {"type": "node", "id": 2417190588, "lat": 7.22426, "lon": 16.2899, "tags": {"addr:city": "Pende", "amenity": "hospital", "capacity:beds": "0", "health_facility:type": "dispensary", "lat": "7.22426", "lon": "16.2899", "name": "PS Pende", "operator:type": "government", "source": "UNICEF,2012", "toilets:number": "1"}}, {"type": "node", "id": 2420372474, "lat": 6.1739705, "lon": 16.254586, "tags": {"addr:city": "Bouforo croisement", "amenity": "hospital", "capacity:beds": "0", "health_facility:type": "dispensary", "lat": "6.17394", "lon": "16.2546", "name": "PS Bouforo-Croisement", "operator:type": "government", "source": "UNICEF,2012", "toilets:number": "0"}}, {"type": "node", "id": 2420372475, "lat": 6.1280905, "lon": 16.4944447, "tags": {"addr:city": "Boyabane", "amenity": "hospital", "capacity:beds": "0", "health_facility:type": "dispensary", "lat": "6.12806", "lon": "16.4944", "name": "PS de Boyabane", "operator:type": "government", "source": "UNICEF,2012", "toilets:number": "2"}}, {"type": "node", "id": 2420372476, "lat": 6.02122, "lon": 16.1934, "tags": {"addr:city": "Boyali Yaho", "amenity": "hospital", "capacity:beds": "2", "health_facility:type": "dispensary", "lat": "6.02122", "lon": "16.1934", "name": "PS de Boyali Yaho", "operator:type": "government", "source": "UNICEF,2012", "toilets:number": "2"}}, {"type": "node", "id": 2420714751, "lat": 6.6896206, "lon": 15.9936159, "tags": {"addr:city": "Herba", "amenity": "hospital", "capacity:beds": "2", "health_facility:type": "dispensary", "lat": "6.6896", "lon": "15.9935", "name": "PS Herba", "operator:type": "government", "source": "UNICEF,2012", "toilets:number": "2"}}, {"type": "node", "id": 2426053906, "lat": 7.4545889, "lon": 18.4419866, "tags": {"addr:city": "Gbazara", "amenity": "hospital", "capacity:beds": "2", "health_facility:type": "dispensary", "lat": "7.4544", "lon": "18.4419", "name": "Poste de sant\u00e9 Gbazara", "operator:type": "government", "source": "UNICEF,2012", "toilets:number": "1"}}, {"type": "node", "id": 2429132084, "lat": 7.527691, "lon": 17.7665394, "tags": {"addr:city": "Ouogo", "amenity": "hospital", "capacity_beds": "8", "health_facility_type": "dispensary", "healthcare": "hospital", "healthcare:speciality": "general", "lat": "7.52755", "long": "17.7666", "name": "Le Samaritain", "operator_type": "government", "source": "UNICEF,2012", "toilets_number": "2"}}, {"type": "node", "id": 2440002787, "lat": 7.2705426, "lon": 18.5824997, "tags": {"addr:city": "Bongono", "amenity": "hospital", "capacity:beds": "3", "health_facility:type": "dispensary", "lat": "7.27068", "lon": "18.5805", "name": "PS de Bongono", "operator:type": "government", "source": "UNICEF,2012", "toilets:number": "1"}}, {"type": "node", "id": 2440003877, "lat": 7.1971991, "lon": 17.6748758, "tags": {"addr:city": "Mbali", "amenity": "hospital", "capacity:beds": "4", "fixme": "Move to the right location", "health_facility:type": "dispensary", "lat": "7.198", "lon": "17.674", "name": "Poste de Sant\u00e9 de Mbali", "operator:type": "government", "source": "UNICEF,2012", "toilets:number": "2"}}, {"type": "node", "id": 2440005989, "lat": 7.1685015, "lon": 17.4249953, "tags": {"addr:city": "Bode", "amenity": "hospital", "capacity:beds": "1", "fixme": "Please, move to the correct location", "health_facility:type": "dispensary", "lat": "7.16869", "lon": "17.4234", "name": "Poste de Sant\u00e9 de Bode", "operator:type": "government", "source": "UNICEF,2012", "toilets:number": "2"}}, {"type": "node", "id": 2440005990, "lat": 7.1689126, "lon": 17.3000583, "tags": {"addr:city": "Kouki", "amenity": "hospital", "capacity:beds": "4", "fixme": "Please, move to the correct location", "health_facility:type": "dispensary", "lat": "7.1687", "lon": "17.3002", "name": "Poste de Sant\u00e9 de Kouki", "operator:type": "government", "source": "UNICEF,2012", "toilets:number": "2"}}, {"type": "node", "id": 2440007343, "lat": 7.13505, "lon": 16.9213, "tags": {"addr:city": "Centre medical", "amenity": "hospital", "capacity:beds": "120", "health_facility:type": "prefectoral_hospital", "healthcare": "hospital", "lat": "7.13505", "lon": "16.9213", "name": "Centre M\u00e9dical de Boguila", "operator:type": "government", "source": "UNICEF,2012", "toilets:number": "23"}}, {"type": "node", "id": 2440007344, "lat": 7.2227389, "lon": 16.9758293, "tags": {"addr:city": "Boyanga-Kota", "amenity": "hospital", "capacity:beds": "3", "health_facility:type": "dispensary", "lat": "7.22277", "lon": "16.9758", "name": "PS Boyanga", "operator:type": "government", "source": "UNICEF,2012", "toilets:number": "0"}}, {"type": "node", "id": 2440007345, "lat": 7.302843, "lon": 16.9946526, "tags": {"addr:city": "Sido", "amenity": "hospital", "capacity:beds": "1", "health_facility:type": "dispensary", "lat": "7.30276", "lon": "16.995", "name": "PS de Sido", "operator:type": "government", "source": "UNICEF,2012", "toilets:number": "1"}}, {"type": "node", "id": 2441042883, "lat": 7.6238506, "lon": 16.9587897, "tags": {"addr:city": "Markounda", "amenity": "hospital", "capacity_beds": "19", "fixme": "location to be found", "health_facility_type": "health_center", "lat": "7.62265", "long": "16.9598", "name": "CS de Markounda", "operator_type": "government", "source": "UNICEF,2012", "toilets_number": "4"}}, {"type": "node", "id": 2441042884, "lat": 7.6378546, "lon": 17.1364914, "tags": {"addr:city": "Bele", "amenity": "hospital", "capacity_beds": "2", "health_facility_type": "dispensary", "lat": "7.63757", "long": "17.1388", "name": "PS de Bel\u00e9", "operator_type": "government", "source": "UNICEF,2012", "toilets_number": "1"}}, {"type": "node", "id": 2441042887, "lat": 7.6414646, "lon": 17.0421914, "tags": {"addr:city": "Oda-Kota", "amenity": "hospital", "capacity_beds": "0", "fixme": "location to be found", "health_facility_type": "dispensary", "lat": "7.64118", "long": "17.0445", "name": "PS de Oda-Kete", "operator_type": "government", "source": "UNICEF,2012", "toilets_number": "1"}}, {"type": "node", "id": 2441469955, "lat": 7.5908987, "lon": 16.5594651, "tags": {"amenity": "hospital", "capacity_beds": "0", "health_facility_type": "dispensary", "is_in:city": "Betoko", "lat": "7.59081", "lon": "16.5599", "name": "H\u00f4pital de B\u00e9toko", "operator:type": "government", "source": "UNICEF,2012", "toilets_number": "1"}}, {"type": "node", "id": 2517058887, "lat": 6.658062, "lon": 17.4271376, "tags": {"addr:city": "Bokini", "amenity": "hospital", "capacity:beds": "0", "health_facility:type": "health_center", "lat": "6.65811", "lon": "17.4271", "name": "CS Bokini", "operator:type": "government", "source": "UNICEF,2012", "toilets:number": "0"}}, {"type": "node", "id": 2517058889, "lat": 6.47694, "lon": 17.4558, "tags": {"addr:city": "Bossangoa", "amenity": "hospital", "capacity_beds": "2", "health_facility_type": "health_center", "healthcare": "hospital", "lat": "6.47694", "long": "17.4558", "name": "CS de Pierre Djongobe", "operator:type": "private", "source": "UNICEF,2012", "toilets_number": "2"}}, {"type": "node", "id": 2517058895, "lat": 6.4891893, "lon": 17.4519532, "tags": {"addr:city": "Bossangoa", "amenity": "hospital", "capacity_beds": "50", "health_facility_type": "regional_hospital", "healthcare": "hospital", "lat": "6.48912", "long": "17.4522", "name": "H\u00f4pital R\u00e9gional de Bossa", "operator:type": "government", "source": "UNICEF,2012", "toilets_number": "7"}}, {"type": "node", "id": 2517058897, "lat": 6.6027, "lon": 17.4354, "tags": {"addr:city": "Gazouiene", "amenity": "hospital", "capacity:beds": "1", "health_facility:type": "dispensary", "lat": "6.6027", "lon": "17.4354", "name": "PS Gazouiene", "operator:type": "government", "source": "UNICEF,2012", "toilets:number": "0"}}, {"type": "node", "id": 2521654761, "lat": 5.1783589, "lon": 10.389764, "tags": {"amenity": "hospital", "name": "Clinique La Life"}}, {"type": "node", "id": 2589437009, "lat": 5.9585434, "lon": 15.525992, "tags": {"addr:city": "Yole", "amenity": "hospital", "capacity_beds": "0", "health_facility_type": "dispensary", "lat": "5.95849", "long": "15.526", "name": "Enfant J\u00e9sus Yole", "operator:type": "private", "source": "UNICEF,2012", "toilets_number": "1"}}, {"type": "node", "id": 2590268984, "lat": 6.8140106, "lon": 16.9832462, "tags": {"addr:city": "Bodouk", "amenity": "hospital", "capacity:beds": "1", "fixme": "Move to the right location", "health_facility:type": "dispensary", "lat": "6.8136", "lon": "16.9823", "name": "PS Bodouk", "operator:type": "government", "source": "UNICEF,2012", "toilets:number": "1"}}, {"type": "node", "id": 2590268985, "lat": 6.7092491, "lon": 17.091406, "tags": {"addr:city": "Gbade", "amenity": "hospital", "capacity_beds": "1", "fixme": "Move to the right location", "health_facility_type": "dispensary", "lat": "6.7094", "long": "17.0912", "name": "PS Gbade", "operator:type": "government", "source": "UNICEF,2012", "toilets_number": "2"}}, {"type": "node", "id": 2590317846, "lat": 6.76414, "lon": 17.4044, "tags": {"addr:city": "L\u00e9r\u00e9", "amenity": "hospital", "capacity:beds": "0", "fixme": "move to the right location", "health_facility:type": "health_center", "lat": "6.76414", "lon": "17.4044", "name": "Centre de Sant\u00e9 de L\u00e9r\u00e9", "operator:type": "government", "source": "UNICEF,2012", "toilets:number": "0"}}, {"type": "node", "id": 2590317860, "lat": 6.8142245, "lon": 17.2283909, "tags": {"addr:city": "Bomboye", "amenity": "hospital", "capacity:beds": "5", "fixme": "move to the right location", "health_facility:type": "health_center", "lat": "6.81402", "lon": "17.2295", "name": "Centre de Sant\u00e9 de Gbangayanga", "operator:type": "government", "source": "UNICEF,2012", "toilets:number": "0"}}, {"type": "node", "id": 2590317867, "lat": 6.8977009, "lon": 17.5566015, "tags": {"addr:city": "Boding-Mon", "amenity": "hospital", "capacity:beds": "3", "health_facility:type": "dispensary", "lat": "6.89779", "lon": "17.5566", "name": "Poste de Sant\u00e9 de Boding-Mon", "operator:type": "government", "source": "UNICEF,2012", "toilets:number": "0"}}, {"type": "node", "id": 2590317877, "lat": 6.8119063, "lon": 17.2334127, "tags": {"addr:city": "Bofiota", "amenity": "hospital", "capacity:beds": "1", "fixme": "move to the right location", "health_facility:type": "dispensary", "lat": "6.812", "lon": "17.2333", "name": "Poste de Sant\u00e9 de Bofiota", "operator:type": "government", "source": "UNICEF,2012", "toilets:number": "0"}}, {"type": "node", "id": 2590317890, "lat": 6.7525195, "lon": 17.3029102, "tags": {"addr:city": "Bokini", "amenity": "hospital", "capacity:beds": "0", "fixme": "move to the right location", "health_facility:type": "dispensary", "lat": "6.75222", "lon": "17.3028", "name": "Poste de Sant\u00e9 de Bokini", "operator:type": "government", "source": "UNICEF,2012", "toilets:number": "0"}}, {"type": "node", "id": 2590317902, "lat": 6.8176899, "lon": 17.3761754, "tags": {"addr:city": "Bokongo", "amenity": "hospital", "capacity:beds": "0", "health_facility:type": "dispensary", "lat": "6.81685", "lon": "17.3748", "name": "Poste de Sant\u00e9 de Bokongo", "operator:type": "government", "source": "UNICEF,2012", "toilets:number": "0"}}, {"type": "node", "id": 2590317910, "lat": 6.9940278, "lon": 17.2725979, "tags": {"addr:city": "Bonanse", "amenity": "hospital", "capacity_beds": "0", "fixme": "move to the right location", "health_facility_type": "dispensary", "healthcare": "hospital", "lat": "6.99394", "long": "17.2726", "name": "Poste de Sant\u00e9 de Bonanse", "operator:type": "government", "source": "UNICEF,2012", "toilets_number": "1"}}, {"type": "node", "id": 2590317918, "lat": 6.8154805, "lon": 17.2283559, "tags": {"addr:city": "Bossio", "amenity": "hospital", "capacity:beds": "1", "health_facility:type": "dispensary", "lat": "6.81598", "lon": "17.2283", "name": "Poste de Sant\u00e9 de Bossio", "operator:type": "government", "source": "UNICEF,2012", "toilets:number": "0"}}, {"type": "node", "id": 2590317926, "lat": 6.7798574, "lon": 17.2730202, "tags": {"addr:city": "Kollo-Gassa", "amenity": "hospital", "capacity:beds": "0", "fixme": "move to the right location", "health_facility:type": "dispensary", "lat": "6.77945", "lon": "17.2731", "name": "Poste de Sant\u00e9 de Kollo-Gassa", "operator:type": "government", "source": "UNICEF,2012", "toilets:number": "0"}}, {"type": "node", "id": 2590353154, "lat": 6.7900533, "lon": 17.639222, "tags": {"addr:city": "Bounsouma", "amenity": "hospital", "capacity:beds": "1", "health_facility:type": "health_center", "lat": "6.79028", "lon": "17.6389", "name": "Centre de Sant\u00e9 de Bounsouma", "operator:type": "government", "source": "UNICEF,2012", "toilets:number": "0"}}, {"type": "node", "id": 2590353163, "lat": 6.9937928, "lon": 17.7959519, "tags": {"addr:city": "Kakouda-Bede", "amenity": "hospital", "capacity:beds": "0", "fixme": "Move to right location", "health_facility:type": "dispensary", "lat": "6.99364", "lon": "17.7958", "name": "Poste de Sant\u00e9 de Kakouda-Bede", "operator:type": "government", "source": "UNICEF,2012", "toilets:number": "2"}}, {"type": "node", "id": 2590353168, "lat": 6.78715, "lon": 17.6371, "tags": {"addr:city": "Bodora", "amenity": "hospital", "capacity:beds": "1", "health_facility:type": "dispensary", "lat": "6.78715", "lon": "17.6371", "name": "Poste de Sant\u00e9 de Bodora", "operator:type": "government", "source": "UNICEF,2012", "toilets:number": "0"}}, {"type": "node", "id": 2590484752, "lat": 6.9498106, "lon": 18.5048514, "tags": {"addr:city": "Boya 1", "amenity": "hospital", "capacity:beds": "0", "health_facility:type": "dispensary", "lat": "6.94975", "lon": "18.505", "name": "Poste de Sant\u00e9 de Boya", "operator:type": "government", "source": "UNICEF,2012", "toilets:number": "1"}}, {"type": "node", "id": 2590484753, "lat": 6.9010931, "lon": 18.3068416, "tags": {"addr:city": "Gbakaya", "amenity": "hospital", "capacity:beds": "2", "health_facility:type": "dispensary", "lat": "6.90106", "lon": "18.3068", "name": "Poste de Sant\u00e9 de Gbakaya", "operator:type": "government", "source": "UNICEF,2012", "toilets:number": "1"}}, {"type": "node", "id": 2590484754, "lat": 6.8465811, "lon": 18.2826897, "tags": {"addr:city": "Ngatoua", "amenity": "hospital", "capacity:beds": "7", "fixme": "Move to the right place", "health_facility:type": "dispensary", "lat": "6.84653", "lon": "18.2828", "name": "Poste de Sant\u00e9 de Ngatoua", "operator:type": "government", "source": "UNICEF,2012", "toilets:number": "2"}}, {"type": "node", "id": 2590484755, "lat": 6.8025512, "lon": 18.4775338, "tags": {"addr:city": "Songbafo", "amenity": "hospital", "capacity:beds": "0", "fixme": "Move to the right place", "health_facility:type": "dispensary", "lat": "6.80256", "lon": "18.4776", "name": "Poste de Sant\u00e9 de Sogbafo", "operator:type": "government", "source": "UNICEF,2012", "toilets:number": "1"}}, {"type": "node", "id": 2590491422, "lat": 6.6426, "lon": 18.3474, "tags": {"addr:city": "Bongo", "amenity": "hospital", "capacity:beds": "0", "health_facility:type": "dispensary", "lat": "6.6426", "lon": "18.3474", "name": "Poste de Sant\u00e9 de Bongo", "operator:type": "government", "source": "UNICEF,2012", "toilets:number": "1"}}, {"type": "node", "id": 2590491423, "lat": 6.3473433, "lon": 18.3573034, "tags": {"addr:city": "Gbangola", "amenity": "hospital", "capacity:beds": "1", "health_facility:type": "dispensary", "lat": "6.34736", "lon": "18.3573", "name": "Poste de Sant\u00e9 de Gbangola", "operator:type": "government", "source": "UNICEF,2012", "toilets:number": "1"}}, {"type": "node", "id": 2590515742, "lat": 6.50583, "lon": 18.2786, "tags": {"addr:city": "Bouca", "amenity": "hospital", "capacity:beds": "31", "health_facility:type": "health_center", "healthcare": "hospital", "lat": "6.50583", "lon": "18.2786", "name": "Centre de Sant\u00e9 de Bouca", "operator:type": "government", "source": "UNICEF,2012", "toilets:number": "0"}}, {"type": "node", "id": 2590515744, "lat": 6.46683, "lon": 18.0563, "tags": {"addr:city": "Bobo", "amenity": "hospital", "capacity:beds": "0", "health_facility:type": "dispensary", "lat": "6.46683", "lon": "18.0563", "name": "Poste de Sant\u00e9 de Bobo", "operator:type": "government", "source": "UNICEF,2012", "toilets:number": "0"}}, {"type": "node", "id": 2590515745, "lat": 6.6349572, "lon": 18.158865, "tags": {"addr:city": "Wangue", "amenity": "hospital", "capacity:beds": "1", "health_facility:type": "dispensary", "lat": "6.63497", "lon": "18.1589", "name": "Poste de Sant\u00e9 de Wangue 1", "operator:type": "government", "source": "UNICEF,2012", "toilets:number": "1"}}, {"type": "node", "id": 2590585633, "lat": 6.5663063, "lon": 16.9051677, "tags": {"addr:city": "Bangba", "amenity": "hospital", "capacity:beds": "0", "health_facility:type": "dispensary", "lat": "6.56628", "lon": "16.9052", "name": "Poste de Sant\u00e9 de Bangba", "operator:type": "government", "source": "UNICEF,2012", "toilets:number": "0"}}, {"type": "node", "id": 2590585634, "lat": 6.3472603, "lon": 16.8933811, "tags": {"addr:city": "Bossa", "amenity": "hospital", "capacity:beds": "0", "fixme": "Move to the right position", "health_facility:type": "dispensary", "healthcare": "hospital", "lat": "6.34719", "lon": "16.8933", "name": "Poste de Sant\u00e9 de Bossa", "operator:type": "government", "source": "UNICEF,2012", "toilets:number": "0"}}, {"type": "node", "id": 2590609613, "lat": 7.2553555, "lon": 18.8454794, "tags": {"addr:city": "Ouandago", "amenity": "hospital", "capacity:beds": "9", "health_facility:type": "health_center", "lat": "7.25534", "lon": "18.8459", "name": "Poste de Sant\u00e9 de Outa", "operator:type": "government", "source": "UNICEF,2012", "toilets:number": "2"}}, {"type": "node", "id": 2590668545, "lat": 7.11442, "lon": 19.0275, "tags": {"addr:city": "Patcho", "amenity": "hospital", "capacity_beds": "4", "health_facility_type": "dispensary", "lat": "7.11442", "long": "19.0275", "name": "PS de Patcho", "operator:type": "government", "source": "UNICEF,2012", "toilets_number": "2"}}, {"type": "node", "id": 2590840279, "lat": 5.83061, "lon": 15.8657, "tags": {"addr:city": "Koursou", "addr:full": "NANA-MAMBERE, Bouar, Doaka-Koursou, Koursou", "amenity": "hospital", "capacity:beds": "0", "health_facility:type": "dispensary", "name": "PS Koursou", "operator:type": "government", "source": "UNICEF", "toilets:number": "1"}}, {"type": "node", "id": 2611524329, "lat": 8.5841353, "lon": 16.0830207, "tags": {"amenity": "hospital", "health_facility:type": "hospital", "name": "Centre de sant\u00e9 de 15ans", "operator:type": "public", "source": "bing"}}, {"type": "node", "id": 2661637074, "lat": 4.9362923, "lon": 15.8767527, "tags": {"addr:city": "Carnot", "addr:full": "MAMBERE-KADEI, Carnot, Carnot, Carnot, Kpogom", "amenity": "hospital", "capacity:beds": "83", "health_facility:type": "prefectoral_hospital", "name": "H\u00f4pital Pr\u00e9fectoral de Carnot", "operator:type": "government", "source": "UNICEF", "toilets:number": "12"}}, {"type": "node", "id": 2665815209, "lat": 6.8082204, "lon": 15.5404154, "tags": {"addr:city": "Bomari 2", "addr:full": "OUHAM-PENDE, Bocaranga, Bocaranga, Bomari 2", "amenity": "hospital", "capacity:beds": "2", "health_facility:type": "dispensary", "name": "Bomari 2", "operator:type": "government", "source": "UNICEF", "toilets:number": "0"}}, {"type": "node", "id": 2667915528, "lat": 6.3309818, "lon": 19.9255866, "tags": {"addr:city": "Saboyombo", "addr:full": "OUAKA, Bakala, Koudoubego, Saboyombo", "amenity": "hospital", "capacity:beds": "3", "health_facility:type": "dispensary", "name": "Poste de Sant\u00e9 de Saboyombo", "operator:type": "government", "source": "UNICEF", "toilets:number": "0"}}, {"type": "node", "id": 2669498908, "lat": 6.46038, "lon": 19.1424, "tags": {"addr:city": "Dissikou", "addr:full": "NANA-GRIBIZI, Kaga-Bandoro, Ndenga, Dissikou", "amenity": "hospital", "capacity:beds": "25", "health_facility:type": "health_center", "name": "Centre de Sant\u00e9 de Dissikou", "operator:type": "government", "source": "UNICEF", "toilets:number": "2"}}, {"type": "node", "id": 2669537543, "lat": 6.73428, "lon": 19.1144, "tags": {"addr:city": "Badia", "addr:full": "NANA-GRIBIZI, Kaga-Bandoro, Ndenga, Badia", "amenity": "hospital", "capacity:beds": "4", "health_facility:type": "dispensary", "name": "Poste de Sant\u00e9 de Badia", "operator:type": "government", "source": "UNICEF", "toilets:number": "2"}}, {"type": "node", "id": 2670707179, "lat": 5.85465, "lon": 18.3443, "tags": {"addr:city": "Gbangou", "addr:full": "OUHAM, Bouca, Fafa-Boungou, Gbangou", "amenity": "hospital", "capacity:beds": "2", "health_facility:type": "dispensary", "name": "Poste de Sant\u00e9 de Gbangou", "operator:type": "government", "source": "UNICEF", "toilets:number": "0"}}, {"type": "node", "id": 2670725531, "lat": 6.03689, "lon": 18.4038, "tags": {"addr:city": "Marali", "addr:full": "OUHAM, Bouca, Fafa-Boungou, Marali", "amenity": "hospital", "capacity:beds": "4", "health_facility:type": "health_center", "name": "Centre de Sant\u00e9 de Marali", "operator:type": "government", "source": "UNICEF", "toilets:number": "2"}}, {"type": "node", "id": 2670725532, "lat": 6.19242, "lon": 18.3642, "tags": {"addr:city": "Donzi", "addr:full": "OUHAM, Bouca, Fafa-Boungou, Donzi", "amenity": "hospital", "capacity:beds": "3", "fixme": "Could be wrong located, as Donzi seems to be about 8.5 km to the north", "health_facility:type": "dispensary", "name": "Poste de Sant\u00e9 de Donzi", "note": "Couldn't be double checked the exact position, due to lack of HiRes Bing imagery", "operator:type": "government", "source": "UNICEF", "toilets:number": "1"}}, {"type": "node", "id": 2670840590, "lat": 5.6802708, "lon": 16.6354961, "tags": {"addr:city": "Bossemptele", "addr:full": "OUHAM-PENDE, Bossemptele, Binon, Bossemptele", "amenity": "hospital", "capacity:beds": "4", "health_facility:type": "health_center", "name": "CSB de Bossemptele", "operator:type": "government", "source": "UNICEF", "toilets:number": "2"}}, {"type": "node", "id": 2671538075, "lat": 7.6992718, "lon": 16.5139982, "tags": {"addr:city": "B\u00e9dam", "addr:full": "OUHAM-PENDE, Paoua, Mia-Pende, B\u00e9dam", "amenity": "hospital", "capacity:beds": "2", "fixme": "Couldn't identified the exact location. Must be one of the 3 nearer buildings", "health_facility:type": "dispensary", "name": "Poste de Sant\u00e9 de B\u00e9dam", "operator:type": "government", "source": "UNICEF", "toilets:number": "1"}}, {"type": "node", "id": 2671538082, "lat": 7.4610791, "lon": 16.500316, "tags": {"addr:city": "B\u00e9daya", "addr:full": "OUHAM-PENDE, Paoua, Bah-Bessar, B\u00e9daya", "amenity": "hospital", "capacity:beds": "0", "fixme": "Move to the right location", "health_facility:type": "dispensary", "name": "Poste de Sant\u00e9 de B\u00e9daya", "operator:type": "government", "source": "UNICEF", "toilets:number": "1"}}, {"type": "node", "id": 2694879395, "lat": 6.6749845, "lon": 19.6219068, "tags": {"addr:city": "Blakadja", "addr:full": "NANA-GRIBIZI, Mbr\u00e8s, Mbr\u00e8s, Blakadja", "amenity": "hospital", "capacity:beds": "6", "health_facility:type": "dispensary", "name": "Poste de Sant\u00e9 de Blakadja", "operator:type": "government", "source": "UNICEF", "toilets:number": "2"}}, {"type": "node", "id": 2696621266, "lat": 4.779583, "lon": 16.702503, "tags": {"addr:city": "Gadzi centre", "addr:full": "MAMBERE-KADEI, Gadzi, Topia, Gadzi centre", "amenity": "hospital", "capacity:beds": "3", "health_facility:type": "health_center", "healthcare": "hospital", "name": "Centre de Sant\u00e9 de Gadzi", "operator:type": "government", "source": "UNICEF", "toilets:number": "1"}}, {"type": "node", "id": 3810629796, "lat": 5.6544123, "lon": 10.6122833, "tags": {"addr:city": "Kouoptamo", "amenity": "hospital", "emergency": "yes", "name": "Hopital de District de kouoptamo", "operator": "MINSANTE"}}, {"type": "node", "id": 3898139189, "lat": 7.9188201, "lon": 16.6449338, "tags": {"amenity": "hospital", "name": "H\u00f4pital de Gor\u00e9"}}, {"type": "node", "id": 4404298342, "lat": 5.4347125, "lon": 10.4190031, "tags": {"addr:city": "Mbouo, Bandjoun, Bafoussam", "amenity": "hospital", "name": "H\u00f4pital Protestant de Mbouo"}}, {"type": "node", "id": 4883735221, "lat": 3.8121305, "lon": 11.502291, "tags": {"addr:street": "BP. 35227 Yaound\u00e9", "amenity": "hospital", "email": "fondationmariarosansisim@gmaol.com", "healthcare": "hospital", "name": "Fondation m\u00e9dico-chirurgicale Maria Rosa Nsisim", "phone": "222319428"}}, {"type": "node", "id": 4893220623, "lat": 9.2801823, "lon": 12.443967, "tags": {"amenity": "hospital", "name": "Nassarawo Clinic", "name:en": "Nassarawo Clinic"}}, {"type": "node", "id": 4893220626, "lat": 9.4155927, "lon": 12.1449091, "tags": {"amenity": "hospital", "name": "Demsa LGA", "name:en": "Demsa LGA"}}, {"type": "node", "id": 4893220628, "lat": 9.4525233, "lon": 12.0463318, "tags": {"amenity": "hospital", "name": "Nassarawo Demsa Health Clinic", "name:en": "Nassarawo Demsa Health Clinic"}}, {"type": "node", "id": 5330605521, "lat": 9.52179, "lon": 16.35439, "tags": {"amenity": "hospital", "name": "Centre de sant\u00e9 de Ninga"}}, {"type": "node", "id": 5686192689, "lat": 3.1824368, "lon": 18.6235844, "tags": {"amenity": "hospital", "health_facility:type": "health_centre", "name": "Centre de Sant\u00e9 Int\u00e9gr\u00e9", "short_name": "CSI"}}, {"type": "node", "id": 5695789322, "lat": 3.8636288, "lon": 11.4992709, "tags": {"addr:housenumber": "562", "addr:postcode": "12340", "addr:street": "Rue 3.387", "amenity": "hospital", "email": "gtlabotsinga@yahoo.fr", "healthcare": "hospital", "name": "GT labo", "name:fr": "GT labo Melen", "phone": "242202792", "website": "http://www.gtlabo.net"}}, {"type": "node", "id": 6057170485, "lat": 8.6672009, "lon": 15.4104599, "tags": {"amenity": "hospital", "name": "Hopital de district de Beinamar"}}, {"type": "node", "id": 6308090915, "lat": 3.8689298, "lon": 11.5127036, "tags": {"amenity": "hospital", "healthcare": "hospital", "name": "Croix Rouge Camerounaise", "source": "sobzeros"}}, {"type": "node", "id": 6478250887, "lat": 7.7706107, "lon": 15.3563869, "tags": {"amenity": "hospital", "name": "HDT TBRO"}}, {"type": "node", "id": 6478251426, "lat": 7.7949481, "lon": 15.4440629, "tags": {"amenity": "hospital", "name": "CSI DE MBAILAINDE (PNDP)", "operator": "SALIHOU"}}, {"type": "node", "id": 6731429428, "lat": 9.3031446, "lon": 13.3916596, "tags": {"amenity": "hospital", "healthcare": "hospital", "name": "H\u00f4pital de la Caisse", "name:fr": "H\u00f4pital de la Caisse"}}, {"type": "node", "id": 6745200087, "lat": 5.4444678, "lon": 10.3886389, "tags": {"amenity": "hospital", "name": "H\u00f4pital Catholique de Djunang"}}, {"type": "node", "id": 6769694063, "lat": 9.3527526, "lon": 13.4220609, "tags": {"amenity": "hospital", "name": "Centre De Sant\u00e9 Int\u00e9gr\u00e9 De Takasko"}}, {"type": "node", "id": 6769694064, "lat": 9.347511, "lon": 13.4147197, "tags": {"amenity": "hospital", "name": "Centre M\u00e9dical D'arrondissement De Lainde"}}, {"type": "node", "id": 7001027686, "lat": 9.3113188, "lon": 13.8683954, "tags": {"amenity": "hospital", "healthcare": "hospital", "name": "CSI"}}, {"type": "node", "id": 7153637348, "lat": 3.8442102, "lon": 11.4531028, "tags": {"amenity": "hospital", "contact:phone": "(+237) 699025915", "name": "Le Samaritain Plus"}}, {"type": "node", "id": 7171631844, "lat": 3.8824412, "lon": 11.5205968, "tags": {"amenity": "hospital", "healthcare": "hospital", "name": "abe"}}, {"type": "node", "id": 7371472722, "lat": 5.1698512, "lon": 18.8601217, "tags": {"amenity": "hospital", "health_facility:type": "health_center"}}, {"type": "node", "id": 7636738133, "lat": 4.0305601, "lon": 10.5733662, "tags": {"amenity": "hospital", "healthcare": "hospital"}}, {"type": "node", "id": 7652716534, "lat": 6.4952867, "lon": 17.3456714, "tags": {"addr:city": "Bossangoa", "amenity": "hospital", "capacity_beds": "3", "health_facility_type": "health_center", "healthcare": "hospital", "name": "CS Ngouwe", "operator:type": "private", "source": "UNICEF,2012", "toilets_number": "1"}}, {"type": "node", "id": 7710550074, "lat": 4.3509318, "lon": 10.4214541, "tags": {"amenity": "hospital", "healthcare": "hospital", "healthcare:speciality": "general", "name": "Bikob Former hospital", "operator": "Relic"}}, {"type": "node", "id": 7801588585, "lat": 3.5161856, "lon": 11.5144111, "tags": {"amenity": "hospital", "name": "H\u00f4pital Rosaire", "name:fr": "H\u00f4pital Rosaire"}}, {"type": "node", "id": 7801589185, "lat": 3.5198787, "lon": 11.5042933, "tags": {"addr:postcode": "237", "amenity": "hospital", "building": "yes", "healthcare": "hospital", "name": "BAM", "name:en": "Mbalmayo district hospital", "name:fr": "H\u00f4pital de district de mbalmayo"}}, {"type": "node", "id": 7806117185, "lat": 2.7113427, "lon": 13.02093, "tags": {"amenity": "hospital", "name": "MELLEN ZAMANE"}}, {"type": "node", "id": 7820264208, "lat": 9.2373614, "lon": 11.9366747, "tags": {"amenity": "hospital", "healthcare": "hospital"}}, {"type": "node", "id": 7822849628, "lat": 8.7674018, "lon": 12.4488947, "tags": {"addr:lga": "jada", "addr:state": "adamawa", "addr:ward": "mapea", "amenity": "hospital", "category": "heath post", "healthcare": "hospital", "name": "tinyema heath post", "ownership": "public", "place": "tinyema heath post", "type": "primary"}}, {"type": "node", "id": 7822869886, "lat": 8.7518082, "lon": 12.2833882, "tags": {"addr:lga": "jada", "addr:state": "adamawa", "addr:ward": "mayo kala", "amenity": "hospital", "category": "heath post", "healthcare": "hospital", "name": "gangkiri", "ownership": "state", "type": "primari"}}, {"type": "node", "id": 7823655310, "lat": 8.7520392, "lon": 12.0908576, "tags": {"addr:lga": "jada", "addr:state": "adamawa", "addr:ward": "mayo kala", "amenity": "hospital", "category": "heath post", "healthcare": "hospital", "name": "gangnai heath post", "ownership": "state", "type": "primary"}}, {"type": "node", "id": 7824376674, "lat": 8.7029125, "lon": 12.0395014, "tags": {"addr:lga": "jada", "addr:state": "adamawa", "addr:ward": "Mbullo", "amenity": "hospital", "category": "unknown", "healthcare": "hospital", "name": "gang alada clinic", "ownership": "state", "type": "primary"}}, {"type": "node", "id": 7826085445, "lat": 8.6850105, "lon": 11.9274977, "tags": {"addr:lga": "jada", "addr:state": "adamawa", "addr:ward": "Mbullo", "amenity": "hospital", "category": "heath post", "healthcare": "hospital", "name": "gangsifa primary heath", "ownership": "state primary"}}, {"type": "node", "id": 7826112671, "lat": 8.7223312, "lon": 12.0556674, "tags": {"addr:lga": "jada", "addr:state": "adamawa", "addr:ward": "Mbullo", "amenity": "hospital", "category": "heath post", "healthcare": "hospital", "name": "komsiri heath post", "ownership": "state", "type": "primary"}}, {"type": "node", "id": 7826205325, "lat": 8.7040997, "lon": 11.9990819, "tags": {"addr:lga": "jada", "addr:state": "adamawa", "addr:ward": "Mbullo", "amenity": "hospital", "category": "primary heath center", "healthcare": "hospital", "name": "Mbangan tiren heath post", "ownership": "private", "type": "primary"}}, {"type": "node", "id": 7826391371, "lat": 8.6548875, "lon": 11.9013477, "tags": {"addr:lga": "jada", "addr:state": "adamawa", "addr:ward": "Mbullo", "amenity": "hospital", "category": "heath post", "healthcare": "hospital", "name": "Mbulo primary heath center", "ownership": "state", "type": "primary"}}, {"type": "node", "id": 7826392263, "lat": 8.6733599, "lon": 12.0355937, "tags": {"addr:lga": "jada", "addr:state": "adamawa", "addr:ward": "Mbullo", "amenity": "hospital", "category": "heath post", "healthcare": "hospital", "name": "polo dispensary", "ownership": "state primary", "type": "primary"}}, {"type": "node", "id": 7826478307, "lat": 8.6407236, "lon": 12.1611798, "tags": {"addr:lga": "jada", "addr:state": "adamawa", "addr:ward": "nyibago", "amenity": "hospital", "category": "heath post", "healthcare": "hospital", "name": "timkola heath post", "ownership": "state", "type": "primary"}}, {"type": "node", "id": 7827701082, "lat": 8.6425705, "lon": 12.1081959, "tags": {"addr:lga": "jada", "addr:state": "adamawa", "addr:ward": "Nyibago", "amenity": "hospital", "category": "primary heath clinic", "healthcare": "hospital", "name": "boro heath post", "ownership": "state", "type": "primary"}}, {"type": "node", "id": 7827780468, "lat": 8.5770969, "lon": 12.1335176, "tags": {"addr:country": "NG", "addr:lga": "jada", "addr:state": "adamawa", "addr:ward": "nyigabo", "amenity": "hospital", "category": "primary heath clinic", "healthcare": "hospital", "name": "dashen heath post", "ownership": "private", "type": "primary"}}, {"type": "node", "id": 7827882820, "lat": 8.6148183, "lon": 12.1382809, "tags": {"addr:lga": "jada", "addr:ward": "Nyibago", "amenity": "hospital", "category": "primary heath clinic", "healthcare": "hospital", "name": "gang abdu primary heath clinic", "ownership": "state"}}, {"type": "node", "id": 7827897631, "lat": 8.4463587, "lon": 12.2950883, "tags": {"addr:country": "NG", "addr:lga": "jada", "addr:state": "adamawa", "addr:ward": "Nyabago", "amenity": "hospital", "category": "heath post", "healthcare": "hospital", "name": "duna heath post", "ownership": "private"}}, {"type": "node", "id": 7827906511, "lat": 8.69707, "lon": 12.2382438, "tags": {"addr:country": "NG", "addr:lga": "JADA", "addr:ward": "Nyibago", "amenity": "hospital", "category": "heath post", "healthcare": "hospital", "name": "missionary dispensary dashen", "ownership": "dashen"}}, {"type": "node", "id": 7829679082, "lat": 9.4117034, "lon": 11.9948109, "tags": {"addr:district": "demsa", "addr:state": "adamawa", "addr:ward": "dong", "amenity": "hospital", "healthcare": "hospital", "name": "bolon health", "ownership": "others", "type": "primary"}}, {"type": "node", "id": 7829748620, "lat": 9.4116742, "lon": 11.9935234, "tags": {"addr:district": "demsa", "addr:state": "adamawa", "addr:ward": "dong", "amenity": "hospital", "healthcare": "hospital", "name": "dong health clinic", "ownership": "state ministry", "type": "primary"}}, {"type": "node", "id": 7830495196, "lat": 9.4547968, "lon": 12.0625707, "tags": {"addr:district": "Demsa", "addr:state": "adamawa", "addr:ward": "dwam", "amenity": "hospital", "healthcare": "hospital", "name": "dowaya health clinic", "ownership": "state ministry", "type": "primary"}}, {"type": "node", "id": 7834483548, "lat": 9.3382823, "lon": 11.8628487, "tags": {"addr:district": "demsa", "addr:state": "adamawa", "addr:ward": "kpamsu", "amenity": "hospital", "healthcare": "hospital", "name": "Tashan Gurgu Health Post", "ownership": "state primary", "type": "primary"}}, {"type": "node", "id": 7834548346, "lat": 9.3377927, "lon": 11.8619734, "tags": {"addr:district": "demsa", "addr:state": "adamawa", "addr:ward": "kpasham", "amenity": "hospital", "healthcare": "hospital", "name": "Tashan Gurugu Health Post", "ownership": "others", "type": "primary"}}, {"type": "node", "id": 7834733884, "lat": 9.5089045, "lon": 12.2120335, "tags": {"addr:district": "demsa", "addr:state": "adamawa", "addr:ward": "Mbula", "amenity": "hospital", "healthcare": "hospital", "name": "Ngungwaling Health Post", "ownership": "state primary", "type": "primary"}}, {"type": "node", "id": 7836128399, "lat": 9.9360733, "lon": 13.9314124, "tags": {"amenity": "hospital", "category": "unknown", "healthcare": "hospital", "name": "wuro gende", "ownership": "private", "type": "primary"}}, {"type": "node", "id": 7836131103, "lat": 9.8900597, "lon": 12.204239, "tags": {"amenity": "hospital", "category": "primary heath clinic", "healthcare": "hospital", "name": "wuro ladde heath clinic", "ownership": "state", "type": "primary"}}, {"type": "node", "id": 7836915469, "lat": 9.6509608, "lon": 11.8104031, "tags": {"amenity": "hospital", "category": "unknown", "healthcare": "hospital", "name": "faith clinic lafiya", "ownership": "state", "state": "ADW", "type": "primary"}}, {"type": "node", "id": 7836948885, "lat": 9.5894743, "lon": 11.9155965, "tags": {"amenity": "hospital", "category": "primay health center", "healthcare": "hospital", "name": "savannah health facility", "ownership": "state", "type": "primary"}}, {"type": "node", "id": 7836992511, "lat": 9.6456646, "lon": 11.8154376, "tags": {"amenity": "hospital", "healthcare": "hospital", "name": "lafiya primary heath care", "operator": "Primary", "operator:type": "Others", "type": "primary"}}, {"type": "node", "id": 7837004300, "lat": 9.6589694, "lon": 11.8206306, "tags": {"amenity": "hospital", "category": "heath post", "healthcare": "hospital", "name": "NGbobenge heath post", "type": "primary"}}, {"type": "node", "id": 7837031250, "lat": 9.6029895, "lon": 11.7901796, "tags": {"amenity": "hospital", "category": "primary heath center", "healthcare": "hospital", "name": "bafyo primary heath center", "ownership": "state", "type": "primary"}}, {"type": "node", "id": 7837838957, "lat": 9.6126684, "lon": 11.6572812, "tags": {"amenity": "hospital", "category": "heath post", "healthcare": "hospital", "name": "tipto maternity and child heath", "ownership": "state", "type": "primary"}}, {"type": "node", "id": 7837894075, "lat": 9.5106572, "lon": 11.9287105, "tags": {"amenity": "hospital", "category": "primary clinic", "healthcare": "hospital", "name": "opalo primary heath clinic", "ownership": "private", "type": "primary"}}, {"type": "node", "id": 7837928945, "lat": 9.5741569, "lon": 11.7610483, "tags": {"amenity": "hospital", "category": "heath center", "healthcare": "hospital", "name": "Rigange primary heath center", "ownership": "private", "type": "primary"}}, {"type": "node", "id": 7838094758, "lat": 9.5539859, "lon": 11.7310696, "tags": {"amenity": "hospital", "category": "unknown", "healthcare": "hospital", "name": "tito asibiti", "ownership": "private", "type": "primary"}}, {"type": "node", "id": 7838094873, "lat": 9.4826896, "lon": 11.4743771, "tags": {"amenity": "hospital", "category": "heath post", "country": "NIG", "healthcare": "hospital", "name": "bunary heath post", "ownership": "state", "type": "primary"}}, {"type": "node", "id": 7838124823, "lat": 9.5032111, "lon": 11.4687704, "tags": {"amenity": "hospital", "category": "primary heath clinic", "healthcare": "hospital", "name": "balaifi heath clinic", "ownership": "state", "type": "primary"}}, {"type": "node", "id": 7838141410, "lat": 9.436946, "lon": 11.5299899, "tags": {"amenity": "hospital", "category": "heath post", "healthcare": "hospital", "name": "dallum dispensary", "ownership": "state", "type": "primary"}}, {"type": "node", "id": 7838153535, "lat": 9.537418, "lon": 11.6322464, "tags": {"amenity": "hospital", "category": "heath post", "country": "NIG", "healthcare": "hospital", "name": "Gwei heath post", "ownership": "state", "type": "primary"}}, {"type": "node", "id": 7838186141, "lat": 9.3323756, "lon": 12.0013357, "tags": {"amenity": "hospital", "healthcare": "hospital", "name": "Kedemure Primary Health Center", "ownership": "others", "state": "adamawa", "type": "primary"}}, {"type": "node", "id": 7838229882, "lat": 9.2868542, "lon": 11.9913378, "tags": {"amenity": "hospital", "healthcare": "hospital", "name": "Lupanga Health Post", "ownership": "state primary", "state": "adamawa", "type": "primary"}}, {"type": "node", "id": 7839074870, "lat": 9.6038754, "lon": 11.5194783, "tags": {"amenity": "hospital", "category": "heath post", "country": "NIG", "healthcare": "hospital", "name": "maitunku primary heath post", "ownership": "private", "type": "primary"}}, {"type": "node", "id": 7839128935, "lat": 9.5337443, "lon": 11.6071181, "tags": {"amenity": "hospital", "category": "primary heath center", "healthcare": "hospital", "name": "suwa primary heath center", "ownership": "state", "type": "prmary"}}, {"type": "node", "id": 7839492002, "lat": 9.3073231, "lon": 12.0240689, "tags": {"amenity": "hospital", "healthcare": "hospital", "name": "Wuro Bakumbo Health Post", "ownership": "state primary", "state": "adamawa", "type": "primary"}}, {"type": "node", "id": 7840106859, "lat": 9.2174876, "lon": 12.6628648, "tags": {"amenity": "hospital", "healthcare": "hospital", "name": "Fufore Cottage Hospital", "ownership": "state prmary", "state": "adamawa", "type": "primary"}}, {"type": "node", "id": 7844263663, "lat": 9.6632617, "lon": 13.2237585, "tags": {"amenity": "hospital", "category": "heath post", "country": "NIG", "healthcare": "hospital", "name": "Dot center", "ownership": "others", "state": "adamawa", "type": "primary"}}, {"type": "node", "id": 7844303587, "lat": 9.5608152, "lon": 13.1655926, "tags": {"amenity": "hospital", "category": "primary heath center", "country": "NIG", "healthcare": "hospital", "name": "jamtari hetath center", "ownership": "others", "state": "adamawa", "type": "primary"}}, {"type": "node", "id": 7844421447, "lat": 9.9684696, "lon": 13.2807283, "tags": {"amenity": "hospital", "category": "primary heath clinic", "country": "NG", "healthcare": "hospital", "name": "ludga maternity and child heath", "ownership": "others"}}, {"type": "node", "id": 7844427934, "lat": 9.5735572, "lon": 13.1074032, "tags": {"amenity": "hospital", "category": "heath post", "country": "NG", "healthcare": "hospital", "name": "dispensary wuro bamadi", "ownership": "others", "type": "primary"}}, {"type": "node", "id": 7844444757, "lat": 9.6499711, "lon": 13.1031918, "tags": {"amenity": "hospital", "category": "primaruy heath clinic", "healthcare": "hospital", "name": "konkol maternity clinic", "ownership": "state"}}, {"type": "node", "id": 7844483925, "lat": 9.9743205, "lon": 13.2266831, "tags": {"amenity": "hospital", "category": "heath post", "country": "NG", "healthcare": "hospital", "name": "jaba jaba heath clinic", "ownership": "others"}}, {"type": "node", "id": 7844487959, "lat": 9.0315112, "lon": 12.2087569, "tags": {"amenity": "hospital", "healthcare": "hospital", "name": "Kabilo Health Clinic", "ownership": "state ministry", "state": "adamawa", "type": "primary"}}, {"type": "node", "id": 7844502404, "lat": 9.9936052, "lon": 13.2154498, "tags": {"amenity": "hospital", "category": "primary heath clinic", "country": "NG", "healthcare": "hospital", "name": "maiha gari maternity and heath facility", "ownership": "others", "state": "adamawa", "type": "primary"}}, {"type": "node", "id": 7844596417, "lat": 9.2262786, "lon": 12.2307807, "tags": {"amenity": "hospital", "healthcare": "hospital", "name": "Mayome Health Center", "ownership": "state primary", "state": "adamawa", "type": "primary"}}, {"type": "node", "id": 7844672028, "lat": 9.3663646, "lon": 12.6955902, "tags": {"amenity": "hospital", "healthcare": "hospital", "name": "Ba Umshe Health Post", "ownership": "state primary", "state": "adamawa", "type": "primary"}}, {"type": "node", "id": 7845738966, "lat": 9.2664263, "lon": 12.6475023, "tags": {"amenity": "hospital", "healthcare": "hospital", "name": "Dasin Hausa Primary Health Care Center", "ownership": "state primary", "state": "adamawa", "type": "primary"}}, {"type": "node", "id": 7846088743, "lat": 9.0255875, "lon": 12.3964436, "tags": {"amenity": "hospital", "healthcare": "hospital", "name": "Megaleyi", "ownership": "LGA", "state": "adamawa", "type": "primary"}}, {"type": "node", "id": 7846112950, "lat": 9.3777728, "lon": 12.8498503, "tags": {"amenity": "hospital", "healthcare": "hospital", "name": "Bilachi Primary Health Centerc", "ownership": "state primary", "state": "adamawa", "type": "primary"}}, {"type": "node", "id": 7847670524, "lat": 9.0286018, "lon": 12.3937365, "tags": {"amenity": "hospital", "healthcare": "hospital", "name": "Safatawa Health Post", "ownership": "state primary", "state": "adamawa", "type": "primary"}}, {"type": "node", "id": 7847670536, "lat": 9.0018366, "lon": 12.4010779, "tags": {"amenity": "hospital", "healthcare": "hospital", "name": "Tawa Health Post", "ownership": "state primary", "state": "adamawa", "type": "primary"}}, {"type": "node", "id": 7849425489, "lat": 8.3235782, "lon": 11.9773903, "tags": {"amenity": "hospital", "healthcare": "hospital", "name": "Timkolba Health Post", "ownership": "others", "state": "adamawa", "type": "primary"}}, {"type": "node", "id": 7849784826, "lat": 8.4573665, "lon": 12.0868236, "tags": {"amenity": "hospital", "healthcare": "hospital", "name": "College Clinic Gang Woki", "ownership": "others", "state": "adamawa", "type": "primary"}}, {"type": "node", "id": 7883272415, "lat": 8.4223241, "lon": 11.9894126, "tags": {"amenity": "hospital", "healthcare": "hospital", "name": "Davan Health Post", "ownership": "state primary", "state": "adamawa", "type": "primary"}}, {"type": "node", "id": 7883302835, "lat": 8.3995259, "lon": 11.9655107, "tags": {"amenity": "hospital", "healthcare": "hospital", "name": "Dimkuna Health Post", "ownership": "state primary", "state": "adamawa", "type": "primary"}}, {"type": "node", "id": 7883571652, "lat": 8.2289613, "lon": 12.2359769, "tags": {"amenity": "hospital", "healthcare": "hospital", "name": "Gangwoni Health Clinic", "ownership": "state primary", "state": "adamawa", "type": "primary"}}, {"type": "node", "id": 8108601617, "lat": 3.8699215, "lon": 11.5082292, "tags": {"amenity": "hospital", "healthcare": "hospital", "name": "Hygi\u00e8ne Mobile"}}, {"type": "node", "id": 8318722317, "lat": 3.7913432, "lon": 11.4459804, "tags": {"amenity": "hospital", "healthcare": "hospital", "name": "H\u00f4pital St Th\u00e9r\u00e8se de Nomayos"}}, {"type": "node", "id": 8321372518, "lat": 5.6399859, "lon": 10.3099532, "tags": {"amenity": "hospital", "name": "H\u00f4pital Ad Lucem de Mbouda", "name:en": "Ad Lucem Hospital Mbouda", "opening_hours": "24/7"}}, {"type": "node", "id": 8460263826, "lat": 3.8360396, "lon": 11.4835363, "tags": {"amenity": "hospital", "healthcare": "hospital", "name": "Q7 H\u00f4pital"}}, {"type": "node", "id": 8483585628, "lat": 5.320943, "lon": 17.0893031, "tags": {"amenity": "hospital", "name": "Yaloke secondary hospital", "source": "MSFsurvey", "source:date": "2021-02"}}, {"type": "node", "id": 8483585633, "lat": 5.2634518, "lon": 17.6363343, "tags": {"amenity": "hospital", "name": "Hopital de District Bossemb\u00e9l\u00e9", "source": "MSFsurvey", "source:date": "2021-02"}}, {"type": "node", "id": 8687829226, "lat": 0.0598306, "lon": 18.2586697, "tags": {"amenity": "hospital"}}, {"type": "node", "id": 8697384620, "lat": 5.2554321, "lon": 10.3984658, "tags": {"amenity": "hospital", "name": "CMA Bangou"}}, {"type": "node", "id": 8951441258, "lat": 4.3721742, "lon": 18.5746086, "tags": {"amenity": "hospital", "healthcare": "hospital", "name": "H\u00f4pital p\u00e9diatrique", "name:fr": "H\u00f4pital p\u00e9diatrique"}}, {"type": "node", "id": 8951524536, "lat": 4.3734072, "lon": 18.5736483, "tags": {"amenity": "hospital", "healthcare": "hospital", "name": "Institut Pasteur", "name:fr": "Institut Pasteur"}}, {"type": "node", "id": 8958138709, "lat": 4.4141224, "lon": 11.3805109, "tags": {"amenity": "hospital"}}, {"type": "node", "id": 8963062162, "lat": 0.0013545, "lon": 18.2170674, "tags": {"amenity": "hospital", "name": "Evangelica/ HGR bolenge"}}, {"type": "node", "id": 8985917717, "lat": 5.3610801, "lon": 10.4139241, "tags": {"amenity": "hospital", "name": "H\u00f4pital de Bandjoun"}}, {"type": "node", "id": 9053775218, "lat": 2.6722033, "lon": 12.6793709, "tags": {"amenity": "hospital", "name": "H\u00f4pital de district"}}, {"type": "node", "id": 9467286806, "lat": 9.4594314, "lon": 12.0405337, "tags": {"amenity": "hospital", "healthcare": "hospital", "healthcare:speciality": "maternity;pediatric", "name": "Nassarawo Demsa Maternity and Child Health"}}, {"type": "node", "id": 9780646428, "lat": 3.9071074, "lon": 11.4490943, "tags": {"amenity": "hospital", "name": "Centre de sant\u00e9 CLAUDINE ECHERNIER"}}, {"type": "node", "id": 9816612368, "lat": 6.0098497, "lon": 15.559201, "tags": {"amenity": "hospital", "healthcare": "hospital", "name": "CSP Maigaro"}}, {"type": "node", "id": 9829414643, "lat": 1.8638939, "lon": 10.2646982, "tags": {"amenity": "hospital", "healthcare": "hospital", "name": "Niefang Nospital construction location"}}, {"type": "node", "id": 10013409318, "lat": 3.8767421, "lon": 11.5687495, "tags": {"addr:street": "Rue 4.922", "amenity": "hospital", "email": "zrmclinic2022@gmail.com", "name": "ZION REFERENCE MEDICAL CLINIC", "phone": "670791036"}}, {"type": "node", "id": 10013418817, "lat": 3.8761056, "lon": 11.5691491, "tags": {"amenity": "hospital", "name": "REFERENCE CLINIC MIMBOMAN"}}, {"type": "node", "id": 10127841817, "lat": 5.6866185, "lon": 10.3741937, "tags": {"amenity": "hospital"}}, {"type": "node", "id": 10231599001, "lat": 3.8045083, "lon": 11.4641342, "tags": {"amenity": "hospital"}}, {"type": "node", "id": 10753137105, "lat": 3.863764, "lon": 11.5273853, "tags": {"amenity": "hospital", "healthcare": "hospital", "name": "CMA de Mvog-Ada"}}, {"type": "node", "id": 10824109519, "lat": 0.6430716, "lon": 18.3854364, "tags": {"amenity": "hospital", "name": "Hopital Cadelu"}}, {"type": "node", "id": 10824156542, "lat": 0.6375318, "lon": 18.382258, "tags": {"amenity": "hospital", "name": "Hopital general de Lolanga", "operator": "Government"}}, {"type": "node", "id": 11163585194, "lat": 9.8305959, "lon": 11.3208014, "tags": {"amenity": "hospital", "healthcare": "hospital", "name": "General hospital Kaltungo", "operator": "Government", "operator:type": "government"}}, {"type": "node", "id": 11186457937, "lat": 3.1666909, "lon": 13.6228556, "tags": {"addr:street": "Avenue ENEO", "amenity": "hospital", "internet_access": "wlan", "name": "H\u00f4pital de district de Lomi\u00e9", "opening_hours": "24/7"}}, {"type": "node", "id": 11186457941, "lat": 3.1611857, "lon": 13.6182836, "tags": {"amenity": "hospital", "internet_access": "wlan", "name": "H\u00f4pital Priv\u00e9 catholique de Lomi\u00e9"}}, {"type": "node", "id": 11186458337, "lat": 3.1656158, "lon": 13.6229303, "tags": {"addr:street": "avenue ENEO", "amenity": "hospital", "internet_access": "wlan", "name": "District de sant\u00e9 de Lomi\u00e9"}}, {"type": "way", "id": 185761188, "center": {"lat": 7.9188159, "lon": 16.6449658}, "nodes": [1964316409, 1964316407, 1958715632, 1958715621, 1958715614, 1964316368, 1964316382, 1958715631, 1964316409], "tags": {"amenity": "hospital", "barrier": "fence", "health_facility_type": "hospital", "healthcare:cholera": "unspecified", "healthcare_departments:general_medicine": "yes", "healthcare_departments:medical_laboratory": "yes", "healthcare_departments:operating_room": "no", "landuse": "healthcare", "operational_status": "open", "operator_type": "government", "project:eurosha_2012": "yes", "source": "gps"}}, {"type": "way", "id": 188499972, "center": {"lat": 4.3801994, "lon": 18.5645696}, "nodes": [2225259881, 1991288762, 1991288739, 1991288727, 1991288715, 1991288702, 1991288724, 1991288728, 2225259881], "tags": {"amenity": "hospital", "building": "yes", "health_facility_type": "cal_health_center_with_beds", "healthcare": "hospital", "name": "Centre de sant\u00e9 scolaire et universitaire de Bangui", "operational_status": "open", "operator:type": "government", "place:area_alternate": "1er arrondissement", "project:eurosha_2012": "yes", "source": "Bing;survey", "source:date": "2013-01-22"}}, {"type": "way", "id": 188759112, "center": {"lat": 3.9055569, "lon": 11.5422008}, "nodes": [7181575188, 1993798977, 1993799290, 1993798823, 1993798851, 1993798876, 1993799013, 1993799391, 1993800585, 1993800548, 1993800873, 1993800621, 1993800659, 1993800567, 1993800597, 1993800595, 1993800531, 1993800316, 1993800102, 1993799745, 1993799484, 1993799383, 1993799109, 1993798377, 1993798556, 1993798506, 1993798565, 1993798446, 1993798475, 1993798438, 1993798134, 7181575188], "tags": {"amenity": "hospital", "building": "hospital", "healthcare": "hospital", "healthcare:speciality": "gynaecology", "name": "Centre Hospitalier de Recherche et d'Application en Chirurgie Endoscopique et Reproduction Humaine", "short_name": "CHRACERH", "source": "Willy;survey"}}, {"type": "way", "id": 188769694, "center": {"lat": 4.3715575, "lon": 18.5756742}, "nodes": [2051915447, 1993982900, 1993982842, 1993982852, 1993982919, 2051919383, 1993983001, 2051919391, 1993982997, 2051919389, 1993983133, 1993983135, 1993983150, 1993983152, 1993983127, 1993983126, 2051915449, 1993983038, 1993983114, 1993983112, 1993983008, 1993983013, 1993983010, 1993982947, 1993982952, 2051919385, 2051919387, 2051915447], "tags": {"addr:housenumber": "1344", "addr:street": "Avenue de l'independance", "alt_name": "H\u00c3\u00b4pital G\u00c3\u00a9n\u00c3\u00a9ral", "amenity": "hospital", "building": "yes", "capacity:beds": "117", "health_facility_type": "hospital", "healthcare": "hospital", "healthcare:cholera": "unspecified", "healthcare_departments:general_medicine": "yes", "healthcare_departments:operating_room": "yes", "name": "Centre National Hospitalier Universitaire de Bangui", "operational_status": "open", "operator:type": "government", "project:eurosha_2012": "yes", "short_name": "CNHUB", "source": "Bing;survey", "source:date": "2011-03-13;2012-12-05"}}, {"type": "way", "id": 188879859, "center": {"lat": 4.3875771, "lon": 18.5565527}, "nodes": [2051954945, 1995127856, 9220938925, 1995127821, 8951441261, 9220938926, 1995127921, 1995127899, 1995127901, 1995127884, 2051954945], "tags": {"amenity": "hospital", "healthcare": "hospital", "name": "H\u00f4pital Communautaire", "name:en": "Community Hospital", "project:eurosha_2012": "yes", "source": "Bing;Survey", "source:date": "05/12/2012"}}, {"type": "way", "id": 189662266, "center": {"lat": 4.396974, "lon": 18.5576406}, "nodes": [3191925497, 2002478242, 2002478285, 2002478319, 2002478138, 2002478096, 3191925497], "tags": {"amenity": "hospital", "building": "yes", "healthcare": "hospital", "name": "ACABEF", "project:eurosha_2012": "yes", "source": "Bing", "source:date": "2011-03-13"}}, {"type": "way", "id": 190614327, "center": {"lat": 4.4139029, "lon": 18.5401015}, "nodes": [2225223671, 2012563033, 2012562990, 2012562987, 2012562967, 2012562970, 2012562971, 2012562973, 2012562999, 2012563001, 2012563010, 2012563013, 2225223671], "tags": {"addr:housenumber": "3316", "amenity": "hospital", "building": "yes", "capacity:beds": "48", "health_facility_type": "cal_health_center_with_beds", "healthcare": "hospital", "healthcare_departments:general_medicine": "yes", "healthcare_departments:operating_room": "no", "healthcare_departments:others": "neurologie, gynecologie, psychiatrie", "name": "Clinique Centrafrique Assistance Sant\u00e9", "operational_status": "open", "operator:type": "NGO", "place:description": "5i\u00e8me arrondisement", "project:eurosha_2012": "yes", "short_name": "Clinique CAS", "source": "Bing;Survey", "source:date": "2011-03-13;2013-02-20"}}, {"type": "way", "id": 191158128, "center": {"lat": 3.8841838, "lon": 11.5208742}, "nodes": [2017395787, 2017395783, 2017395775, 2017395763, 2017395761, 8475662145, 2017395749, 2017395753, 2017395757, 2017395765, 2311978713, 2017395771, 2017395773, 2017395777, 2017395781, 2017395785, 2017395787], "tags": {"amenity": "hospital", "healthcare": "hospital", "name": "H\u00f4pital Protestant de Djoungolo"}}, {"type": "way", "id": 191166264, "center": {"lat": 3.8340856, "lon": 11.4850163}, "nodes": [2017626964, 2017626981, 4119186766, 2017626970, 2017626956, 2017626954, 2017626964], "tags": {"amenity": "hospital", "healthcare": "hospital", "name": "H\u00f4pital de District de Biyem-Assi"}}, {"type": "way", "id": 191996250, "center": {"lat": 3.9187753, "lon": 11.5275417}, "nodes": [2025577013, 2025577234, 2025577638, 2025576766, 2025576526, 2025577082, 2025577013], "tags": {"amenity": "hospital", "building": "yes", "name": "Maternit\u00e9 Marie \u00c9toudi", "source": "sobzeros"}}, {"type": "way", "id": 192686803, "center": {"lat": 3.8945582, "lon": 11.5087442}, "nodes": [6337731205, 2032143707, 2032146567, 2032144888, 2032144557, 2032144003, 2032143859, 2032143772, 2032143740, 2032143092, 2032143165, 2032142436, 2032142281, 6337731205], "tags": {"amenity": "hospital", "building": "yes", "healthcare": "hospital", "name": "Groupe m\u00e9dical saint Hilaire", "phone": "+237242000128;+237679050404;+237655855885", "source": "sobzeros"}}, {"type": "way", "id": 192696213, "center": {"lat": 3.8996666, "lon": 11.4536486}, "nodes": [2032282288, 2032285306, 2032286749, 2032286964, 2032287783, 2032285263, 2032283078, 2032284422, 2032282288], "tags": {"amenity": "hospital", "building": "yes", "healthcare": "hospital", "source": "sobzeros"}}, {"type": "way", "id": 192734708, "center": {"lat": 3.8909353, "lon": 11.4699159}, "nodes": [2032656944, 2032657740, 2032666304, 2032657058, 2032656944], "tags": {"amenity": "hospital", "building": "yes", "contact:phone": "(+237) 697558763", "healthcare": "hospital", "name": "De La Chance", "source": "sobzeros"}}, {"type": "way", "id": 192776551, "center": {"lat": 3.8804019, "lon": 11.4790035}, "nodes": [7153571567, 2033021009, 2033022632, 2033022748, 2033024206, 2033029388, 2033027905, 2033028597, 2033026689, 2033022987, 2033021857, 2033024463, 2033023335, 7153571567], "tags": {"amenity": "hospital", "building": "yes", "healthcare": "hospital", "name": "La Fraternit\u00e9 D'etetak", "source": "sobzeros"}}, {"type": "way", "id": 192778053, "center": {"lat": 3.8841908, "lon": 11.5081538}, "nodes": [6337762588, 2033162715, 2033163334, 2033163748, 2033164300, 2033164111, 2033165556, 2033165545, 2033166667, 2033166869, 2033167827, 2033167483, 2033167639, 2033168143, 2033167695, 2033167317, 2033166801, 2033167036, 2033165226, 2033165237, 2033164414, 2033164161, 2033163099, 2033163564, 6337762588], "tags": {"amenity": "hospital", "building": "hospital", "healthcare": "hospital", "name": "H\u00f4pital Bethesda", "source": "sobzeros"}}, {"type": "way", "id": 192780695, "center": {"lat": 3.8847971, "lon": 11.5028314}, "nodes": [6316081642, 2033174732, 2033178324, 2033180470, 6316081642], "tags": {"amenity": "hospital", "building": "yes", "contact:phone": "696920031", "healthcare": "hospital", "name": "G.T LABO", "source": "sobzeros"}}, {"type": "way", "id": 192798125, "center": {"lat": 3.8763795, "lon": 11.4696643}, "nodes": [7153560046, 2033330501, 2033330618, 2033331149, 2033330979, 2033331607, 2033332814, 2033331445, 2033330972, 2033330770, 2033330553, 2033330508, 7153560046], "tags": {"amenity": "hospital", "building": "hospital", "healthcare": "hospital", "name": "Fondation Les Divines", "name:en": "Foundation Grace Divine", "source": "sobzeros"}}, {"type": "way", "id": 192802096, "center": {"lat": 3.8792695, "lon": 11.4584089}, "nodes": [7153661490, 2033364253, 2033366823, 2033367122, 2033366755, 2033367042, 2033367456, 2033367813, 7153661490], "tags": {"amenity": "hospital", "building": "yes", "healthcare": "hospital", "name": "Centre Medical La Reference Nkolbisson", "source": "sobzeros"}}, {"type": "way", "id": 192810183, "center": {"lat": 3.8753132, "lon": 11.5175034}, "nodes": [2033462973, 2033462824, 2033463230, 2033463456, 2033464467, 2033464965, 2033464094, 2033464689, 2033464092, 2033463801, 2033464708, 2033463767, 2033463226, 2033462945, 2033462622, 2033462973], "tags": {"amenity": "hospital", "building": "yes", "healthcare": "hospital", "name": "Croix Rouge Camerounaise", "source": "sobzeros"}}, {"type": "way", "id": 192812391, "center": {"lat": 3.8770891, "lon": 11.5200834}, "nodes": [2033486068, 2033489768, 2033491233, 2033488789, 2033488748, 2033487502, 2033486068], "tags": {"amenity": "hospital", "building": "yes", "healthcare": "hospital", "name": "Clinique Ze Meka", "source": "sobzeros"}}, {"type": "way", "id": 192820615, "center": {"lat": 3.8694286, "lon": 11.5004381}, "nodes": [2033622072, 2033623762, 2033624671, 2033623736, 2033623839, 2033624829, 2033626292, 2033626089, 2033627369, 2033625317, 2033624592, 2033623482, 2033621636, 2033622272, 2033622072], "tags": {"amenity": "hospital", "healthcare": "hospital", "name": "Hopital du Bien", "source": "sobzeros"}}, {"type": "way", "id": 192820765, "center": {"lat": 3.86926, "lon": 11.5124871}, "nodes": [2033622609, 2033622573, 2033622638, 2033622665, 2033622151, 2033622154, 2033620781, 2033620695, 2033618943, 5580837735, 2033622609], "tags": {"amenity": "hospital", "building": "yes", "healthcare": "yes", "name": "Croix Rouge Camerounaise ( Clinique)", "operator": "Croix Rouge Camerounaise", "source": "sobzeros"}}, {"type": "way", "id": 192821362, "center": {"lat": 3.871238, "lon": 11.5325605}, "nodes": [7181578891, 2033657992, 2033659495, 2033671356, 2033671784, 2033659760, 2033661336, 2033673852, 2033674301, 2033675019, 2033674637, 2033674909, 2033676398, 2033680982, 2033679778, 2033679154, 2033679013, 2033674770, 2033674147, 2033675909, 2033675486, 2033678411, 2033676833, 2033673834, 2033674826, 2033673439, 2033671867, 7181578891], "tags": {"amenity": "hospital", "building": "yes", "healthcare": "hospital", "name": "H\u00f4pital De La Caisse"}}, {"type": "way", "id": 192824575, "center": {"lat": 3.8696111, "lon": 11.5023621}, "nodes": [2033623636, 2033636784, 2033638474, 2033624932, 2033623636], "tags": {"amenity": "hospital", "building": "yes", "healthcare": "hospital", "name": "Hopital Sainte Th\u00e9r\u00e8se", "source": "sobzeros"}}, {"type": "way", "id": 192829924, "center": {"lat": 3.8700122, "lon": 11.5246358}, "nodes": [6310583395, 2033641545, 2033641038, 2033641564, 2033641823, 2033643047, 2033644209, 2033640803, 6310583395], "tags": {"addr:street": "Rue Monseigneur Graffin", "amenity": "hospital", "building": "yes", "healthcare": "hospital", "phone": "+237 222 22 09 84", "source": "sobzeros"}}, {"type": "way", "id": 192837934, "center": {"lat": 3.8635465, "lon": 11.4977682}, "nodes": [2033845685, 2033845398, 2033846877, 2033846660, 2033850982, 2033852040, 2033849582, 2033849853, 2033847566, 2033847366, 2033845834, 2033845685], "tags": {"alt_name": "Chantal Biya Research Center", "amenity": "hospital", "building": "yes", "healthcare": "hospital", "name": "Centre International De R\u00e9f\u00e9rence \u201cChantal Biya\u201d", "operator": "Centre International De R\u00e9f\u00e9rence \u201cChantal Biya\u201d Pour La Recherche Sur La Pr\u00e9vention Et La Prise En Charge Du VIH/SIDA", "short_name": "CIRCB", "source": "sobzeros"}}, {"type": "way", "id": 192839326, "center": {"lat": 3.8602812, "lon": 11.4769037}, "nodes": [2033791160, 4119374978, 2033793869, 2033791441, 2033790387, 2033789675, 4119374973, 2033791160], "tags": {"addr:postcode": "185 Yd\u00ef\u00bf\u00bd", "amenity": "hospital", "contact:email": "chdsmp@yahoo.fr", "contact:phone": "222129014", "name": "Centre Hospitalier Dominicain", "religion": "christian", "short_name": "CHDSMP", "source": "sobzeros"}}, {"type": "way", "id": 192841273, "center": {"lat": 3.8629545, "lon": 11.5453566}, "nodes": [2033836215, 2033833948, 2033831744, 2033834433, 2033836215], "tags": {"amenity": "hospital", "building": "yes", "healthcare": "hospital", "name": "Groupement d'Initiative Commune Sant\u00e9", "short_name": "GIC", "source": "sobzeros"}}, {"type": "way", "id": 192844359, "center": {"lat": 3.863323, "lon": 11.486846}, "nodes": [2033843942, 2033841058, 2033841440, 2033844255, 2033844115, 2033844303, 2033843942], "tags": {"amenity": "hospital", "building": "yes", "healthcare": "hospital", "name": "Centre Medical d'Arrondissement", "short_name": "CMA", "source": "sobzeros"}}, {"type": "way", "id": 192853125, "center": {"lat": 3.8540871, "lon": 11.5173674}, "nodes": [2033917054, 2033916433, 2033915820, 2033918342, 2033918609, 2033919143, 2033918527, 2033917667, 2033917853, 2033918784, 2033919008, 2033924474, 2033924678, 2033924323, 2033926037, 2033927040, 2033928078, 2033929559, 2033930154, 2033930454, 2033930867, 2033930501, 2033930658, 2033930813, 2033930720, 2033929860, 2033928796, 2033928738, 2033930289, 2033929348, 2033929464, 2033924444, 2033924719, 2033919430, 2033918230, 2033919072, 2033919020, 2033918034, 2033916917, 2033917443, 2033917054], "tags": {"amenity": "hospital", "building": "yes", "healthcare": "hospital", "name": "H\u00f4pital Militaire", "source": "sobzeros"}}, {"type": "way", "id": 192853910, "center": {"lat": 3.8542865, "lon": 11.5170317}, "nodes": [2033924474, 2033926418, 2033926688, 2033927932, 2033929558, 2033926219, 2033924474], "tags": {"amenity": "hospital", "building": "yes", "healthcare": "hospital", "name": "Garnison militaire", "source": "GeoCameroun"}}, {"type": "way", "id": 192856501, "center": {"lat": 3.8368686, "lon": 11.4859222}, "nodes": [2034009545, 2034010459, 2034012166, 2034011679, 2034011439, 2034010598, 2034010972, 2034009915, 2034008407, 2034009202, 2034009332, 2034009545], "tags": {"amenity": "hospital", "building": "yes", "healthcare": "hospital", "name": "Fondation m\u00e9decine d'Afrique", "note:nature": "priv\u00e9", "source": "survey:PFE(IT3) ENSTP Yaounde 2010"}}, {"type": "way", "id": 192860585, "center": {"lat": 3.8433068, "lon": 11.4624451}, "nodes": [2034117766, 2034117838, 2034117625, 2034118136, 2033965655, 2033965817, 2033967076, 2033965600, 2034118167, 2034118151, 2033965755, 2034117766], "tags": {"amenity": "hospital", "building": "yes", "name": "Centre d'accueil AGOJFIDA", "note:nature": "priv\u00e9", "source": "survey:PFE(IT3) ENSTP Yaounde 2010"}}, {"type": "way", "id": 192865173, "center": {"lat": 3.8473312, "lon": 11.5181955}, "nodes": [2034083199, 2034084784, 2034084631, 2034088345, 2034092135, 2034091931, 2034092704, 2034088684, 2034090306, 2034089124, 2034088441, 2034088153, 2034083199], "tags": {"amenity": "hospital", "building": "yes", "healthcare": "hospital", "name": "Polyclinique Mbarga", "source": "sobzeros"}}, {"type": "way", "id": 193291294, "center": {"lat": 4.3495172, "lon": 18.519886}, "nodes": [2225504274, 2038027732, 2038027714, 2038027709, 2225504274], "tags": {"addr:street": "Rue des Soeurs Camboniennes", "amenity": "hospital", "building": "yes", "capacity:beds": "16", "health_facility_type": "cal_health_center_with_beds", "healthcare": "hospital", "healthcare_departments:general_medicine": "yes", "healthcare_departments:operating_room": "yes", "name": "Centre M\u00e9dical Padre Pio", "operational_status": "open", "operator:type": "private", "place:description": "Bimbo III", "project:eurosha_2012": "yes", "source": "Bing;survey", "source:date": "2011-03-13;2013-02-18"}}, {"type": "way", "id": 193510070, "center": {"lat": 3.8430366, "lon": 11.5417477}, "nodes": [2040274238, 2040274285, 2040275569, 2040275566, 2040274243, 2040274238], "tags": {"amenity": "hospital", "building": "yes", "healthcare": "hospital", "name": "Polyclinique M\u00e9dicale Chinoise", "source": "sobzeros"}}, {"type": "way", "id": 193523781, "center": {"lat": 3.8242257, "lon": 11.5038083}, "nodes": [2040346965, 2040349379, 2040349918, 2040347482, 2040346965], "tags": {"amenity": "hospital", "building": "yes", "healthcare": "hospital", "source": "sobzeros"}}, {"type": "way", "id": 193535179, "center": {"lat": 3.8243756, "lon": 11.5526624}, "nodes": [2040474137, 2040474075, 2040474150, 2040474066, 2040474564, 2040474734, 2040474137], "tags": {"amenity": "hospital", "building": "yes", "healthcare": "hospital", "name": "Groupement d'Initiative Commune Sant\u00e9", "short_name": "GIC", "source": "sobzeros"}}, {"type": "way", "id": 193560229, "center": {"lat": 3.8208063, "lon": 11.5150232}, "nodes": [2040712427, 7205824643, 2040712514, 2040712528, 2040713012, 2040712966, 2040712427], "tags": {"amenity": "hospital", "building": "yes", "healthcare": "hospital", "source": "sobzeros"}}, {"type": "way", "id": 193577452, "center": {"lat": 3.7948539, "lon": 11.5203739}, "nodes": [2040910479, 2040910483, 2040911221, 2040911210, 2040911288, 2040911278, 2040911387, 2040911382, 2040911205, 2040911200, 2040910481, 2040910485, 2040910814, 2040910817, 2040910501, 2040910509, 2040909596, 2040909607, 2040910479], "tags": {"amenity": "hospital", "building": "yes", "source": "sobzeros"}}, {"type": "way", "id": 201613620, "center": {"lat": 6.9982697, "lon": 19.1575543}, "nodes": [2669537547, 2116422457, 2116422452, 2116422451, 2669537547], "tags": {"addr:city": "Kaga-Bandoro", "addr:full": "NANA-GRIBIZI, Kaga-Bandoro, Kaga-Bandoro, Kaga-Bandoro, Centre-ville", "amenity": "hospital", "building": "yes", "capacity:beds": "0", "fixme": "It was quite far to the south of this location. So it should be double checked this current position.", "health_facility:type": "dispensary", "healthcare": "hospital", "name": "Poste de Sant\u00e9 de Kando", "operator:type": "government", "project:eurosha_2012": "yes", "source": "Bing;UNICEF", "source:date": "2012-01-15", "toilets:number": "0"}}, {"type": "way", "id": 201737501, "center": {"lat": 6.9906448, "lon": 19.1797737}, "nodes": [2669537540, 2117529361, 2117529367, 2117529368, 2117529357, 2117529356, 2117529350, 2117529349, 2669537540], "tags": {"addr:city": "Kaga-Bandoro", "addr:full": "NANA-GRIBIZI, Kaga-Bandoro, Kaga-Bandoro, Kaga-Bandoro, Mission Catholique", "amenity": "hospital", "building": "yes", "capacity:beds": "4", "health_facility:type": "health_center", "healthcare": "hospital", "name": "Centre de Sant\u00e9 de Jean-C", "operator:type": "private", "project:eurosha_2012": "yes", "source": "Bing;UNICEF", "source:date": "2012-01-15", "toilets:number": "1"}}, {"type": "way", "id": 201766745, "center": {"lat": 8.1511207, "lon": 16.5206789}, "nodes": [2117798044, 2117798046, 2117798045, 2117798043, 2117798044], "tags": {"amenity": "hospital", "building": "yes", "healthcare": "hospital"}}, {"type": "way", "id": 203539271, "center": {"lat": 9.1387705, "lon": 18.3901623}, "nodes": [2135500330, 2135500349, 2135500350, 2135500339, 2135500260, 2135500243, 2135500209, 2135500208, 2135500244, 2135500288, 2135500330], "tags": {"addr:city": "\u0635\u0627\u0631\u062d", "alt_name:ar": "\u0645\u0633\u062a\u0634\u0641\u0649 \u0633\u0627\u0631\u0647 \u0627\u0644\u0645\u0631\u0643\u0632\u064a", "amenity": "hospital", "name": "\u0645\u0633\u062a\u0634\u0641\u0649 \u0635\u0627\u0631\u062d \u0627\u0644\u0645\u0631\u0643\u0632\u064a", "name:ar": "\u0645\u0633\u062a\u0634\u0641\u0649 \u0635\u0627\u0631\u062d \u0627\u0644\u0645\u0631\u0643\u0632\u064a", "name:fr": "H\u00f4pital Central de Sarh", "source": "Bing Sat", "source:date": "14/03/2014"}}, {"type": "way", "id": 212749298, "center": {"lat": 4.3844333, "lon": 18.5357567}, "nodes": [2225633205, 2225633255, 2225633253, 2225633254, 2225633205], "tags": {"addr:street": "Galabadja", "amenity": "hospital", "building": "yes", "capacity:beds": "5", "health_facility_type": "dispensary", "healthcare": "hospital", "name": "Dispensaire Saint-Jean de Galabadja", "operational_status": "open", "operator": "Eglise", "operator:type": "private", "place:area_alternate": "8\u00e8me arrdt", "project:eurosha_2012": "yes", "source": "Bing;Survey", "source:date": "2011-03-13;2013-02-20"}}, {"type": "way", "id": 215363594, "center": {"lat": 3.8712896, "lon": 11.5102495}, "nodes": [2247783412, 2285765199, 6362134331, 2285765197, 2285765198, 2285765196, 2285765200, 2247783384, 2247783391, 2247783416, 2247783433, 2779552450, 2247783427, 2247783424, 2779552452, 2247783421, 2247783430, 2247783418, 2247783381, 2247783412], "tags": {"amenity": "hospital", "healthcare": "hospital", "name": "Hopital Central de Yaound\u00e9"}}, {"type": "way", "id": 215392914, "center": {"lat": 5.3302409, "lon": 10.3755263}, "nodes": [4336501689, 2248125895, 2248125778, 2248125824, 4336501689], "tags": {"amenity": "hospital", "building": "hospital", "healthcare": "hospital", "name": "hopital de baham", "source": "bing", "source:date": "2011-08-01"}}, {"type": "way", "id": 219157313, "center": {"lat": 3.8388724, "lon": 11.5042469}, "nodes": [2283555347, 2283555344, 1987584156, 1987584155, 1967552192, 2283555346, 2283555347], "tags": {"amenity": "hospital", "name": "Benoit Menni", "source": "GPS Openstreetmap Cameroun 2013"}}, {"type": "way", "id": 219157317, "center": {"lat": 3.8506339, "lon": 11.4780986}, "nodes": [2033840467, 2283555374, 2283555375, 2188551560, 2188551566, 2188551553, 2188551557, 2188551555, 2188551552, 2283555365, 2283555364, 2283555362, 2283555359, 2034150814, 2034149162, 2034147020, 2034146199, 2034144406, 2283555357, 2283555358, 2283555360, 2283555363, 2283555366, 2283555367, 2283555368, 2283555369, 2283555370, 2283555371, 2283555372, 2033831999, 2033833759, 2033833890, 2033835131, 2033836949, 2033838293, 2033839151, 2033839768, 2033840467], "tags": {"addr:postcode": "1686 Yd\u00e9", "amenity": "hospital", "contact:email": "cnrhyaounde@yahoo.fr", "contact:phone": "222310579", "contact:website": "www.cnrh.info", "emergency": "no", "healthcare": "hospital", "name": "Centre national de r\u00e9habilitation des personnes handicap\u00e9es", "short_name": "CNRPH"}}, {"type": "way", "id": 219157320, "center": {"lat": 3.8318128, "lon": 11.5356075}, "nodes": [2283555338, 2283555335, 2283555332, 2040407427, 2283555333, 2040408325, 2283555334, 2283555336, 2283555338], "tags": {"alt_name": "GIC", "amenity": "hospital", "building": "yes", "healthcare": "hospital", "name": "GIC Sant\u00e9", "source": "sobzeros"}}, {"type": "way", "id": 219203272, "center": {"lat": 3.8827795, "lon": 11.5170196}, "nodes": [2283988971, 2033120630, 2033120939, 2033132597, 2033136081, 2033134686, 2033134084, 2033132530, 2033132763, 2033124027, 2033122156, 2033116062, 2033113884, 2283988970, 2283988971], "tags": {"amenity": "hospital", "healthcare": "hospital", "name": "Centre de la M\u00e8re et de l'Enfant"}}, {"type": "way", "id": 219203277, "center": {"lat": 3.9521428, "lon": 11.5298241}, "nodes": [2022196851, 2022196738, 2022196692, 2283989010, 2022195928, 2283989006, 2283989005, 2283989004, 2022195478, 2022195602, 2022195612, 2022195622, 2022196851], "tags": {"amenity": "hospital", "name": "Groupement d'Investissement Communautaire Sant\u00e9 le Sonline", "short_name": "GIC"}}, {"type": "way", "id": 219203278, "center": {"lat": 3.8736716, "lon": 11.5626121}, "nodes": [2033492277, 2033492217, 2033489059, 2283988969, 2283988968, 2033488898, 2033489353, 2033489516, 2033492277], "tags": {"amenity": "hospital", "healthcare": "hospital"}}, {"type": "way", "id": 219203280, "center": {"lat": 3.923888, "lon": 11.5049263}, "nodes": [2283988995, 2283988993, 2283988992, 2264958209, 2264958216, 2264958219, 2283988994, 2023867726, 2023867735, 2283988995], "tags": {"amenity": "hospital", "name": "H\u00f4pital Catholique Deo Gratias Afrique Future"}}, {"type": "way", "id": 221017747, "center": {"lat": 3.8796532, "lon": 11.5348115}, "nodes": [2300705996, 2300706086, 2300706067, 7181589544, 2300705996], "tags": {"amenity": "hospital", "building": "yes", "healthcare": "hospital", "name": "Diagnosticis Cameroon", "note": "semi dur", "source": "survey"}}, {"type": "way", "id": 221026549, "center": {"lat": 3.8748021, "lon": 11.4684997}, "nodes": [7162071312, 2300768828, 2300768857, 2300768873, 7066435989, 7162071312], "tags": {"amenity": "hospital", "building": "yes", "healthcare": "hospital", "name": "La Passerelle Clinique", "note": "semi dur", "source": "survey"}}, {"type": "way", "id": 221178404, "center": {"lat": 9.319093, "lon": 13.4038975}, "nodes": [2302325188, 2302325195, 2302325192, 2302325181, 2302325188], "tags": {"amenity": "hospital", "building": "yes", "emergency": "yes", "name": "Infirmerie"}}, {"type": "way", "id": 221488892, "center": {"lat": 9.305286, "lon": 13.3879977}, "nodes": [6731429427, 2305149634, 2305149641, 2306323829, 2305149660, 2305149655, 2305149649, 2305149643, 2305149639, 6731429427], "tags": {"amenity": "hospital", "building": "yes", "healthcare": "hospital", "name": "H\u00f4pital Regional de Garoua", "name:fr": "H\u00f4pital Regional de Garoua"}}, {"type": "way", "id": 221598901, "center": {"lat": 9.3061048, "lon": 13.3863}, "nodes": [2306324113, 2306324057, 2306324078, 2305149689, 2305149678, 2306323874, 2306323799, 2306323774, 2306323886, 2306323869, 2306324005, 2306324016, 2306324042, 2306324076, 2306324113], "tags": {"amenity": "hospital", "barrier": "fence", "description": "Unit\u00e9 de recherche m\u00e9dicale, de sant\u00e9 publique et de formation m\u00e9dicale", "name": "Centre pasteur", "year_of_construction": "1985"}}, {"type": "way", "id": 221851738, "center": {"lat": 9.3162887, "lon": 13.3921631}, "nodes": [2308349996, 2308349980, 2308349957, 7018932803, 2308349975, 2308349996], "tags": {"amenity": "hospital", "healthcare": "hospital", "name": "H\u00f4pital de la Garnison", "source": "MEADEN"}}, {"type": "way", "id": 222060240, "center": {"lat": 3.8714219, "lon": 11.5324173}, "nodes": [2310379993, 2310380302, 2310380341, 2310380355, 2310380359, 2310380364, 2310380366, 2310380368, 2310380365, 2310380361, 2310380356, 2310380354, 2310380350, 2310380349, 2310380347, 2310380324, 2310380158, 2310379975, 2310379829, 2308307502, 2308307017, 2308306682, 2310379391, 2310379209, 2290854970, 2310379290, 2310379334, 2310379396, 2310379482, 2310379709, 4121397672, 2310379993], "tags": {"amenity": "hospital", "healthcare": "hospital", "name": "Centre Hospitalier d'Essos"}}, {"type": "way", "id": 222105321, "center": {"lat": 9.3034757, "lon": 13.3923912}, "nodes": [6731429429, 2310798762, 2310798760, 2310798741, 6731429429], "tags": {"amenity": "hospital", "building": "yes", "healthcare": "hospital", "name": "Centre Medico Sociale De La Caisse Garoua"}}, {"type": "way", "id": 222106302, "center": {"lat": 3.8341012, "lon": 11.4787218}, "nodes": [4757488823, 2310803507, 2310803581, 2310803600, 4757488823], "tags": {"amenity": "hospital", "building": "yes", "healthcare": "hospital", "name": "Clinique St Christine", "name:fr": "Clinique St Christine", "source": "survey"}}, {"type": "way", "id": 222484296, "center": {"lat": 9.3092566, "lon": 13.3954818}, "nodes": [2314529178, 2314529204, 2314529215, 2314529227, 2314529178], "tags": {"amenity": "hospital", "building": "yes", "healthcare": "hospital", "name": "H\u00f4pital de police", "source": "MEADEN"}}, {"type": "way", "id": 222757439, "center": {"lat": 9.3333522, "lon": 13.4109011}, "nodes": [2316950045, 2316950021, 2316950053, 2316950065, 2316950045], "tags": {"amenity": "hospital", "barrier": "fence", "source": "MEADEN"}}, {"type": "way", "id": 225546765, "center": {"lat": 5.4466501, "lon": 10.0605405}, "nodes": [2343164253, 2343164254, 2343164255, 2343164256, 2343164257, 2343164258, 2343164259, 2343164260, 2343164261, 2343164262, 2343164263, 2343164264, 2343164265, 2343164266, 2343164267, 2343164203, 2343164268, 2343164269, 2343164270, 2343164271, 2343164272, 2343164273, 2343164274, 2343164275, 2343164276, 2343164277, 2343164278, 2343164279, 2343164280, 2343164281, 2343164282, 2343164283, 2343164284, 2343164285, 2343164286, 2343164287, 2343164253], "tags": {"addr:city": "Dschang", "amenity": "hospital", "emergency": "yes", "name": "H\u00f4pital central"}}, {"type": "way", "id": 226093209, "center": {"lat": 9.3028304, "lon": 13.39158}, "nodes": [2349489946, 2349489929, 2349489925, 2349489932, 2349489940, 2349489982, 2349489986, 2310798734, 2310798739, 2349490048, 2349490015, 2349490007, 2349489937, 2349489946], "tags": {"amenity": "hospital", "barrier": "fence", "name": "H\u00f4pital de la CNPS", "source": "MEADEN"}}, {"type": "way", "id": 226234145, "center": {"lat": 9.3034632, "lon": 13.3884062}, "nodes": [2350923507, 2350923505, 2350923500, 2350923504, 2350923507], "tags": {"amenity": "hospital", "building": "yes", "name": "Centre de Sant\u00e9 int\u00e9gr\u00e9 de Koll\u00e9r\u00e9", "source": "MEADEN"}}, {"type": "way", "id": 226401757, "center": {"lat": 9.3279567, "lon": 13.393645}, "nodes": [2352357582, 2352357585, 2352357573, 2352357569, 2352357582], "tags": {"amenity": "hospital", "barrier": "wall", "name": "Centre de sant\u00e9 integr\u00e9 de Roumde-adjia", "source": "MEADEN"}}, {"type": "way", "id": 226562532, "center": {"lat": 9.3077057, "lon": 13.4026797}, "nodes": [2353471883, 2353471891, 2353471877, 2353471873, 2353471883], "tags": {"amenity": "hospital", "name": "Centre de sant\u00e9 integr\u00e9 de foulb\u00e9r\u00e9", "source": "MEADEN"}}, {"type": "way", "id": 226696084, "center": {"lat": 9.3093046, "lon": 13.3838615}, "nodes": [2354599960, 2354599962, 2354599970, 2354599975, 2354599966, 2354599934, 2354599930, 2354599936, 2354599960], "tags": {"amenity": "hospital", "name": "H\u00f4pital militaire de R\u00e9gion"}}, {"type": "way", "id": 227132759, "center": {"lat": 9.3475855, "lon": 13.4147767}, "nodes": [2358633860, 2358633877, 2358633806, 2358633796, 2358633804, 2358633860], "tags": {"amenity": "hospital", "barrier": "wall", "source": "MEADEN"}}, {"type": "way", "id": 227338154, "center": {"lat": 9.2919332, "lon": 13.3925347}, "nodes": [2360392981, 2360392985, 2360393000, 2360393023, 2360393025, 2360393021, 2360393019, 2360393017, 2360392981], "tags": {"amenity": "hospital", "barrier": "wall", "source": "MEADEN"}}, {"type": "way", "id": 230560444, "center": {"lat": 3.8627065, "lon": 11.4961416}, "nodes": [2017537738, 2308238473, 2308238505, 2308238653, 2308239212, 2308239347, 2308239647, 2308239802, 2308240011, 2308240211, 2308240408, 2017537755, 2390533197, 2017537757, 2017537767, 2307929140, 2308240728, 2308240739, 2308240766, 2308240899, 2308241014, 2017537780, 2390533198, 2308241719, 2308241741, 2308241746, 2308241751, 2308241833, 2308241842, 2308241863, 2308241882, 2308241906, 2308241938, 2308241971, 2308241997, 2308242028, 2308242073, 2308242103, 2308242144, 2308242158, 2308242167, 2308242174, 2017537795, 2308242213, 2308242236, 2308242280, 5777010154, 2308242301, 2307929562, 2308242335, 2308242312, 2308242295, 2308242273, 2308242238, 2308242186, 2308242183, 2308242168, 2308242148, 2308242132, 2308242089, 2308242056, 2308242015, 2308241978, 2308241939, 2308241905, 2308241884, 2308241815, 2308241706, 2308241527, 2308241169, 2308241086, 2308241066, 2308241023, 2308240905, 2308240840, 2017537769, 2308240692, 2308240642, 2308240533, 2308240430, 2308240413, 2308240255, 2308240078, 2308239950, 2308239776, 2308239774, 2308239515, 2308239079, 2308238976, 2308238638, 2308238428, 2308238286, 2308238201, 2308238153, 2308238115, 2390533144, 2017537734, 2017537741, 2017537747, 2390533161, 2308238596, 2308238533, 2308238397, 2308238307, 2390533146, 2017537735, 2017537738], "tags": {"amenity": "hospital", "contact:phone": "222312565", "healthcare": "hospital", "name": "Centre Hospitalier Universitaire", "short_name": "CHU"}}, {"type": "way", "id": 231083421, "center": {"lat": 7.3826798, "lon": 18.7420873}, "nodes": [2590599145, 2394936196, 2394936198, 2394936199, 2590599145], "tags": {"addr:city": "Farazara", "amenity": "hospital", "capacity:beds": "5", "health_facility:type": "dispensary", "healthcare": "hospital", "lat": "7.38162", "lon": "18.7426", "name": "Poste de Sant\u00e9 de Farazara", "operator:type": "government", "source": "MSF;UNICEF,2012", "toilets:number": "2"}}, {"type": "way", "id": 232883145, "center": {"lat": 2.9278827, "lon": 11.9814868}, "nodes": [2411931859, 2411931869, 2411931867, 2411931850, 2411931822, 2411931786, 2411931780, 2411931775, 2411931759, 2411931859], "tags": {"amenity": "hospital", "barrier": "fence", "fence_type": "split_rail", "name": "Hopital de district de Sangmelima"}}, {"type": "way", "id": 232937344, "center": {"lat": 6.5827157, "lon": 16.3800139}, "nodes": [2412541022, 2412612125, 2412612116, 2412612120, 2412541022], "tags": {"addr:city": "Ndol Bassai", "amenity": "hospital", "building": "yes", "capacity:beds": "6", "health_facility:type": "dispensary", "healthcare": "hospital", "lat": "6.58263", "lon": "16.3801", "name": "Ndol Bassai", "operator:type": "government", "source": "UNICEF, Bing", "toilets:number": "2"}}, {"type": "way", "id": 233809693, "center": {"lat": 6.5777083, "lon": 16.001931}, "nodes": [2421395600, 2421388079, 2421388084, 2421388082, 2421395600], "tags": {"addr:city": "Tolle", "amenity": "hospital", "building": "yes", "capacity:beds": "2", "health_facility:type": "dispensary", "healthcare": "hospital", "lat": "6.57775", "lon": "16.0019", "name": "PS de Tolle", "operator:type": "government", "source": "UNICEF,2012", "toilets:number": "2"}}, {"type": "way", "id": 236025596, "center": {"lat": 7.4172687, "lon": 17.1298381}, "nodes": [2441042885, 2441015647, 2441015648, 2441015646, 2441042885], "tags": {"addr:city": "Bondjomo", "amenity": "hospital", "building": "yes", "capacity:beds": "0", "health_facility:type": "dispensary", "healthcare": "hospital", "lat": "7.42093", "long": "17.1278", "name": "PS de Bondjomo", "operator:type": "government", "source": "Bing;UNICEF,2012", "source:date": "2011-2014", "toilets_number": "1"}}, {"type": "way", "id": 236844355, "center": {"lat": 3.8760932, "lon": 11.4899297}, "nodes": [2033470041, 2308163620, 2308163785, 2308163797, 2308163900, 2308163894, 2033477430, 2033477104, 2033477214, 2033476670, 2033477163, 2033476477, 2308163799, 2308163789, 2308163711, 2033469755, 2033469657, 2033469237, 2033469346, 2033469011, 2033470041], "tags": {"amenity": "hospital", "name": "H\u00f4pital de la Cit\u00e9 Verte"}}, {"type": "way", "id": 241995048, "center": {"lat": 9.1174674, "lon": 18.3918957},