{"version": 0.6, "generator": "Overpass API 0.7.61.5 4133829e", "osm3s": {"timestamp_osm_base": "2023-10-31T20:51:35Z", "copyright": "The data included in this document is from www.openstreetmap.org. The data is made available under ODbL."}, "elements": [{"type": "node", "id": 44930630, "lat": 0.632706, "lon": 34.269398, "tags": {"amenity": "hospital", "healthcare": "hospital", "is_in": "Busia,Kenya", "name": "Malaba", "wikidata": "Q6740728"}}, {"type": "node", "id": 560542964, "lat": 1.0764209, "lon": 34.1767819, "tags": {"amenity": "hospital", "name": "Mbale Regional Referral Hospital"}}, {"type": "node", "id": 560542965, "lat": 1.0756393, "lon": 34.1772103, "tags": {"amenity": "hospital", "name": "St Martins Medical Centre"}}, {"type": "node", "id": 560551837, "lat": 1.0740559, "lon": 34.1717568, "tags": {"amenity": "hospital", "emergency": "no", "name": "Cure Children's Hospital of Uganda", "wikidata": "Q5014715", "wikipedia": "en:CURE Children's Hospital of Uganda"}}, {"type": "node", "id": 560551840, "lat": 1.0724469, "lon": 34.1746525, "tags": {"addr:city": "mbale", "addr:housenumber": "32", "addr:street": "Maluku Road", "amenity": "hospital", "description": "Successfully", "name": "Uganda Red Cross", "office": "ngo"}}, {"type": "node", "id": 563092253, "lat": 0.9815378, "lon": 34.2016546, "tags": {"amenity": "hospital", "name": "Peace Medical Centre"}}, {"type": "node", "id": 582857059, "lat": 0.333829, "lon": 32.5891586, "tags": {"addr:city": "Kampala", "addr:country": "UG", "addr:housenumber": "16", "addr:street": "Kawalya Kaggwa Close", "amenity": "hospital", "email": "kololohospital@gmail.com", "healthcare": "hospital", "name": "Kololo Hospital Kampala Ltd.", "phone": "+256 312 264702", "website": "http://www.facebook.com/KololoHospitalKampala"}}, {"type": "node", "id": 652432154, "lat": 0.337596, "lon": 33.033049, "tags": {"amenity": "hospital", "name": "St. Charles Lwanga Buikwe Hospital", "wikidata": "Q24807579"}}, {"type": "node", "id": 800904452, "lat": 8.9380687, "lon": 38.7468861, "tags": {"amenity": "hospital", "name": "Selihom Clinic", "source": "Photo IMG_3366.JPG"}}, {"type": "node", "id": 974605665, "lat": 1.0994509, "lon": 36.6950951, "tags": {"amenity": "hospital", "healthcare": "hospital", "healthcare:speciality": "general", "is_in": "Maralal", "kenyan_airport_code": "KE-6396", "source": "http://www.ourairports.com/data/ (Public Domain)"}}, {"type": "node", "id": 1110691820, "lat": 9.0152977, "lon": 38.7554049, "tags": {"addr:city": "Addis Ababa", "addr:subcity": "Kirkos", "amenity": "hospital", "contact:p.o.box": "782", "description": "Birth Clinic", "healthcare": "hospital", "name": "Ghandi Hospital", "name:am": "\u130b\u1295\u12f2 \u12e8\u1218\u1273\u1230\u1262\u12eb \u1206\u1235\u1352\u1273\u120d", "phone": "+251115518185"}}, {"type": "node", "id": 1298133865, "lat": 9.2010727, "lon": 36.5111602, "tags": {"amenity": "hospital", "name": "Health Center"}}, {"type": "node", "id": 1322227678, "lat": 0.4272364, "lon": 33.2087981, "tags": {"amenity": "hospital", "name": "Victoria Clinic"}}, {"type": "node", "id": 1419020606, "lat": 0.1630007, "lon": 34.2936184, "tags": {"amenity": "hospital", "emergency": "yes", "name": "St Paul's Health Centre"}}, {"type": "node", "id": 1647108220, "lat": 2.5786335, "lon": 31.7759892, "tags": {"amenity": "hospital", "name": "Wi Anaka health centre"}}, {"type": "node", "id": 1647176814, "lat": 2.2473075, "lon": 32.9003043, "tags": {"amenity": "hospital", "healthcare": "hospital"}}, {"type": "node", "id": 1647438029, "lat": 3.0104432, "lon": 30.9605342, "tags": {"amenity": "hospital"}}, {"type": "node", "id": 1654299768, "lat": 2.2358737, "lon": 32.8990967, "tags": {"amenity": "hospital", "healthcare": "hospital"}}, {"type": "node", "id": 1655712238, "lat": 1.7158382, "lon": 33.6158723, "tags": {"amenity": "hospital"}}, {"type": "node", "id": 1655767137, "lat": 1.0909789, "lon": 34.1769432, "tags": {"amenity": "hospital", "fixme": "What is this? Name? Where?"}}, {"type": "node", "id": 1655767162, "lat": 1.3574886, "lon": 34.0328596, "tags": {"amenity": "hospital"}}, {"type": "node", "id": 1811653493, "lat": 3.6457778, "lon": 34.0785861, "tags": {"amenity": "hospital", "name": "Kathile Health Center 3"}}, {"type": "node", "id": 1812149525, "lat": 3.4187552, "lon": 34.1457784, "tags": {"amenity": "hospital", "name": "Lochom Health Center 2"}}, {"type": "node", "id": 1850405064, "lat": 0.1564465, "lon": 34.3626271, "tags": {"amenity": "hospital", "healthcare": "hospital"}}, {"type": "node", "id": 1947820229, "lat": 0.9438588, "lon": 34.1261633, "tags": {"amenity": "hospital", "building": "yes", "name": "Kanyenya Hospital"}}, {"type": "node", "id": 2079955527, "lat": 0.612583, "lon": 32.821622, "tags": {"amenity": "hospital", "name": "St Francis Nagala Hospital"}}, {"type": "node", "id": 2142776813, "lat": 1.4879504, "lon": 33.9361388, "tags": {"addr:city": "Kumi", "addr:street": "Ngora Road", "amenity": "hospital", "emergency": "no", "name": "Kumi Health Centre Grade III"}}, {"type": "node", "id": 2365455559, "lat": 0.9473191, "lon": 33.1211263, "tags": {"amenity": "hospital", "emergency": "yes", "name": "Kamuli District Hospital", "wikidata": "Q6359840", "wikipedia": "en:Kamuli Hospital"}}, {"type": "node", "id": 2375816099, "lat": 0.2980144, "lon": 32.5338792, "tags": {"amenity": "hospital", "name": "Hope and Faith"}}, {"type": "node", "id": 2475402441, "lat": 0.0385371, "lon": 36.3623272, "tags": {"addr:city": "Nyahururu", "addr:street": "Nyeri-Nyahururu Road", "amenity": "hospital", "name": "Nyahururu General Hospital"}}, {"type": "node", "id": 2500701753, "lat": 1.0763572, "lon": 34.1766088, "tags": {"amenity": "hospital", "name": "Dental Clinic"}}, {"type": "node", "id": 2631115731, "lat": 0.2062836, "lon": 34.1790179, "tags": {"amenity": "hospital", "name": "Matibabu Hospital"}}, {"type": "node", "id": 2667363817, "lat": 0.5135828, "lon": 35.2807341, "tags": {"addr:city": "eldoret", "addr:postcode": "30100", "amenity": "hospital", "emergency": "yes", "name": "Uasin Gishu Memorial Hospital"}}, {"type": "node", "id": 2667364486, "lat": 0.5125889, "lon": 35.2815791, "tags": {"addr:city": "eldoret", "addr:postcode": "30100", "amenity": "hospital", "name": "Moi Teaching & Referal Hospital Physiotherapy"}}, {"type": "node", "id": 2989928233, "lat": 6.0461028, "lon": 31.5025207, "tags": {"amenity": "hospital", "emergency": "yes", "name": "MSF Hospital", "source:date": "2014-07"}}, {"type": "node", "id": 3003029891, "lat": 0.3664038, "lon": 37.5902869, "tags": {"amenity": "hospital", "facility:operator": "public", "name": "isiolo general hospital", "place:district": "isiolo", "place:division": "east", "place:location": "tuluroba", "place:sub_location": "tuluroba", "place:village": "tuluroba"}}, {"type": "node", "id": 3003032035, "lat": 0.2857858, "lon": 37.5436727, "tags": {"amenity": "hospital", "facility:operator": "private", "name": "ntirim dispensary", "place:district": "isiolo", "place:division": "west", "place:location": "burat", "place:sub_location": "ntirim", "place:village": "ntirim"}}, {"type": "node", "id": 3016259120, "lat": 1.4285764, "lon": 31.3548798, "tags": {"amenity": "hospital", "check_date": "2023-03-14", "name": "Hoima Regional Referral Hospital", "wikidata": "Q5877791", "wikipedia": "en:Hoima Hospital"}}, {"type": "node", "id": 3087233815, "lat": 0.4335756, "lon": 33.2122075, "tags": {"amenity": "hospital", "name": "Medical Clinic"}}, {"type": "node", "id": 3278257060, "lat": 3.9530242, "lon": 35.3079132, "tags": {"amenity": "hospital"}}, {"type": "node", "id": 3283811136, "lat": 0.3570899, "lon": 37.5761094, "tags": {"amenity": "hospital", "facility:operator": "private", "name": "anglican parish dispensary", "place:district": "isiolo", "place:division": "central", "place:location": "bula pesa", "place:sub_location": "bula pesa", "place:village": "bula pesa"}}, {"type": "node", "id": 3283811144, "lat": 0.3274508, "lon": 37.5655812, "tags": {"amenity": "hospital", "facility:operator": "private", "name": "avi mothercare", "place:district": "isiolo", "place:division": "central", "place:location": "kambi ya juu", "place:sub_location": "kambi ya juu", "place:village": "kambi ya juu"}}, {"type": "node", "id": 3283811984, "lat": 0.3562201, "lon": 37.5856725, "tags": {"amenity": "hospital", "facility:operator": "public", "name": "isiolo manyatta hospital", "place:constituency": "isiolo north", "place:county": "isiolo", "place:subcounty": "isiolo", "place:ward": "wabera"}}, {"type": "node", "id": 3283812004, "lat": 0.3037402, "lon": 37.4393698, "tags": {"amenity": "hospital", "facility:fund_source": "ngo-catholic mission", "facility:operator": "public", "facility:project_type": "borehole", "name": "Leparua dispensary", "place:district": "isiolo", "place:division": "west", "place:location": "burat", "place:sub_location": "burat", "place:village": "leparua", "project:number": "1"}}, {"type": "node", "id": 3283812015, "lat": 0.5534442, "lon": 37.5176727, "tags": {"amenity": "hospital", "facility:operator": "public", "name": "mugurnanyore simba clinic", "place:district": "isiolo", "place:division": "west", "place:location": "burat", "place:sub_location": "burat", "place:village": "lomko"}}, {"type": "node", "id": 3283812027, "lat": 0.340898, "lon": 37.5750279, "tags": {"amenity": "hospital", "name": "pepo la tumaini dispensary", "place:district": "isiolo", "place:division": "central", "place:location": "bula pesa", "place:sub_location": "bula pesa", "place:village": "bula pesa"}}, {"type": "node", "id": 3338274679, "lat": 0.7203429, "lon": 32.3984813, "tags": {"amenity": "hospital", "name": "Nakaseke Hospital", "wikidata": "Q6960313"}}, {"type": "node", "id": 3620611070, "lat": 0.0484962, "lon": 32.4643802, "tags": {"addr:city": "Entebbe", "addr:country": "UG", "addr:housenumber": "43", "addr:street": "Church Road", "amenity": "hospital", "healthcare": "hospital"}}, {"type": "node", "id": 3674800601, "lat": 0.771413, "lon": 35.7500485, "tags": {"amenity": "hospital", "health:cleaner": "2", "health:clinical_officer": "0", "health:cook": "1", "health:doctors": "1", "health:government_registered": "yes", "health:laboratory_technician": "1", "health:nurse": "2", "health:phamacist": "1", "health:staff_receptionist": "yes", "healthcare": "hospital", "name": "Kombosang Dispensary", "operator:type": "government", "place:village": "kombosang"}}, {"type": "node", "id": 3674800616, "lat": 0.7510369, "lon": 35.6937381, "tags": {"amenity": "hospital", "health:cleaner": "1", "health:clinical_officer": "2", "health:cook": "1", "health:doctors": "1", "health:government_registered": "yes", "health:laboratory_technician": "1", "health:phamacist": "1", "health:staff_receptionist": "yes", "healthcare": "hospital", "name": "Likwon Dispensary", "operator:type": "government", "place:village": "kaptilomwo", "status:operational_status": "operational"}}, {"type": "node", "id": 3674804333, "lat": 0.5867508, "lon": 35.6262201, "tags": {"amenity": "hospital", "name": "proposed chemura dispensary", "operator:type": "government", "place:village": "chemura", "status:operational_status": "non_operational"}}, {"type": "node", "id": 3678715093, "lat": 1.2183992, "lon": 30.1561276, "tags": {"amenity": "hospital", "health_facility:CD": "hgr", "health_facility:type": "reference general hospital", "name": "Hopital G\u00e9n\u00e9ral de R\u00e9f\u00e9rence de Gety", "short_name": "HGR Gety"}}, {"type": "node", "id": 3688362774, "lat": 0.7771487, "lon": 35.7116856, "tags": {"amenity": "hospital", "health:cleaner": "3", "health:clinical_officer": "2", "health:cook": "1", "health:doctors": "2", "health:government_registered": "yes", "health:laboratory_technician": "1", "health:mid_wife": "2", "health:nurse": "3", "health:phamacist": "1", "health:staff_receptionist": "yes", "name": "kuikui health center", "operator:type": "government", "place:village": "kuikui"}}, {"type": "node", "id": 3713229994, "lat": 0.6274012, "lon": 39.7131097, "tags": {"amenity": "hospital", "name": "Abakore Health center"}}, {"type": "node", "id": 3946019558, "lat": 0.9873539, "lon": 34.2240104, "tags": {"addr:city": "Mbale", "addr:street": "Manafwa Road", "amenity": "hospital", "bed_count": "26", "description": "Admitting Patients", "name": "Nyondo St Teresa Health Centre 3"}}, {"type": "node", "id": 3946117119, "lat": 0.9176754, "lon": 34.1290471, "tags": {"addr:city": "Mbale", "amenity": "hospital", "bed_count": "1", "description": "Found", "name": "Makhonje Health Centre III"}}, {"type": "node", "id": 3947983554, "lat": 0.9667349, "lon": 34.1451882, "tags": {"addr:city": "mbale", "amenity": "hospital", "bed_count": "17", "name": "Lwankoli Health Centre II"}}, {"type": "node", "id": 3947997562, "lat": 1.1119808, "lon": 34.2392123, "tags": {"addr:city": "mbale", "amenity": "hospital", "bed_count": "20", "name": "Bufumbo Health Center"}}, {"type": "node", "id": 3948078608, "lat": 1.1245777, "lon": 34.1950212, "tags": {"TODO": "review position (guessed)", "addr:city": "Mbale", "amenity": "hospital"}}, {"type": "node", "id": 3953786379, "lat": 0.9575514, "lon": 34.3709143, "tags": {"addr:city": "Tsekululu", "amenity": "hospital", "name": "Bunambali Health Centre"}}, {"type": "node", "id": 3954783295, "lat": 1.0288589, "lon": 34.3718513, "tags": {"addr:city": "Bulukecheke", "amenity": "hospital", "healthcare": "hospital", "name": "Bulucheke Health Centre 3"}}, {"type": "node", "id": 3954783308, "lat": 1.0544456, "lon": 34.3545914, "tags": {"addr:city": "Nakatsi", "addr:street": "Nasunza Bushika Road", "amenity": "hospital", "bed_count": "8", "name": "Bushika Health Centre"}}, {"type": "node", "id": 3955006909, "lat": 1.2257833, "lon": 34.3118477, "tags": {"addr:city": "Bukiise Sub County", "amenity": "hospital", "name": "Our lady"}}, {"type": "node", "id": 3955253045, "lat": 0.8196119, "lon": 34.2953642, "tags": {"addr:city": "Butiru", "addr:street": "Lwakhakha Road", "amenity": "hospital", "bed_count": "54", "name": "Butiru Chrisco Health Centre III"}}, {"type": "node", "id": 3955257607, "lat": 0.8650009, "lon": 34.2523743, "tags": {"addr:city": "Bugobero", "amenity": "hospital", "name": "Bugobero Health Centre IV"}}, {"type": "node", "id": 3958349277, "lat": 1.3903983, "lon": 34.4189262, "tags": {"addr:city": "Kapteret", "amenity": "hospital", "bed_count": "3", "name": "Sumaya Health Centre"}}, {"type": "node", "id": 3958445697, "lat": 1.3575306, "lon": 34.1760817, "tags": {"addr:city": "Kolir", "addr:street": "Kamutor Road", "amenity": "hospital", "bed_count": "20", "description": "Private Aided", "name": "Holy Innocents Health Centre"}}, {"type": "node", "id": 3958445703, "lat": 1.3181519, "lon": 34.1642595, "tags": {"addr:city": "Kolir", "addr:street": "Kachumbala Road", "amenity": "hospital", "bed_count": "20", "description": "Government Aided", "name": "Kolir Health Centre"}}, {"type": "node", "id": 3959040471, "lat": 1.2739658, "lon": 34.0040588, "tags": {"addr:city": "Bukedea", "addr:street": "Kidongole", "amenity": "hospital", "bed_count": "30", "building:material": "cement_block", "name": "Kidongole Health Centre 111"}}, {"type": "node", "id": 3959040487, "lat": 1.3296882, "lon": 34.0422422, "tags": {"addr:city": "Bukedea", "addr:street": "Kidongole", "amenity": "hospital", "bed_count": "87", "building:material": "cement_block"}}, {"type": "node", "id": 3966464172, "lat": 0.9845791, "lon": 33.8952616, "tags": {"addr:city": "Nansanga", "addr:street": "Idudi Road", "amenity": "hospital", "name": "Nansanga Hospital"}}, {"type": "node", "id": 3967524075, "lat": 1.0896147, "lon": 33.4037116, "tags": {"addr:city": "Nawaikoke", "addr:street": "Kaliro", "amenity": "hospital", "bed_count": "25", "name": "Nawaikoke Health Centre III"}}, {"type": "node", "id": 3967539515, "lat": 0.9959525, "lon": 33.4930691, "tags": {"addr:city": "Iganga", "addr:street": "Bumanya Road", "amenity": "hospital", "bed_count": "10", "building": "Bumanya Health Centre", "building:levels": "1", "building:material": "brick"}}, {"type": "node", "id": 3967544895, "lat": 0.8927484, "lon": 33.5067668, "tags": {"addr:city": "Kaliro", "amenity": "hospital", "bed_count": "30", "name": "Dr. Ambrosoli Health Care Centre III"}}, {"type": "node", "id": 3967544953, "lat": 0.9279146, "lon": 33.4340337, "tags": {"amenity": "hospital", "name": "Nabikooli Health Centre II"}}, {"type": "node", "id": 3967933560, "lat": 1.2181325, "lon": 33.6487844, "tags": {"addr:city": "Apopong", "addr:street": "Gogonyo", "amenity": "hospital", "bed_count": "20", "name": "Apopong Health Centre"}}, {"type": "node", "id": 3986151811, "lat": 0.6922057, "lon": 34.1779271, "tags": {"addr:city": "Western Division", "addr:housenumber": "Plot: 13", "addr:street": "Rock Crescent Road", "amenity": "hospital", "bed_count": "13", "name": "Geel Hospital"}}, {"type": "node", "id": 3990563774, "lat": 0.7427701, "lon": 33.9629065, "tags": {"addr:city": "tororo", "amenity": "hospital", "building": "Health Centre", "building:levels": "1", "building:material": "cement_block", "description": "Project", "name": "Mifumi Health Centre"}}, {"type": "node", "id": 3990606473, "lat": 0.6925428, "lon": 34.0154048, "tags": {"addr:city": "Mulanda", "addr:street": "Mulanda Road", "amenity": "hospital", "bed_count": "44", "building": "hospital", "building:levels": "1", "building:material": "brick", "name": "Mulanda Health Centre IV"}}, {"type": "node", "id": 3990909865, "lat": 0.620055, "lon": 34.0820382, "tags": {"addr:city": "Magola", "amenity": "hospital", "name": "Poyameri health centre Three"}}, {"type": "node", "id": 3996068322, "lat": 0.5519256, "lon": 33.9278044, "tags": {"addr:city": "Buluguyi", "amenity": "hospital", "name": "Village Of Eden Medical Centre"}}, {"type": "node", "id": 3997808075, "lat": 0.3312601, "lon": 33.9087234, "tags": {"amenity": "hospital", "bed_count": "23", "name": "Nambwike Health Center"}}, {"type": "node", "id": 3997879799, "lat": 0.433255, "lon": 34.0486588, "tags": {"addr:city": "Busia", "addr:street": "Dabani Road", "amenity": "hospital", "bed_count": "100", "name": "Dabani Hospital"}}, {"type": "node", "id": 3997879842, "lat": 0.4996147, "lon": 34.0598098, "tags": {"addr:city": "Busia", "amenity": "hospital", "bed_count": "22", "name": "Sikuda Health Centre 11"}}, {"type": "node", "id": 4041584279, "lat": 0.4305515, "lon": 33.2052002, "tags": {"addr:city": "Jinja Central Division", "amenity": "hospital", "bed_count": "100", "name": "Jinja Main Hospital"}}, {"type": "node", "id": 4048895496, "lat": 0.5025745, "lon": 33.5921266, "tags": {"addr:city": "Makuutu", "amenity": "hospital", "fixme": "Please, check the position of this node", "name": "Ministry Of Health Makuutu Health Centre 3"}}, {"type": "node", "id": 4048902016, "lat": 0.5196306, "lon": 33.5188622, "tags": {"addr:city": "Mayuge", "amenity": "hospital", "bed_count": "10", "building": "hospital", "building:levels": "1", "building:material": "cement_block", "name": "Buwaiswa Health Center III"}}, {"type": "node", "id": 4048902039, "lat": 0.4534744, "lon": 33.4822726, "tags": {"addr:city": "Mayuge", "addr:street": "Bugadde road", "amenity": "hospital", "building": "hospital", "building:levels": "1", "building:material": "cement_block", "name": "Lameka Community Health Services"}}, {"type": "node", "id": 4050080880, "lat": 0.6335914, "lon": 33.3847423, "tags": {"addr:city": "Waibuga", "amenity": "hospital", "bed_count": "4", "name": "Waibuga Health Centre II"}}, {"type": "node", "id": 4052756499, "lat": 0.643967, "lon": 33.465651, "tags": {"addr:city": "Nawanyingi", "amenity": "hospital", "name": "Bukonko Primary School"}}, {"type": "node", "id": 4068294644, "lat": 2.0320788, "lon": 33.6411609, "tags": {"amenity": "hospital", "name": "AmuriaHC4"}}, {"type": "node", "id": 4114253439, "lat": 0.3373484, "lon": 32.580736, "tags": {"addr:city": "Kampala", "addr:street": "Kiira Road", "amenity": "hospital", "name": "Victoria University Health Care Center"}}, {"type": "node", "id": 4118665486, "lat": 0.3366461, "lon": 32.5795734, "tags": {"addr:city": "kampala", "addr:street": "Kira Road", "amenity": "hospital", "healthcare": "hospital", "name": "Georgina Eye Hospital"}}, {"type": "node", "id": 4157374689, "lat": 3.3023034, "lon": 32.8924546, "tags": {"addr:city": "Kitgum", "addr:street": "Madi opei Road", "amenity": "hospital", "name": "St Joseph's Hospital"}}, {"type": "node", "id": 4258427076, "lat": 0.4003802, "lon": 32.6392202, "tags": {"amenity": "hospital", "name": "Kira Health centre lll", "operator": "government hospital"}}, {"type": "node", "id": 4366452438, "lat": 0.1619567, "lon": 34.7444944, "tags": {"amenity": "hospital", "name": "Iguhu Dispensary"}}, {"type": "node", "id": 4369113590, "lat": 9.0000257, "lon": 38.8060175, "tags": {"addr:street": "Bob Marley Square", "amenity": "hospital", "name": "Icon center of special surgery"}}, {"type": "node", "id": 4369176589, "lat": 9.0156828, "lon": 38.7844988, "tags": {"addr:street": "Haile Gebresellasie Avenue", "amenity": "hospital", "name": "arsho laboratories", "name:en": "Arsho laboratories"}}, {"type": "node", "id": 4396995689, "lat": 0.4383547, "lon": 33.1961177, "tags": {"amenity": "hospital"}}, {"type": "node", "id": 4436331537, "lat": 1.7654224, "lon": 33.1522665, "tags": {"amenity": "hospital", "name": "Kaberamaido Health Center IV"}}, {"type": "node", "id": 4481153003, "lat": 0.3018778, "lon": 30.0987532, "tags": {"amenity": "hospital", "name": "Bugoye Heath Centre III"}}, {"type": "node", "id": 4486594689, "lat": 7.051637, "lon": 38.4731721, "tags": {"amenity": "hospital", "healthcare": "hospital", "name:en": "Adare Hospital"}}, {"type": "node", "id": 4550845131, "lat": 8.9908609, "lon": 38.7940723, "tags": {"addr:city": "Addis Ababa", "addr:street": "Ring Road", "amenity": "hospital", "name": "1st Chiropractic Clinic", "operator": "Dr. Selam Aklilu"}}, {"type": "node", "id": 4551063002, "lat": 9.0282507, "lon": 38.7226843, "tags": {"addr:city": "Addis Ababa", "amenity": "hospital", "name": "Amanuel Psychiatric Hospital", "operator": "Federal Government"}}, {"type": "node", "id": 4729889894, "lat": 1.378518, "lon": 34.2174429, "tags": {"amenity": "hospital", "name": "Holy Innocents Health Center", "name:en": "Holy Innocents Health Center"}}, {"type": "node", "id": 4804024549, "lat": 7.5962094, "lon": 38.0686504, "tags": {"amenity": "hospital"}}, {"type": "node", "id": 4843907422, "lat": 2.5095646, "lon": 30.9119022, "tags": {"amenity": "hospital", "name": "Zumbo HC III", "name:en": "Zumbo HC III"}}, {"type": "node", "id": 4857212122, "lat": 3.0764065, "lon": 31.0664195, "tags": {"amenity": "hospital", "name": "Ocodri HC III", "name:en": "Ocodri HC III"}}, {"type": "node", "id": 5547653730, "lat": 0.46388, "lon": 35.2593967, "tags": {"amenity": "hospital", "name": "Racecourse"}}, {"type": "node", "id": 5671866221, "lat": 9.0277121, "lon": 38.7512707, "tags": {"amenity": "hospital", "name": "\u12e8\u1201\u120d\u12a5\u1238\u1275 \u122a\u1348\u122b\u120d \u1206\u1235\u1352\u1273\u120d", "name:en": "yehuleshet referral hospital"}}, {"type": "node", "id": 5720719122, "lat": 9.019603, "lon": 38.7499016, "tags": {"amenity": "hospital", "healthcare": "hospital", "name:en": "Radiology Unit"}}, {"type": "node", "id": 5723717522, "lat": 2.7971088, "lon": 30.8919392, "tags": {"amenity": "hospital", "healthcare": "hospital", "name": "shira hospitals"}}, {"type": "node", "id": 5781399432, "lat": 0.496605, "lon": 35.7338442, "tags": {"amenity": "hospital", "dispensing": "yes", "electricity": "always", "image:pointofinterest": "http://kc.humanitarianresponse.info/attachment/orginal?media_file=mapkibera/attachments/1531991784796.jpg", "image:project": "https://mapkibera.github.io/counties/data/images/cache/5781399432/httpkchumanitarianresponseinfoattachmentorginalmediafilemapkiberaattachments1531992030036jpg/orig.jpg", "medical_service:family_planning": "yes", "medical_service:general_medical_services": "yes", "medical_service:immunizations": "yes", "medical_service:malaria": "yes", "medical_service:pregnancy_test": "yes", "name": "Kaptimbor Dispensary", "wb_pb:id": "26192082"}}, {"type": "node", "id": 5781471255, "lat": 0.4853656, "lon": 35.7432222, "tags": {"amenity": "hospital", "dispensing": "yes", "electricity": "always", "general_medical_services": "yes", "image:project": "https://mapkibera.github.io/counties/data/images/cache/5781471255/httpkchumanitarianresponseinfoattachmentorginalmediafilemapkiberaattachments1531905240148jpg/orig.jpg", "name": "Baringo County referral hospital Surgical Ward", "type": "Surgical Ward", "wb_pb:id": "26125963"}}, {"type": "node", "id": 5781471256, "lat": 0.4859377, "lon": 35.7435511, "tags": {"amenity": "hospital", "image:project": "https://mapkibera.github.io/counties/data/images/cache/5781471256/httpkchumanitarianresponseinfoattachmentorginalmediafilemapkiberaattachments1531903619213jpg/orig.jpg", "name": "Baringo County referral hospital Mortuary", "type": "Mortuary", "wb_pb:id": "26125945"}}, {"type": "node", "id": 5798859907, "lat": 0.0464489, "lon": 35.72442, "tags": {"amenity": "hospital", "dispensing": "yes", "electricity": "always", "health_facility:referals": "Eldoret Referral Hospital", "image:pointofinterest": "http://kc.humanitarianresponse.info/attachment/orginal?media_file=mapkibera/attachments/1532608064458.jpg", "image:project": "https://mapkibera.github.io/counties/data/images/cache/5798859907/httpkchumanitarianresponseinfoattachmentorginalmediafilemapkiberaattachments1532608196635jpg/orig.jpg", "medical_service:family_planning": "yes", "medical_service:general_medical_services": "yes", "medical_service:immunizations": "yes", "medical_service:malaria": "yes", "medical_service:pregnancy_test": "yes", "name": "Eldama Ravine Sub-County Referral Hospital- Opd Block", "wb_pb:id": "26663862"}}, {"type": "node", "id": 5798859910, "lat": 0.0458721, "lon": 35.7246483, "tags": {"amenity": "hospital", "dispensing": "yes", "electricity": "sometime", "health_facility:referals": "Eldoret Referal Hospital", "image:pointofinterest": "http://kc.humanitarianresponse.info/attachment/orginal?media_file=mapkibera/attachments/1532606676419.jpg", "image:project": "https://mapkibera.github.io/counties/data/images/cache/5798859910/httpkchumanitarianresponseinfoattachmentorginalmediafilemapkiberaattachments1532606762137jpg/orig.jpg", "medical_service:family_planning": "yes", "medical_service:general_medical_services": "yes", "medical_service:immunizations": "yes", "medical_service:malaria": "yes", "medical_service:pregnancy_test": "yes", "name": "Eldama Ravine Sub-County Refferal Hospital- Orthopedic Ward", "wb_pb:id": "26663312"}}, {"type": "node", "id": 5798859911, "lat": 0.04579, "lon": 35.7247244, "tags": {"amenity": "hospital", "dispensing": "yes", "electricity": "sometime", "health_facility:referals": "Eldoret Referral Hospital", "image:pointofinterest": "http://kc.humanitarianresponse.info/attachment/orginal?media_file=mapkibera/attachments/1532606346905.jpg", "image:project": "https://mapkibera.github.io/counties/data/images/cache/5798859911/httpkchumanitarianresponseinfoattachmentorginalmediafilemapkiberaattachments1532606491571jpg/orig.jpg", "medical_service:family_planning": "yes", "medical_service:general_medical_services": "yes", "medical_service:immunizations": "yes", "medical_service:malaria": "yes", "medical_service:pregnancy_test": "yes", "name": "Eldama Ravine Sub-County Referral Hospital-Laundry", "wb_pb:id": "26663306"}}, {"type": "node", "id": 5817717027, "lat": 0.0553917, "lon": 35.7320689, "tags": {"amenity": "hospital", "dispensing": "yes", "electricity": "always", "health_facility:referals": "St.Luke's Eldoret", "image:pointofinterest": "http://kc.humanitarianresponse.info/attachment/orginal?media_file=mapkibera/attachments/1532680349856.jpg", "medical_service:family_planning": "yes", "medical_service:general_medical_services": "yes", "medical_service:immunizations": "yes", "medical_service:malaria": "yes", "medical_service:pregnancy_test": "yes", "name": "Eldama Ravine Nursing Home", "wb_pb:id": "26732977"}}, {"type": "node", "id": 5818469554, "lat": 0.3175084, "lon": 32.5767662, "tags": {"addr:street": "Buganda Road", "amenity": "hospital", "healthcare": "hospital", "name": "Wellington Diabetes and Heart Clinic"}}, {"type": "node", "id": 5820321726, "lat": 0.4850803, "lon": 35.7427341, "tags": {"amenity": "hospital", "image:project": "https://mapkibera.github.io/counties/data/images/cache/5820321726/httpkchumanitarianresponseinfoattachmentorginalmediafilemapkiberaattachments1531904495659jpg/orig.jpg", "name": "Kabarnet Refferal Hopital-ICU", "wb_pb:id": "26199364"}}, {"type": "node", "id": 6241666287, "lat": 0.3356256, "lon": 34.4876807, "tags": {"addr:city": "Mumias", "addr:street": "Mumias-Bungoma Road", "amenity": "hospital", "healthcare": "hospital", "name": "Mumias Mission"}}, {"type": "node", "id": 6337598797, "lat": 2.2460922, "lon": 31.1278053, "tags": {"amenity": "hospital", "name": "Centre De Nyarambe"}}, {"type": "node", "id": 6633197986, "lat": 8.9819457, "lon": 38.6911212, "tags": {"amenity": "hospital", "name": "\u12a0\u12e8\u122d \u1324\u1293 \u12e8\u1218/\u12f0 \u1206\u1235\u1352\u1273\u120d", "name:en": "Ayer Tena primary Hospital"}}, {"type": "node", "id": 6788435690, "lat": 0.470783, "lon": 35.98261, "tags": {"amenity": "hospital", "dispensing": "yes", "electricity": "always", "health_facility:referrals": "Kabarnet Referral Hospital", "image": "https://kc.humanitarianresponse.info/attachment/original?media_file=mapkibera/attachments/1568028335789.jpg", "is_in:village": "Town A", "medical_service:family_planning": "yes", "medical_service:general_medical_services": "yes", "medical_service:immunizations": "yes", "medical_service:malaria": "yes", "medical_service:pregnancy_test": "yes", "name": "Marigat Sub County Hospital"}}, {"type": "node", "id": 6788450194, "lat": 0.4774237, "lon": 35.98487, "tags": {"amenity": "hospital", "dispensing": "no", "electricity": "none", "image": "https://mapkibera.github.io/counties/data/images/cache/6788450194/httpskchumanitarianresponseinfoattachmentoriginalmediafilebaringocountyattachments1568033412053jpg/orig.jpg", "image:project": "https://mapkibera.github.io/counties/data/images/cache/6788450194/httpskchumanitarianresponseinfoattachmentoriginalmediafilebaringocountyattachments1568033967704jpg/orig.jpg", "is_in:village": "Town A", "medical_service:family_planning": "no", "medical_service:general_medical_services": "no", "medical_service:immunizations": "no", "medical_service:malaria": "no", "medical_service:pregnancy_test": "no", "name": "Sub County Referral Hospital", "wb_pb:id": "128"}}, {"type": "node", "id": 6855641985, "lat": 9.0190983, "lon": 38.809959, "tags": {"amenity": "hospital", "name": "St. Yared general hospital", "name:en": "St. Yared general hospital \u1245\u12f1\u1235 \u12eb\u122c\u12f5 \u12a0\u1320\u1243\u120b\u12ed \u1206\u1235\u1352\u1273\u120d"}}, {"type": "node", "id": 6924413653, "lat": 1.2360733, "lon": 35.1212583, "tags": {"amenity": "hospital", "image": "https://mapkibera.github.io/counties/data/images/cache/6924413653/httpskchumanitarianresponseinfoattachmentoriginalmediafilemapkiberaattachments1571913566505jpg/orig.jpg", "image:project": "https://mapkibera.github.io/counties/data/images/cache/6924413653/httpskchumanitarianresponseinfoattachmentoriginalmediafilemapkiberaattachments1571913809422jpg/orig.jpg", "image:project_inside": "https://kc.humanitarianresponse.info/attachment/original?media_file=mapkibera/attachments/1571913856373.jpg", "is_in:village": "Mwotot", "name": "Kapenguria Referral Hospital", "wb_pb:id": "49"}}, {"type": "node", "id": 6924413654, "lat": 1.2368567, "lon": 35.1216083, "tags": {"amenity": "hospital", "dispensing": "yes", "electricity": "always", "image": "https://mapkibera.github.io/counties/data/images/cache/6924413654/httpskchumanitarianresponseinfoattachmentoriginalmediafilemapkiberaattachments1571913172589jpg/orig.jpg", "image:project": "https://mapkibera.github.io/counties/data/images/cache/6924413654/httpskchumanitarianresponseinfoattachmentoriginalmediafilemapkiberaattachments1571913315322jpg/orig.jpg", "image:project_inside": "https://kc.humanitarianresponse.info/attachment/original?media_file=mapkibera/attachments1571915700216.jpg", "is_in:village": "Mwotot", "medical_service:family_planning": "yes", "medical_service:general_medical_services": "yes", "medical_service:immunizations": "yes", "medical_service:malaria": "yes", "medical_service:pregnancy_test": "yes", "name": "Kapenguria County Referral Hospital", "wb_pb:id": "56"}}, {"type": "node", "id": 6924413655, "lat": 1.2372683, "lon": 35.1214333, "tags": {"amenity": "hospital", "dispensing": "yes", "electricity": "often", "image": "https://mapkibera.github.io/counties/data/images/cache/6924413655/httpskchumanitarianresponseinfoattachmentoriginalmediafilemapkiberaattachments1571912747633jpg/orig.jpg", "image:project": "https://mapkibera.github.io/counties/data/images/cache/6924413655/httpskchumanitarianresponseinfoattachmentoriginalmediafilemapkiberaattachments1571912983148jpg/orig.jpg", "is_in:village": "Mwotot", "medical_service:family_planning": "yes", "medical_service:general_medical_services": "yes", "medical_service:immunizations": "yes", "medical_service:malaria": "yes", "medical_service:pregnancy_test": "yes", "name": "Kapenguria County Referral Hospital", "wb_pb:id": "54"}}, {"type": "node", "id": 6929805085, "lat": 9.0328767, "lon": 38.7803847, "tags": {"amenity": "hospital", "healthcare": "hospital", "name": "\u1306\u12ed \u12e8\u121b\u1205\u1340\u1295\u1293 \u1345\u1295\u1235 \u1206\u1235\u1352\u1273\u120d", "name:en": "Joy maternity hospital"}}, {"type": "node", "id": 6972258716, "lat": 1.23768, "lon": 35.1218833, "tags": {"amenity": "hospital", "image:pointofinterest": "https://kc.humanitarianresponse.info/attachment/original?media_file=mapkibera/attachments/1571915483075.jpg", "image:project_inside": "https://kc.humanitarianresponse.info/attachment/original?media_file=mapkibera/attachments/1571915700216.jpg", "image:project_outside": "https://kc.humanitarianresponse.info/attachment/original?media_file=mapkibera/attachments/1571915669888.jpg", "is_in:village": "Mwotot", "name": "Kapenguria Referral Hospital Ward Seven", "operator:type": "government", "wb_pb:id": "53"}}, {"type": "node", "id": 6979687003, "lat": 0.4774133, "lon": 35.98487, "tags": {"amenity": "hospital", "image:pointofinterest": "https://kc.humanitarianresponse.info/attachment/original?media_file=mapkibera/attachments/1568033412053.jpg", "image:project": "https://mapkibera.github.io/counties/data/images/cache/6979687003/httpskchumanitarianresponseinfoattachmentoriginalmediafilebaringocountyattachments1568033967704jpg/orig.jpg", "is_in:village": "Town A", "name": "Sub County Referral Hospital", "wb_pb:id": "146"}}, {"type": "node", "id": 6994458586, "lat": 9.6100628, "lon": 36.9229688, "tags": {"amenity": "hospital", "name": "\u12a0\u1264 \u12f6\u1295\u130e\u1229", "name:en": "Abee Dongooroo"}}, {"type": "node", "id": 7260938234, "lat": 3.5144891, "lon": 39.0522735, "tags": {"addr:city": "Moyale", "amenity": "hospital", "healthcare": "hospital", "name": "Moyale Gen Hospital"}}, {"type": "node", "id": 7312254585, "lat": 0.3673421, "lon": 32.6374142, "tags": {"addr:full": "Kira Ln", "amenity": "hospital", "contact:phone": "0414 580 757", "dispensing": "yes", "health_amenity:type": "laboratory", "healthcare": "dentist;doctor;hospital;laboratory;pharmacy", "name": "Malcom Health Center", "opening_hours": "24/7", "operational_status": "operational"}}, {"type": "node", "id": 7312260485, "lat": 0.3677122, "lon": 32.6371568, "tags": {"addr:full": "Kira Ln", "amenity": "hospital", "contact:phone": "0775 205774", "healthcare": "hospital;laboratory;pharmacy", "name": "TMR International Hospital", "opening_hours": "24/7"}}, {"type": "node", "id": 7317910985, "lat": 0.3878176, "lon": 32.654205, "tags": {"addr:full": "Namugongo", "amenity": "hospital", "health_amenity:type": "laboratory", "healthcare": "hospital", "insurance:health": "private", "is_in:health_area": "Sane environment, close to the Uganda Martyrs' Shrine", "name": "Zia Angelina", "opening_hours": "24/7", "operational_status": "operational", "operator:type": "private", "wheelchair": "yes"}}, {"type": "node", "id": 7317916685, "lat": 0.3787373, "lon": 32.6451365, "tags": {"addr:full": "Kyaliwajjala_Naalya Road", "amenity": "hospital", "healthcare": "hospital", "insurance:health": "private", "name": "Life Link Hospital", "opening_hours": "24/7", "operational_status": "operational", "operator:type": "private"}}, {"type": "node", "id": 7319752291, "lat": 6.7499829, "lon": 38.3940917, "tags": {"addr:street": "Road to Yirga Alem", "amenity": "hospital", "internet_access": "wlan", "name": "\u12ed\u122d\u130b\u1208\u121d \u1300\u1290\u122b\u120d \u1206\u1235\u1352\u1273\u120d", "name:en": "Yirgalem General Hospital"}}, {"type": "node", "id": 7325325685, "lat": 0.4073812, "lon": 32.6416683, "tags": {"addr:full": "Kira", "amenity": "hospital", "health_amenity:type": "laboratory", "healthcare": "hospital", "name": "JB Medical"}}, {"type": "node", "id": 7340474485, "lat": 9.0745204, "lon": 38.7586606, "tags": {"addr:street": "Intoto Road", "amenity": "hospital", "name": "\u1245/\u1334\u1325\u122e\u1235 \u1206\u1235\u1352\u1273\u120d (\u12e8\u1218\u1295\u130d\u1235\u1275)", "opening_hours": "24/7"}}, {"type": "node", "id": 7368469585, "lat": 7.0245706, "lon": 38.4693788, "tags": {"addr:street": "Hawassa,referral Hospital Road near yanet square", "amenity": "hospital", "email": "info@yanetmedicalcenter.org", "internet_access": "wlan", "name": "\u12eb\u1294\u1275 \u1200\u12e8\u122d \u12a5\u1235\u1354\u123b\u120b\u12ed\u12dd\u12f5 \u12ad\u120a\u1292\u12ad", "name:en": "Yanet Higher Specialized Clinic", "phone": "0462122726", "website": "http://www.liyanahealthcare.com"}}, {"type": "node", "id": 7398323192, "lat": 9.0313602, "lon": 38.7466728, "tags": {"amenity": "hospital", "name:en": "Teklehaimanot General Hospital"}}, {"type": "node", "id": 7457788685, "lat": 9.045081, "lon": 38.7510368, "tags": {"amenity": "hospital", "name": "\u12a0\u134d\u1295\u132e \u1260\u122d \u1324\u1293 \u1323\u1262\u12eb", "name:en": "Afincho Ber Health Center"}}, {"type": "node", "id": 7506993985, "lat": 7.6762126, "lon": 36.8295424, "tags": {"amenity": "hospital", "name:en": "Jimma Health Center"}}, {"type": "node", "id": 7521975485, "lat": 9.0375208, "lon": 38.7209861, "tags": {"amenity": "hospital", "name": "\u12a2\u1275\u12ec-\u1320\u1262\u1265", "name:en": "Ethio-Tebib Hospital"}}, {"type": "node", "id": 7528067988, "lat": 9.0079798, "lon": 38.7641998, "tags": {"amenity": "hospital", "name:en": "Adera Internal Medical Speciality Center"}}, {"type": "node", "id": 7625359935, "lat": 0.1817848, "lon": 32.1145356, "tags": {"amenity": "hospital", "description": "Level: Hospital\nDistrict: Butambala\nRevised DHIS2 ID: xuCJ8NBomxP", "healthcare": "hospital", "name": "Gombe (Butambala) Hospital", "operator": "Government", "operator:type": "government_facility-public"}}, {"type": "node", "id": 7625359936, "lat": 0.2262573, "lon": 32.2076581, "tags": {"amenity": "hospital", "description": "Level: HC II\nDistrict: Butambala\nRevised DHIS2 ID: aDGztjb0S7j", "healthcare": "hospital", "name": "Kalamba Community HC II", "operator": "Private Not For Profit", "operator:type": "private_non_profit"}}, {"type": "node", "id": 7625359937, "lat": 0.2963112, "lon": 32.2675464, "tags": {"amenity": "hospital", "description": "Level: HC III\nDistrict: Butambala\nRevised DHIS2 ID: O4sKsWoxekL", "healthcare": "hospital", "name": "Kitimba HC III", "operator": "Government", "operator:type": "government_facility-public"}}, {"type": "node", "id": 7625359946, "lat": 0.0758895, "lon": 31.9254588, "tags": {"amenity": "hospital", "description": "Level: HC III\nDistrict: Butambala\nRevised DHIS2 ID: lH80zq7z1Hg", "healthcare": "hospital", "name": "Ngando HC III", "operator": "Government", "operator:type": "government_facility-public"}}, {"type": "node", "id": 7651409951, "lat": 0.1727902, "lon": 32.3318253, "tags": {"amenity": "hospital", "moh_rank": "HC III", "name": "Nsamu/Kyali HC III", "operator": "Ministry of Health", "specialties": "general"}}, {"type": "node", "id": 7651409972, "lat": 0.0763107, "lon": 32.1235538, "tags": {"amenity": "hospital", "moh_rank": "HC III", "name": "Mitala-Maria HC III", "operator:type": "private_non_profit", "specialties": "general"}}, {"type": "node", "id": 7651409995, "lat": 0.1231, "lon": 31.0736333, "tags": {"FIELD1": "92", "amenity": "hospital", "dhis2_id": "NA", "district": "SEMBABULE", "facility_name": "GGOLI HC III", "healthcare": "hospital", "level": "HC III", "ownership": "NA"}}, {"type": "node", "id": 7651410056, "lat": 0.1815466, "lon": 32.1151306, "tags": {"amenity": "hospital", "name": "Gombe Hospital", "operator": "Ministry of Health", "operator:type": "government", "wikidata": "Q28444827"}}, {"type": "node", "id": 7651410058, "lat": 0.1373348, "lon": 32.226725, "tags": {"amenity": "hospital", "moh_rank": "HC III", "name": "Ggoli - St Yakobo HC III", "operator:type": "private_non_profit", "specialties": "general"}}, {"type": "node", "id": 7651410071, "lat": 0.061386, "lon": 32.1069775, "tags": {"amenity": "hospital", "moh_rank": "HC III", "name": "Buwama HC III", "operator": "Ministry of Health", "operator:type": "government", "specialties": "general"}}, {"type": "node", "id": 7651410072, "lat": 0.1249833, "lon": 32.2293833, "tags": {"FIELD1": "15", "amenity": "hospital", "dhis2_id": "Co0DLFVgmGz", "district": "MPIGI", "facility_name": "Butoolo HC III", "latlon": "0.1249833,32.2293833", "moh_rank": "HC III", "name": "Butoolo HC III", "operator": "Government", "ownership": "Government", "specialties": "general"}}, {"type": "node", "id": 7713186486, "lat": 0.4148466, "lon": 32.5326394, "tags": {"amenity": "hospital", "name": "Kawanda health center 3"}}, {"type": "node", "id": 7775733386, "lat": 3.7653145, "lon": 39.2258044, "tags": {"amenity": "hospital"}}, {"type": "node", "id": 7782612486, "lat": 8.9656394, "lon": 38.7880676, "tags": {"amenity": "hospital", "name:en": "UN Field Hospital - Addis Ababa"}}, {"type": "node", "id": 7834112885, "lat": 0.2559695, "lon": 32.5336239, "tags": {"amenity": "hospital", "email": "gmcentre@gmail.com", "name": "Generations Medical Centre", "opening_hours": "24/7", "phone": "0755175480, 0772418651"}}, {"type": "node", "id": 7839100136, "lat": 0.4269771, "lon": 34.5484653, "tags": {"amenity": "hospital", "healthcare": "hospital", "name": "Khalaba Health Centre"}}, {"type": "node", "id": 7853159199, "lat": 0.3749367, "lon": 32.6252137, "tags": {"addr:street": "Mbogo Road", "amenity": "hospital", "name": "Najjera Hospital", "opening_hours": "24/7", "phone": "0392176664"}}, {"type": "node", "id": 7919361285, "lat": 0.5076629, "lon": 35.2953394, "tags": {"amenity": "hospital", "email": "info@medihealgroup.com", "emergency": "yes", "healthcare": "hospital", "healthcare:speciality": "general;gynaecology;ophthalmology;paediatrics;dentist;internal;orthopaedics;dermatology;psychiatry;orthodontics;urology;physiotherapy;radiology;surgery;neurology", "image": "https://www.medihealgroup.com/wp-content/uploads/2021/08/eldoret_main1-377x214.jpg", "name": "Mediheal Hospital and Fertility Centre - Eldoret"}}, {"type": "node", "id": 7942780419, "lat": 2.4610842, "lon": 31.4953762, "tags": {"addr:city": "Kampala", "addr:postcode": "24583", "addr:street": "Arua - Pakwach Road", "amenity": "hospital", "email": "info@barry.co.ug", "emergency": "yes", "healthcare": "hospital", "healthcare:speciality": "general;radiology;internal;clinic;gynaecology;community;biology", "name": "Barry PHARMACY and MEDICAL CENTRE", "phone": "+256393000255", "start_date": "2020-6-9", "website": "https://barry.co.ug", "wheelchair": "yes"}}, {"type": "node", "id": 8001840185, "lat": 9.0118515, "lon": 38.7398606, "tags": {"amenity": "hospital", "healthcare": "hospital", "name": "\u12e8\u12a2\u1275\u12ee\u1335\u12eb \u134c\u12f0\u122b\u120d \u1356\u120a\u1235 \u1206\u1235\u1352\u1273\u120d", "name:en": "Ethiopian Federal Police Hospital"}}, {"type": "node", "id": 8003564619, "lat": 4.8910688, "lon": 31.5646479, "tags": {"amenity": "hospital", "fixme": "coordinates in front of building, need to adjust", "name": "Nyakuron PHCC", "operator": "moh"}}, {"type": "node", "id": 8003564634, "lat": 4.8727778, "lon": 31.5527778, "tags": {"amenity": "hospital", "fixme": "coordinates in front of building, need to adjust", "name": "Kumi PHCC", "operator": "moh"}}, {"type": "node", "id": 8003564642, "lat": 4.8561111, "lon": 31.6077778, "tags": {"amenity": "hospital", "fixme": "coordinates in front of building, need to adjust", "name": "Luri Rokwe PHCU", "operator": "moh"}}, {"type": "node", "id": 8003564654, "lat": 4.8480556, "lon": 31.6158333, "tags": {"amenity": "hospital", "fixme": "coordinates in front of building, need to adjust", "name": "Modern Specialty Hospital", "operator": "private"}}, {"type": "node", "id": 8003564671, "lat": 4.8476271, "lon": 31.5582218, "tags": {"amenity": "hospital", "fixme": "coordinates in front of building, need to adjust", "name": "Jebel PHCC", "operator": "moh"}}, {"type": "node", "id": 8003564673, "lat": 4.8525, "lon": 31.6127778, "tags": {"amenity": "hospital", "fixme": "coordinates in front of building, need to adjust", "name": "Peace Hospital", "operator": "private"}}, {"type": "node", "id": 8003574721, "lat": 4.8881845, "lon": 31.5637282, "tags": {"amenity": "hospital", "fixme": "coordinates in front of building, need to adjust", "name": "Reconciliation Lutheran Church (PHCU)", "operator": "ngo"}}, {"type": "node", "id": 8003574737, "lat": 4.8871209, "lon": 31.5786296, "tags": {"amenity": "hospital", "fixme": "coordinates in front of building, need to adjust", "name": "Mangateen 2 PHCU", "operator": "moh"}}, {"type": "node", "id": 8003574750, "lat": 4.837317, "lon": 31.5664368, "tags": {"amenity": "hospital", "fixme": "coordinates in front of building, need to adjust", "name": "Morobo Specialized Hospital", "operator": "moh"}}, {"type": "node", "id": 8003574774, "lat": 4.9327778, "lon": 31.5872222, "tags": {"amenity": "hospital", "fixme": "coordinates in front of building, need to adjust", "name": "Kwerjik Luri PHCU", "operator": "moh"}}, {"type": "node", "id": 8003574776, "lat": 4.8449879, "lon": 31.5728245, "tags": {"amenity": "hospital", "fixme": "coordinates in front of building, need to adjust", "name": "Al-Amin Nursing Home", "operator": "private"}}, {"type": "node", "id": 8003574800, "lat": 4.8616667, "lon": 31.6005556, "tags": {"amenity": "hospital", "fixme": "coordinates in front of building, need to adjust", "name": "China Friendship Hosp.", "operator": "private"}}, {"type": "node", "id": 8003574802, "lat": 4.8486111, "lon": 31.6130556, "tags": {"amenity": "hospital", "fixme": "coordinates in front of building, need to adjust", "name": "Nation Prison Health Center", "operator": "moh"}}, {"type": "node", "id": 8003574823, "lat": 4.8475481, "lon": 31.608795, "tags": {"amenity": "hospital", "fixme": "coordinates in front of building, need to adjust", "name": "Al Cardinal kidney Hospital", "operator": "private"}}, {"type": "node", "id": 8005522986, "lat": 9.0207753, "lon": 38.7484495, "tags": {"amenity": "hospital", "name": "\u12e8\u12a2\u1275\u12ee\u1335\u12eb \u12e8\u120d\u1265 \u121b\u12a5\u12a8\u120d", "name:en": "Ethiopian Cardiac Center"}}, {"type": "node", "id": 8007228798, "lat": 1.5531272, "lon": 30.2563113, "tags": {"amenity": "hospital", "check_date": "2023-05-24", "health_facility:CD": "cs", "name": "Centre de sant\u00e9 de Commune", "short_name": "CS Commune"}}, {"type": "node", "id": 8014446144, "lat": 2.3238476, "lon": 37.9910718, "tags": {"amenity": "hospital", "healthcare": "hospital", "name": "Marsabit Referral Hospital"}}, {"type": "node", "id": 8037307773, "lat": 1.5653784, "lon": 30.2503068, "tags": {"amenity": "hospital", "check_date": "2023-05-24", "health_facility:CD": "ch", "name": "Centre hospitalier La charit\u00e9", "short_name": "CH La charit\u00e9"}}, {"type": "node", "id": 8041424885, "lat": 9.0118881, "lon": 38.7386679, "tags": {"amenity": "hospital", "name": "\u12f0\u1303\u12dd\u121b\u127d \u1263\u120d\u127b \u12a0\u1263\u1290\u134d\u1236 \u1206\u1235\u1352\u1273\u120d", "name:en": "Dejazmach Balcha Abanefso Hospital"}}, {"type": "node", "id": 8073085218, "lat": 9.0307882, "lon": 38.7427866, "tags": {"amenity": "hospital", "name": "\u130d\u1295\u1266\u1275 20 \u1324\u1293 \u1323\u1262\u12eb", "name:en": "Ginbot 20 Health Center"}}, {"type": "node", "id": 8073085417, "lat": 9.0335569, "lon": 38.7254506, "tags": {"amenity": "hospital", "name": "\u12a0\u12f2\u1235 \u12a8\u1270\u121b \u1324\u1293 \u1323\u1262\u12eb", "name:en": "Addis Ketema Health Center"}}, {"type": "node", "id": 8073085517, "lat": 9.0337997, "lon": 38.7237227, "tags": {"amenity": "hospital", "name": "\u12a0\u12f2\u1235 \u12a8\u1270\u121b \u1324\u1293 \u1323\u1262\u12eb", "name:en": "Addis Ketema Health Center"}}, {"type": "node", "id": 8091849200, "lat": 3.1273212, "lon": 37.4236449, "tags": {"amenity": "hospital", "name": "Kalacha Referral Hospital"}}, {"type": "node", "id": 8121245725, "lat": 1.5610629, "lon": 30.2428693, "tags": {"amenity": "hospital", "check_date": "2023-05-24", "health_facility:CD": "hosp", "name": "H\u00f4pital provincial PNC de l'Ituri"}}, {"type": "node", "id": 8141974817, "lat": 0.8008213, "lon": 30.144378, "tags": {"amenity": "hospital", "name": "Ntandi Health Centre III"}}, {"type": "node", "id": 8141975118, "lat": 0.6139263, "lon": 30.6397914, "tags": {"amenity": "hospital", "name": "Kyenjo", "name:en": "Kyenjojo General Hospital", "wikidata": "Q24885600"}}, {"type": "node", "id": 8258452826, "lat": 0.6761589, "lon": 35.5070484, "tags": {"addr:city": "Iten", "addr:postcode": "332", "addr:street": "Kapsowar Road", "amenity": "hospital", "healthcare": "hospital", "name": "Iten County Referral Hospital", "operator": "Elgeyo Marakwet County Government"}}, {"type": "node", "id": 8261889730, "lat": 0.3588591, "lon": 32.6164676, "tags": {"amenity": "hospital", "name": "Kampala Independent Hospital"}}, {"type": "node", "id": 8296886117, "lat": 9.0466828, "lon": 38.7308027, "tags": {"amenity": "hospital", "name": "\u12e8\u12a2\u1275\u12ee\u1332\u12eb \u1205\u1265\u1228\u1270\u1230\u1265 \u1324\u1293 \u12a2\u1295\u1235\u1272\u1275\u12ee\u1275", "name:en": "Ethiopian Public Health Institute"}}, {"type": "node", "id": 8296886217, "lat": 9.04783, "lon": 38.7280864, "tags": {"amenity": "hospital", "name": "\u1245\u12f5\u1235 \u1353\u12cd\u120e\u1235 \u1206\u1235\u1352\u1273\u120d \u121a\u120a\u1292\u12e8\u121d \u121c\u12f2\u12ab\u120d \u12ae\u120c\u1305", "name:en": "St. Paul's Hospital Millenium Medical College"}}, {"type": "node", "id": 8299731919, "lat": 9.1042613, "lon": 35.3981391, "tags": {"amenity": "hospital", "internet_access": "wlan", "name": "Hospitaala Waliigalaa Aayiraa", "name:en": "Aira General Hospital", "opening_hours": "24/7"}}, {"type": "node", "id": 8353563659, "lat": 0.0411679, "lon": 32.3094982, "tags": {"amenity": "hospital", "moh_rank": "HC III", "name": "Bussi Health Center III", "operator": "Wakiso District Local Government", "operator:type": "government"}}, {"type": "node", "id": 8407970618, "lat": 1.8175824, "lon": 32.0170767, "tags": {"addr:street": "Gulu - Kampala Road", "amenity": "hospital", "name": "St Mary Level 3 Hospital", "opening_hours": "24/7"}}, {"type": "node", "id": 8411730617, "lat": 0.3972874, "lon": 32.4777642, "tags": {"amenity": "hospital", "healthcare": "hospital", "name": "Wakiso Health Center IV", "operator": "Ministry of Health", "operator:type": "government"}}, {"type": "node", "id": 8412449918, "lat": 0.3611911, "lon": 32.7453832, "tags": {"addr:street": "Jinja - Kampala Road", "amenity": "hospital", "name": "IMC Mukono"}}, {"type": "node", "id": 8420514517, "lat": 0.391112, "lon": 32.6258925, "tags": {"amenity": "hospital", "name": "Malcom Hospital"}}, {"type": "node", "id": 8420580218, "lat": 0.3955166, "lon": 32.634771, "tags": {"amenity": "hospital", "name": "Angel Wing Hospital"}}, {"type": "node", "id": 8424899916, "lat": 1.5082223, "lon": 31.5324663, "tags": {"amenity": "hospital", "healthcare": "hospital", "healthcare:speciality": "general;dentist;orthopaedics", "name": "Ebenezer Community Medical Center"}}, {"type": "node", "id": 8428297217, "lat": 9.0334913, "lon": 38.7238553, "tags": {"amenity": "hospital", "name": "\u12a0\u12f2\u1235 \u12a8\u1270\u121b \u1324\u1293 \u1323\u1262\u12eb", "name:en": "Addis ketema health center"}}, {"type": "node", "id": 8429483217, "lat": 1.3112197, "lon": 36.7934526, "tags": {"amenity": "hospital", "beds": "4", "healthcare": "hospital", "healthcare:speciality": "gynaecology", "name": "Kibera Community Health Centre (Amref)", "opening_hours": "Mo-Fr 00:00-23:55", "operator:type": "combination"}}, {"type": "node", "id": 8433857917, "lat": 2.8142164, "lon": 31.9414327, "tags": {"amenity": "hospital", "name": "P.L.C health center", "opening_hours": "24/7"}}, {"type": "node", "id": 8435293818, "lat": 0.2017188, "lon": 32.5403499, "tags": {"amenity": "hospital", "name": "His Grace Community Hospital"}}, {"type": "node", "id": 8438961817, "lat": 1.8084204, "lon": 32.0080591, "tags": {"addr:street": "Kigumba Masindi road", "amenity": "hospital", "name": "GRACE MEDICAL CENTER", "opening_hours": "24/7"}}, {"type": "node", "id": 8440876318, "lat": 0.3512396, "lon": 32.766257, "tags": {"amenity": "hospital", "name": "Mukono International Medical Center"}}, {"type": "node", "id": 8440876517, "lat": 0.358343, "lon": 32.7508319, "tags": {"amenity": "hospital", "name": "City Medical Mukono"}}, {"type": "node", "id": 8441176717, "lat": 0.6151642, "lon": 33.4793941, "tags": {"amenity": "hospital", "name": "Grace Laboratories"}}, {"type": "node", "id": 8453954419, "lat": 3.2759032, "lon": 30.9526146, "tags": {"addr:street": "Koboko - Arua Road", "amenity": "hospital", "name": "Health Center II"}}, {"type": "node", "id": 8453954425, "lat": 3.4293181, "lon": 31.0640498, "tags": {"addr:street": "Moyo Road", "amenity": "hospital", "name": "Health Center II"}}, {"type": "node", "id": 8453954430, "lat": 3.0303029, "lon": 30.9069352, "tags": {"amenity": "hospital", "name": "River Oli Health Centre IV"}}, {"type": "node", "id": 8456544518, "lat": 3.4401136, "lon": 31.1862108, "tags": {"addr:street": "Moyo Road", "amenity": "hospital", "name": "Yumbe Hospital"}}, {"type": "node", "id": 8457174017, "lat": 0.439849, "lon": 33.1911611, "tags": {"amenity": "hospital", "name": "Bridge International Hospital"}}, {"type": "node", "id": 8457496718, "lat": 0.3591694, "lon": 32.7233812, "tags": {"amenity": "hospital", "name": "Mabuta Health Center"}}, {"type": "node", "id": 8458238017, "lat": 0.0493897, "lon": 30.4989363, "tags": {"amenity": "hospital", "healthcare": "hospital", "name": "Ishongororo Health Centre IV"}}, {"type": "node", "id": 8478042917, "lat": 0.5110862, "lon": 35.2903626, "tags": {"amenity": "hospital", "name": "Fountain Healthcare"}}, {"type": "node", "id": 8478042921, "lat": 1.8023846, "lon": 31.9831067, "tags": {"addr:street": "Bobi- Masindi Road", "amenity": "hospital", "name": "Kigumba health center four", "opening_hours": "24/7"}}, {"type": "node", "id": 8478602469, "lat": 1.916229, "lon": 33.2998447, "tags": {"amenity": "hospital", "healthcare": "hospital", "healthcare:speciality": "general", "name": "Zion Drug store", "operator": "Otim Moses", "operator:type": "private"}}, {"type": "node", "id": 8489493419, "lat": 0.1218128, "lon": 32.5367559, "tags": {"addr:street": "Road to White House Sister's Residence", "amenity": "hospital", "name": "Kisubi Hospital", "opening_hours": "24/7"}}, {"type": "node", "id": 8493717526, "lat": 9.0235811, "lon": 38.8542508, "tags": {"amenity": "hospital", "name": "\u12a0\u12ed\u1232\u12a4\u121d\u1232  \u1206\u1235\u1352\u1273\u120d", "name:en": "Icmc Hospital"}}, {"type": "node", "id": 8493914121, "lat": 2.4802709, "lon": 31.0939504, "tags": {"amenity": "hospital", "name": "Santa Maria Medical Centre"}}, {"type": "node", "id": 8513036430, "lat": 9.0037819, "lon": 38.7322551, "tags": {"amenity": "hospital", "name:en": "International Clinical Laboratories AA1 Main Branch"}}, {"type": "node", "id": 8513036622, "lat": 9.0045033, "lon": 38.737961, "tags": {"amenity": "hospital", "name:en": "Genet General Hospital"}}, {"type": "node", "id": 8518249418, "lat": 9.0382317, "lon": 38.8770372, "tags": {"amenity": "hospital", "name": "\u1208\u121a \u12a9\u122b \u12c8\u1228\u12f3 13 \u1324\u1293 \u1323\u1262\u12eb", "name:en": "Woreda 13 Health Center"}}, {"type": "node", "id": 8536823217, "lat": 0.3308901, "lon": 32.576188, "tags": {"amenity": "hospital", "name": "Platinum Hospital", "wheelchair": "yes"}}, {"type": "node", "id": 8556078017, "lat": 0.1833887, "lon": 32.5373705, "tags": {"amenity": "hospital", "name": "Namulundu Medical Center"}}, {"type": "node", "id": 8559415818, "lat": 0.6299368, "lon": 33.1815001, "tags": {"amenity": "hospital", "name": "Buwenge General Hospital"}}, {"type": "node", "id": 8560535017, "lat": 0.4639914, "lon": 33.153532, "tags": {"amenity": "hospital", "name": "Rural Charity Medical Innitiative"}}, {"type": "node", "id": 8560692119, "lat": 0.6408735, "lon": 32.8405169, "tags": {"amenity": "hospital", "name": "Kikandwa Health Center"}}, {"type": "node", "id": 8560755417, "lat": 0.5258641, "lon": 32.7793731, "tags": {"amenity": "hospital", "name": "St Francis Nagalama Hospital"}}, {"type": "node", "id": 8560756418, "lat": 0.4984317, "lon": 32.7431357, "tags": {"amenity": "hospital", "name": "Rock Health Service"}}, {"type": "node", "id": 8560816918, "lat": 0.4759128, "lon": 32.6710076, "tags": {"amenity": "hospital", "name": "St. Kizito Health Center"}}, {"type": "node", "id": 8560816921, "lat": 0.4601606, "lon": 32.6303937, "tags": {"amenity": "hospital", "name": "Ashock medical"}}, {"type": "node", "id": 8571946118, "lat": 8.9987434, "lon": 38.7162809, "tags": {"amenity": "hospital", "name": "\u12c8\u1228\u12f3 09 \u1324\u1293 \u1323\u1262\u12eb", "name:en": "Woreda 09 Health Center"}}, {"type": "node", "id": 8575855417, "lat": 0.6557074, "lon": 30.2742295, "tags": {"amenity": "hospital", "name": "Papa's Medical Centre International"}}, {"type": "node", "id": 8591837717, "lat": 0.4359326, "lon": 32.6014461, "tags": {"amenity": "hospital", "name": "Kasangati Health Centre IV"}}, {"type": "node", "id": 8631105818, "lat": 0.3610322, "lon": 32.7455919, "tags": {"addr:street": "Jinja - Kampala Road", "amenity": "hospital", "name": "IMC", "opening_hours": "24/7"}}, {"type": "node", "id": 8632128768, "lat": 2.4606697, "lon": 30.9498491, "tags": {"addr:district": "Zombo", "addr:parish": "Oyeyo", "addr:subcounty": "Nyapea", "addr:village": "Mission Center", "amenity": "hospital", "capacity:beds": "200", "capacity:inpatient": "100", "capacity:outpatient": "250", "contact:phone": "0772177052", "dispensing": "yes", "emergency": "yes", "incenerator": "yes", "name": "Nyapea Hospital", "operator": "private", "source": "HOT_Uganda", "staff_count:doctors": "2", "staff_count:nurses": "20", "toilets": "yes", "toilets:access": "customers", "toilets:num_chambers": "30", "wikidata": "Q104875951"}}, {"type": "node", "id": 8641930117, "lat": 8.9897654, "lon": 38.7557521, "tags": {"amenity": "hospital", "internet_access": "wlan", "name": "Fifake", "name:en": "Fi"}}, {"type": "node", "id": 8684522632, "lat": 0.3808205, "lon": 32.5766091, "tags": {"addr:street": "Gayaza Road", "amenity": "hospital", "name": "Mpererwe Stage Medical Centre"}}, {"type": "node", "id": 8684522929, "lat": 0.3677607, "lon": 32.5785325, "tags": {"addr:street": "Bahai Road", "amenity": "hospital", "name": "Tumaini Hospital"}}, {"type": "node", "id": 8684522930, "lat": 0.3673132, "lon": 32.5789582, "tags": {"addr:street": "Bahai Road", "amenity": "hospital", "name": "Addy Memorial Hospital"}}, {"type": "node", "id": 8684523024, "lat": 0.3852074, "lon": 32.5779855, "tags": {"addr:street": "Gayaza Road", "amenity": "hospital", "name": "Doctor's Medical Centre"}}, {"type": "node", "id": 8752467518, "lat": 9.0416874, "lon": 38.6983113, "tags": {"amenity": "hospital", "name:en": "LOMI MEDA HEALTH CENTER"}}, {"type": "node", "id": 8789292619, "lat": 0.3811505, "lon": 32.5596889, "tags": {"amenity": "hospital", "name": "MAKULA HEALTH CARE", "opening_hours": "24/7", "phone": "+256779414193"}}, {"type": "node", "id": 8846179571, "lat": 1.5709431, "lon": 33.4194377, "tags": {"amenity": "hospital", "description": "Health Centre II", "healthcare": "hospital", "name": "Akoboi Health Centre II", "operator": "Government of Uganda", "operator:type": "public"}}, {"type": "node", "id": 8862981917, "lat": 8.9983837, "lon": 38.7673546, "tags": {"amenity": "hospital", "name:en": "Arsho Medical Laboratories"}}, {"type": "node", "id": 8912951117, "lat": 9.0217256, "lon": 38.8898766, "tags": {"amenity": "hospital", "name:en": "Abebech Gobena MCH Hospital"}}, {"type": "node", "id": 8919879217, "lat": 8.9632349, "lon": 38.7643518, "tags": {"amenity": "hospital", "name": "Kadisco Tena tabia", "name:en": "Nifas Silk Woreda 9 Health Center"}}, {"type": "node", "id": 8932837317, "lat": 9.0422135, "lon": 38.8221534, "tags": {"addr:street": "Kotebe", "amenity": "hospital", "name": "\u1260 \u12e8\u12ab \u12ad\u134d\u1208 \u12a8\u1270\u121b \u12c8\u1228\u12f3 10\u1324\u1293 \u1323\u1262\u12eb", "name:en": "Yeka subcity wereda 10 Health care center"}}, {"type": "node", "id": 9004625817, "lat": 0.392091, "lon": 32.5757935, "tags": {"amenity": "hospital", "name": "Rest Health care"}}, {"type": "node", "id": 9022925159, "lat": 7.0475166, "lon": 38.5113098, "tags": {"amenity": "hospital", "healthcare": "hospital", "healthcare:speciality": "general", "name": "\u1324\u1293 \u1323\u1262\u12eb"}}, {"type": "node", "id": 9119633207, "lat": 0.3908441, "lon": 32.5844912, "tags": {"amenity": "hospital", "healthcare": "hospital", "name": "Komamboga Health Center III", "operator": "KCCA", "operator:type": "government"}}, {"type": "node", "id": 9119661832, "lat": 0.3991283, "lon": 32.5751205, "tags": {"amenity": "hospital", "healthcare": "hospital", "name": "St. Stephen's Hospital"}}, {"type": "node", "id": 9124073572, "lat": 1.0761541, "lon": 34.1765724, "tags": {"amenity": "hospital", "healthcare": "hospital", "name": "Mbale Referral Hospital"}}, {"type": "node", "id": 9129161288, "lat": 3.0056528, "lon": 30.9119759, "tags": {"amenity": "hospital", "healthcare": "hospital", "healthcare:speciality": "general;gynaecology;paediatrics;dentist;radiology;surgery", "name": "Family Care Hospital"}}, {"type": "node", "id": 9147491732, "lat": 2.409585, "lon": 30.8919183, "tags": {"addr:district": "Zombo", "addr:parish": "Afuda", "addr:street": "landmark", "addr:subcounty": "Jangokoro", "amenity": "hospital", "comment": "No", "gps": "2.409585 30.891918333333333 1604.3 4.8", "name": "Jangukuru health centre III", "source": "HOT_Uganda", "village": "Gbalia"}}, {"type": "node", "id": 9315692611, "lat": 1.9178286, "lon": 33.9618486, "tags": {"amenity": "hospital", "healthcare": "hospital", "name": "katakwi general hospital", "operator": "government", "wikidata": "Q24807572"}}, {"type": "node", "id": 9331757206, "lat": 1.5565291, "lon": 30.2549496, "tags": {"amenity": "hospital", "check_date": "2023-05-24", "health_facility:CD": "ch", "is_in:health_level8": "Nyakasanza", "name": "Centre Hospitalier Mont Bleu", "operator": "Priv\u00e9", "source": "DPS;OSM RDC;CS", "source:date": "2021-12-12", "vaccination": "yes"}}, {"type": "node", "id": 9352714520, "lat": 7.2070497, "lon": 38.6118909, "tags": {"addr:housenumber": "0940017261", "addr:postcode": "+251", "addr:street": "Shashamane/Robe Road", "amenity": "hospital", "email": "usmanshumi@gmail.com", "name": "Shashemene", "phone": "0940017261"}}, {"type": "node", "id": 9402072118, "lat": 2.2293323, "lon": 32.2861281, "tags": {"amenity": "hospital", "name": "Restoration gateway Hospital - Karuma"}}, {"type": "node", "id": 9431091092, "lat": 9.0644287, "lon": 36.5051383, "tags": {"amenity": "hospital"}}, {"type": "node", "id": 9433592299, "lat": 2.5935583, "lon": 32.0626986, "tags": {"amenity": "hospital", "healthcare": "hospital", "healthcare:speciality": "general"}}, {"type": "node", "id": 9602353817, "lat": 0.4543441, "lon": 32.532822, "tags": {"amenity": "hospital", "name": "Frost Hospital"}}, {"type": "node", "id": 9609625079, "lat": 9.0774575, "lon": 36.5811105, "tags": {"amenity": "hospital", "name": "Student's Clinic"}}, {"type": "node", "id": 9644878952, "lat": 7.0850645, "lon": 38.6148964, "tags": {"amenity": "hospital", "healthcare": "hospital"}}, {"type": "node", "id": 9644935021, "lat": 7.2103126, "lon": 38.6142548, "tags": {"amenity": "hospital", "description": "it is one of hospital that found in shashemene city", "healthcare": "hospital", "name": "Melka oda general hospital", "operator": "zelalem tasew", "operator:type": "private"}}, {"type": "node", "id": 9648046279, "lat": 2.1301076, "lon": 33.195182, "tags": {"amenity": "hospital", "healthcare": "hospital"}}, {"type": "node", "id": 9651399721, "lat": 0.8320136, "lon": 34.8595493, "tags": {"amenity": "hospital", "healthcare": "hospital", "name": "Sikhendu dispensary"}}, {"type": "node", "id": 9651419046, "lat": 0.8356066, "lon": 34.8658847, "tags": {"amenity": "hospital", "healthcare": "hospital", "name": "Sikhendu Medical clinic"}}, {"type": "node", "id": 9657997457, "lat": 0.1802577, "lon": 34.7217197, "tags": {"amenity": "hospital", "healthcare": "hospital", "healthcare:speciality": "general", "name": "Shikokho Health Clinic", "operator": "County of Kakamega", "operator:type": "government"}}, {"type": "node", "id": 9663389497, "lat": 0.2972566, "lon": 32.6474206, "tags": {"amenity": "hospital", "healthcare": "hospital", "name": "hospital"}}, {"type": "node", "id": 9671480408, "lat": 0.0510052, "lon": 37.6538321, "tags": {"amenity": "hospital", "healthcare": "hospital", "name": "Meru Level 5"}}, {"type": "node", "id": 9707117583, "lat": 9.0823957, "lon": 36.5526113, "tags": {"amenity": "hospital", "healthcare": "hospital", "name": "Nekemte Hospital"}}, {"type": "node", "id": 9707226723, "lat": 9.0824245, "lon": 36.5535234, "tags": {"addr:street": "Nekemte School of Nursing", "amenity": "hospital", "healthcare": "hospital", "name": "Nekemte School of Nursing"}}, {"type": "node", "id": 9724227375, "lat": 0.0148724, "lon": 37.8027662, "tags": {"amenity": "hospital", "healthcare": "hospital", "name": "clinic"}}, {"type": "node", "id": 9787649917, "lat": 0.4290991, "lon": 33.204248, "tags": {"amenity": "hospital", "name": "Family Hope Center"}}, {"type": "node", "id": 9810337113, "lat": 0.0392311, "lon": 36.3514953, "tags": {"amenity": "hospital", "name": "o"}}, {"type": "node", "id": 9810337114, "lat": 0.0401224, "lon": 36.3513059, "tags": {"addr:city": "Nyahururu", "addr:housenumber": "543", "addr:postcode": "20300", "amenity": "hospital", "emergency": "yes", "healthcare": "hospital", "healthcare:speciality": "gynaecology;general;dentist;orthopaedics;psychiatry;radiology;urology;surgery", "name": "OLJABET HOSPITAL", "operator": "DR. CAESAR MAKARA KANYANGO", "operator:type": "private"}}, {"type": "node", "id": 9810458487, "lat": 0.0370468, "lon": 36.3612465, "tags": {"addr:city": "Nyahururu", "addr:housenumber": "543", "addr:postcode": "20300", "addr:street": "Hospital Road Nyahururu", "amenity": "hospital", "email": "cmakara@live.com", "emergency": "yes", "healthcare": "hospital", "healthcare:speciality": "general;gynaecology;orthopaedics;psychiatry;radiology;physiotherapy;vaccination;surgery", "name": "OLJABET HOSPITAL TOWN CLINIC", "operator": "MISS JUDY WANJIKU KANYANGO", "operator:type": "private", "phone": "0727392198", "website": "ww.oljabethospital.co.ke"}}, {"type": "node", "id": 9853606518, "lat": 0.2359297, "lon": 32.5821529, "tags": {"addr:street": "Ndejje Road", "amenity": "hospital", "name": "M", "name:en": "Ndejje Health Center IV", "opening_hours": "24/7"}}, {"type": "node", "id": 9876044817, "lat": 0.424195, "lon": 32.5966735, "tags": {"amenity": "hospital", "name": "Stroke rehabilitation center", "opening_hours": "24/7"}}, {"type": "node", "id": 9901536385, "lat": 2.7574612, "lon": 32.3167549, "tags": {"amenity": "hospital", "name": "Aywee Health Centre III", "opening_hours": "Mo-Su 00:00-23:59"}}, {"type": "node", "id": 9903650387, "lat": 2.2668083, "lon": 32.8540233, "tags": {"amenity": "hospital", "contact:phone": "0784499874", "description": "contraceptives available here", "name": "Amuca Health Centre III", "opening_hours": "Mo-Su 07:00-20:00"}}, {"type": "node", "id": 9903650389, "lat": 2.2554289, "lon": 32.9054236, "tags": {"amenity": "hospital", "description": "contraceptives available here", "name": "Al_Shafa Modern Hospital", "opening_hours": "24/7"}}, {"type": "node", "id": 9909133568, "lat": 2.2456047, "lon": 32.8862864, "tags": {"amenity": "hospital", "description": "contraceptives available here", "healthcare": "hospital", "name": "Charis Health Care", "opening_hours": "24/7"}}, {"type": "node", "id": 9909133569, "lat": 2.190297, "lon": 32.9294608, "tags": {"amenity": "hospital", "description": "contraceptives available here", "name": "Bororboro Health Centre III", "opening_hours": "24/7"}}, {"type": "node", "id": 9909133572, "lat": 2.2499566, "lon": 32.8368794, "tags": {"amenity": "hospital", "description": "contraceptives available here", "name": "Barapwo Health Centree III", "opening_hours": "Mo-Su 07:00-20:00"}}, {"type": "node", "id": 9909133576, "lat": 2.2011684, "lon": 32.9347941, "tags": {"amenity": "hospital", "description": "contraceptives available here", "name": "Anyangatir Health Centre III"}}, {"type": "node", "id": 9909142406, "lat": 2.2565868, "lon": 32.8246057, "tags": {"amenity": "hospital", "description": "contraceptives available here", "healthcare": "hospital", "name": "Lira University Teaching Hospital", "opening_hours": "24/7"}}, {"type": "node", "id": 9909142409, "lat": 2.2440291, "lon": 32.907474, "tags": {"amenity": "hospital", "contact:phone": "0772693970", "description": "contraceptives available here", "email": "liramedicalcentre@yahoo.com", "name": "Lira Medical Centre", "opening_hours": "24/7"}}, {"type": "node", "id": 9909257636, "lat": 2.2355369, "lon": 32.9675362, "tags": {"amenity": "hospital", "name": "St Francis Akia", "opening_hours": "Mo-Su 07:00-20:00"}}, {"type": "node", "id": 9909273835, "lat": 2.2356706, "lon": 32.8983917, "tags": {"amenity": "hospital", "description": "contraceptives available here", "healthcare": "hospital", "name": "Pag Mission Hospital", "opening_hours": "24/7"}}, {"type": "node", "id": 9909273836, "lat": 2.2539583, "lon": 32.8743167, "tags": {"amenity": "hospital", "healthcare": "hospital", "name": "Ober Health Centre III", "opening_hours": "24/7"}}, {"type": "node", "id": 9909273838, "lat": 2.311732, "lon": 32.9263955, "tags": {"amenity": "hospital", "contact:phone": "772395854", "email": "Oromagab@yahoo.com", "name": "Ngetta Hc iii", "opening_hours": "24/7"}}, {"type": "node", "id": 9961317417, "lat": 8.9948015, "lon": 38.7300161, "tags": {"addr:street": "South Africa Street", "amenity": "hospital", "name": "New leaf fertility cent", "name:am": "\u1292\u12cd \u120a\u134d \u12e8\u1218\u12ab\u1295\u1290\u1275 \u12a5\u1293 \u1235\u1290-\u1270\u12cb\u120d\u12f6 \u1205\u12ad\u121d\u1293", "name:en": "New leaf fertility & reproductive care center", "opening_hours": "Mo-Sa 02:00-17:00", "phone": "+251945784848", "website": "https://newleaffertility.org/"}}, {"type": "node", "id": 9964207924, "lat": 0.3166023, "lon": 32.5683693, "tags": {"amenity": "hospital", "name": "Old Kampala Hospital"}}, {"type": "node", "id": 9992537238, "lat": 2.2628647, "lon": 32.9234337, "tags": {"amenity": "hospital", "description": "contraceptives available here", "name": "Ayago Health Center III", "opening_hours": "24/7"}}, {"type": "node", "id": 10004999555, "lat": 3.5244107, "lon": 39.0710346, "tags": {"amenity": "hospital", "healthcare": "hospital", "healthcare:speciality": "general", "name": "Heilu Dispensary", "operator": "Ministry of Health", "operator:type": "public", "operator:wikidata": "Q25182829"}}, {"type": "node", "id": 10013084879, "lat": 1.0894832, "lon": 34.1795308, "tags": {"addr:city": "Mbale", "addr:street": "Nkoma namakwekwe", "amenity": "hospital", "healthcare": "hospital", "healthcare:speciality": "general", "name": "Namakwekwe health centre iii"}}, {"type": "node", "id": 10020547595, "lat": 3.096981, "lon": 30.826029, "tags": {"amenity": "hospital", "contact:phone": "0775504646", "description": "contraceptives available here", "name": "Ayivuni Health Center III", "opening_hours": "Mo-Sa 07:30-15:00"}}, {"type": "node", "id": 10020547597, "lat": 3.0171383, "lon": 30.911193, "tags": {"amenity": "hospital", "description": "contraceptives available here", "name": "Arua Police Health Center III", "opening_hours": "24/7"}}, {"type": "node", "id": 10020547615, "lat": 3.0137243, "lon": 30.9002339, "tags": {"amenity": "hospital", "description": "contraceptives available here", "name": "Adumi Health Centre IV", "opening_hours": "Mo-Fr 08:00-17:00"}}, {"type": "node", "id": 10020565425, "lat": 3.0317078, "lon": 30.9040367, "tags": {"amenity": "hospital", "contact:phone": "0776777840", "description": "contraceptives available here", "name": "Harma Hospital", "opening_hours": "24/7"}}, {"type": "node", "id": 10023482340, "lat": 2.988631, "lon": 30.9331855, "tags": {"amenity": "hospital", "contact:phone": "0784479331", "description": "contraceptive available here", "name": "Peace Drug Shop Muni", "opening_hours": "Mo-Su 07:00-20:00"}}, {"type": "node", "id": 10023482341, "lat": 2.9975585, "lon": 30.8710731, "tags": {"amenity": "hospital", "contact:phone": "0760231007", "description": "contraceptives available here", "name": "Pajulu Health Center III", "opening_hours": "24/7"}}, {"type": "node", "id": 10023482343, "lat": 3.0273605, "lon": 30.9858488, "tags": {"amenity": "hospital", "contact:phone": "0771877039", "name": "Orivu Health Center III", "opening_hours": "Mo-Fr 08:00-17:00"}}, {"type": "node", "id": 10023482344, "lat": 3.0138336, "lon": 30.9002375, "tags": {"amenity": "hospital", "description": "contraceptives  available here", "name": "Orivu Health Center III", "opening_hours": "24/7"}}, {"type": "node", "id": 10023482346, "lat": 3.0685559, "lon": 30.9657668, "tags": {"amenity": "hospital", "contact:phone": "0782068852", "description": "contraceptives available here", "name": "Ombidriondrea Health Centre III", "opening_hours": "24/7"}}, {"type": "node", "id": 10023482347, "lat": 3.0146813, "lon": 30.9774209, "tags": {"amenity": "hospital", "contact:phone": "0770136032", "description": "contraceptives available here", "name": "Oluko Solidale III", "opening_hours": "Mo-Fr 08:00-17:00"}}, {"type": "node", "id": 10023482348, "lat": 3.0302764, "lon": 30.9071022, "tags": {"amenity": "hospital", "contact:phone": "0782068190", "description": "contraceptives available here", "name": "Oli Health Centre IV", "opening_hours": "Mo-Su 07:00-20:00"}}, {"type": "node", "id": 10023811281, "lat": 2.9981792, "lon": 30.9262004, "tags": {"amenity": "hospital", "description": "contraceptives available here", "name": "Muni University Clinic", "opening_hours": "24/7"}}, {"type": "node", "id": 10023811287, "lat": 3.1133916, "lon": 30.8634657, "tags": {"amenity": "hospital", "contact:phone": "0782149733", "description": "contraceptives available here", "name": "Micu Parish Health Centre II", "opening_hours": "24/7"}}, {"type": "node", "id": 10029045527, "lat": 0.25877, "lon": 33.1128885, "tags": {"amenity": "hospital", "emergency": "yes", "healthcare": "hospital", "healthcare:speciality": "prescriptions;admition;first_aid;circumcision;family_planning;consultation", "name": "mulago (BMHC)", "phone": "0757803575"}}, {"type": "node", "id": 10039914009, "lat": 2.8382229, "lon": 32.3792876, "tags": {"addr:street": "Gulu - Kitgum Roaf", "amenity": "hospital", "name": "Angaya HC III"}}, {"type": "node", "id": 10039928192, "lat": 2.7854093, "lon": 32.3249634, "tags": {"amenity": "hospital", "name": "Laroo Health Center III"}}, {"type": "node", "id": 10039938885, "lat": 3.0184183, "lon": 32.4536452, "tags": {"addr:street": "Paibona - Awach Road", "amenity": "hospital", "name": "Paibona HC II", "opening_hours": "Mo-Fr 08:00-17:00"}}, {"type": "node", "id": 10068406264, "lat": 0.4820006, "lon": 35.2094451, "tags": {"amenity": "hospital", "healthcare": "hospital"}}, {"type": "node", "id": 10100076016, "lat": 0.8843018, "lon": 33.850049, "tags": {"addr:city": "Busaba", "amenity": "hospital", "healthcare": "hospital", "name": "Bugalo Health center iii"}}, {"type": "node", "id": 10102653172, "lat": 2.794464, "lon": 32.2931153, "tags": {"amenity": "hospital", "contact:phone": "0777360999", "description": "contraceptives available here", "name": "Bardege Health Centre lll", "opening_hours": "24/7"}}, {"type": "node", "id": 10102721861, "lat": 2.7576225, "lon": 32.3164329, "tags": {"amenity": "hospital", "contact:phone": "0782240289", "description": "contraceptives available here", "name": "Layibi Health Center III", "opening_hours": "Mo-Su 07:00-20:00"}}, {"type": "node", "id": 10102721863, "lat": 2.7855706, "lon": 32.3247146, "tags": {"amenity": "hospital", "description": "contraceptives available here", "name": "Laroo Health Centre III", "opening_hours": "Mo-Sa 07:30-15:00"}}, {"type": "node", "id": 10102721866, "lat": 2.7744531, "lon": 32.2991146, "tags": {"amenity": "hospital", "contact:phone": "078440981", "description": "contraceptives available here", "name": "Lacor Hospital", "opening_hours": "24/7"}}, {"type": "node", "id": 10102721876, "lat": 2.8160365, "lon": 32.3348945, "tags": {"amenity": "hospital", "contact:phone": "0393193931", "description": "contraceptives available here", "email": "cdo4uga@gmail.com", "name": "Karin Medical Centre III Unyama", "opening_hours": "24/7"}}, {"type": "node", "id": 10102769128, "lat": 2.7712873, "lon": 32.3025045, "tags": {"amenity": "hospital", "contact:phone": "0784802104", "description": "contraceptives available here", "name": "Police Health Centre", "opening_hours": "24/7"}}, {"type": "node", "id": 10102817900, "lat": 2.7873743, "lon": 32.3159731, "tags": {"amenity": "hospital", "contact:phone": "0783434435", "description": "contraceptives available here", "name": "Gulu University Health Center III", "opening_hours": "Mo-Su 07:00-20:00"}}, {"type": "node", "id": 10102817903, "lat": 2.769967, "lon": 32.2927207, "tags": {"amenity": "hospital", "contact:phone": "0785319808", "description": "contraceptives available here", "name": "Gulu Prison Health Center III", "opening_hours": "24/7"}}, {"type": "node", "id": 10102817904, "lat": 2.7801442, "lon": 32.2805949, "tags": {"amenity": "hospital", "contact:phone": "0393236791", "description": "contraceptives available here", "name": "Gulu Military Hospital Health Center IV", "opening_hours": "24/7"}}, {"type": "node", "id": 10102876414, "lat": 2.7773374, "lon": 32.298566, "tags": {"amenity": "hospital", "description": "contraceptives available here", "name": "Gulu Regional Referral Hospital", "opening_hours": "24/7"}}, {"type": "node", "id": 10102878021, "lat": 2.7964912, "lon": 32.3485731, "tags": {"amenity": "hospital", "contact:phone": "0773060933", "description": "contraceptives available here", "name": "Unyama Health Centre III", "opening_hours": "24/7"}}, {"type": "node", "id": 10102878037, "lat": 2.8004246, "lon": 32.3020775, "tags": {"amenity": "hospital", "contact:phone": "0781622876", "description": "contraceptives available here", "name": "St. Mauritz Health Centre III", "opening_hours": "24/7"}}, {"type": "node", "id": 10147626101, "lat": 0.8592921, "lon": 30.1743459, "tags": {"addr:district": "Bundibugyo", "addr:parish": "Burondo", "addr:subcounty": "Burondo", "addr:village": "Burondo 11", "amenity": "hospital", "name": "Burondo Health Center III", "opening_hours:office": "24/7", "operational_status": "operational", "operator:type": "public", "owner": "Kabugho Agnes", "staff_count": "13", "treat": "inpatient_department"}}, {"type": "node", "id": 10147626103, "lat": 0.678272, "lon": 30.0693804, "tags": {"addr:district": "Bundibugyo", "addr:parish": "Bubomboli", "addr:subcounty": "Harugale", "addr:village": "Kihoko 2", "amenity": "hospital", "name": "Bupomboli HC III", "opening_hours": "24/7", "operational_status": "operational", "operator:type": "public", "owner": "Boringi ronald", "staff_count": "13", "treat": "both"}}, {"type": "node", "id": 10147626104, "lat": 0.660696, "lon": 30.0475469, "tags": {"addr:district": "Bundibugyo", "addr:parish": "Ngite", "addr:subcounty": "Ngite", "addr:village": "Lugo", "amenity": "hospital", "name": "Kasulenge Health Centre II", "operational_status": "operational", "owner": "Government"}}, {"type": "node", "id": 10147626116, "lat": 0.8005083, "lon": 30.1444317, "tags": {"addr:district": "Bundibugyo", "addr:parish": "Bundimasoli ward", "addr:subcounty": "Ntandi Town Council", "addr:village": "Bundimasoli 1", "amenity": "hospital", "name": "Ntandi Health Centre III", "opening_hours:office": "Mo-Fr 09:00-17:00", "operational_status": "operational", "operator:type": "public", "owner": "Kahungu ben", "staff_count": "12", "treat": "inpatient_department"}}, {"type": "node", "id": 10147636120, "lat": 0.7975581, "lon": 30.1448245, "tags": {"addr:district": "Bundibugyo", "addr:parish": "Nyabugesera", "addr:subcounty": "Ntandi Town Council", "addr:village": "Bitahura 1", "amenity": "hospital", "name": "Ebenezer Seventh Adventist Health Center III", "opening_hours": "24/7", "operational_status": "operational", "operator:type": "private", "owner": "Thembo Moses", "staff_count": "32", "treat": "both"}}, {"type": "node", "id": 10156853631, "lat": 0.5178801, "lon": 35.2769739, "tags": {"amenity": "hospital", "description": "A county hospital that offers general services.", "emergency": "yes", "healthcare": "hospital", "healthcare:speciality": "general", "name": "Uasin Gishu County Hospital", "operator": "Government Hospital", "operator:type": "government", "wheelchair": "yes"}}, {"type": "node", "id": 10174889017, "lat": 0.4707651, "lon": 35.9826011, "tags": {"amenity": "hospital", "name": "Marigat sub county hospital"}}, {"type": "node", "id": 10177890856, "lat": 0.25877, "lon": 33.1128885, "tags": {"amenity": "hospital", "emergency": "yes", "healthcare": "hospital", "healthcare:speciality": "prescriptions;admition;first_aid;circumcision;family_planning;consultation", "name": "BMHC(Mulago)", "phone": "0757803575"}}, {"type": "node", "id": 10184707805, "lat": 0.4361328, "lon": 31.7086909, "tags": {"addr:housenumber": "2986", "addr:street": "Fort Portal - Kampala Road", "amenity": "hospital", "emergency": "yes", "healthcare": "hospital", "healthcare:speciality": "surgery", "name": "kigenda medical center"}}, {"type": "node", "id": 10198909186, "lat": 2.2692033, "lon": 32.8950344, "tags": {"addr:city": "Lira", "addr:parish": "Kirombe", "addr:village": "Kirombe North A", "amenity": "hospital", "beds": "25", "contact": "0772497574", "emergency": "yes", "healthcare": "hospital", "name": "Ayira Health Services", "operator": "private", "plant:source": "waste", "staff_count:doctors": "1", "staff_count:nurses": "4", "toilets": "yes", "toilets:access": "staff;patients"}}, {"type": "node", "id": 10223807870, "lat": 1.5557422, "lon": 30.2145696, "tags": {"amenity": "hospital", "health_facility:CD": "ch", "name": "Centre hospitalier des s\u0153urs", "source": "note 3377822"}}, {"type": "node", "id": 10228187241, "lat": 2.2341064, "lon": 32.387766, "tags": {"amenity": "hospital", "healthcare": "hospital", "name": "St. John XIII Hospital Aber"}}, {"type": "node", "id": 10244336809, "lat": 0.3291942, "lon": 32.6067317, "tags": {"amenity": "hospital", "name": "Naguru Main Hospital"}}, {"type": "node", "id": 10246206410, "lat": 8.967599, "lon": 38.7555261, "tags": {"amenity": "hospital"}}, {"type": "node", "id": 10248767010, "lat": 0.378234, "lon": 32.7731326, "tags": {"addr:street": "Kayunga - Bugerere Road", "amenity": "hospital", "name": "ROTOM health facility", "opening_hours": "24/7"}}, {"type": "node", "id": 10272256309, "lat": 5.6226754, "lon": 38.2408496, "tags": {"amenity": "hospital", "name": "\u1261\u120c \u1206\u122b \u12a0\u1320\u1243\u120b\u12ed \u1206\u1235\u1352\u1273\u120d"}}, {"type": "node", "id": 10290056217, "lat": 4.8641731, "lon": 31.593284, "tags": {"addr:city": "Juba", "addr:country": "SS", "amenity": "hospital", "email": "reception.ss@ami.health", "emergency": "yes", "healthcare": "hospital", "name": "AMI", "phone": "+211 916 097 531", "website": "https://ami.health/global/south-sudan/"}}, {"type": "node", "id": 10576118813, "lat": 1.4008003, "lon": 34.0084275, "tags": {"amenity": "hospital", "healthcare": "hospital", "name": "Atutur", "source": "Ubos_2014"}}, {"type": "node", "id": 10594497705, "lat": 9.023389, "lon": 38.8792375, "tags": {"amenity": "hospital", "name:en": "Grace Nursing Homes"}}, {"type": "node", "id": 10598327905, "lat": 9.009888, "lon": 38.7887747, "tags": {"amenity": "hospital", "name": "St. Gabriel General Hospital"}}, {"type": "node", "id": 10695450731, "lat": 4.4320002, "lon": 37.9950834, "tags": {"amenity": "hospital", "healthcare": "hospital", "name": "Gobiso Health Center"}}, {"type": "node", "id": 10698751247, "lat": 2.4600876, "lon": 31.5034788, "tags": {"addr:city": "Pakwach", "addr:street": "Arua - Pakwach Road", "amenity": "hospital", "healthcare": "hospital", "healthcare:speciality": "general", "name": "Pakwach Health Centre IV", "operator": "Government", "operator:type": "government"}}, {"type": "node", "id": 10704268626, "lat": 0.3411186, "lon": 32.5386612, "tags": {"amenity": "hospital", "healthcare": "hospital"}}, {"type": "node", "id": 10723342831, "lat": 0.3175141, "lon": 32.5338885, "tags": {"amenity": "hospital", "healthcare": "hospital"}}, {"type": "node", "id": 10734159094, "lat": 0.9501776, "lon": 34.2730973, "tags": {"amenity": "hospital", "check_date": "2023-03-14", "healthcare": "hospital", "healthcare:speciality": "community", "name": "Bubulo Walanga C.O.U Health Center II", "operator:type": "public"}}, {"type": "node", "id": 10734531425, "lat": 1.4300367, "lon": 31.3541968, "tags": {"amenity": "hospital", "check_date": "2023-03-14", "emergency": "yes", "healthcare": "hospital", "healthcare:speciality": "general", "name": "EDPA Medical services", "operator:type": "private"}}, {"type": "node", "id": 10734999584, "lat": 5.7817452, "lon": 36.5633213, "tags": {"addr:city": "Jinka", "amenity": "hospital", "emergency": "yes", "healthcare": "hospital", "name": "Jinka Jeneral Hospital"}}, {"type": "node", "id": 10749905206, "lat": 0.3001997, "lon": 32.5951909, "tags": {"addr:street": "Ggaba Road", "amenity": "hospital", "name": "Mukwaya General Hospital"}}, {"type": "node", "id": 10752363427, "lat": 1.420727, "lon": 31.356661, "tags": {"amenity": "hospital", "check_date": "2023-03-22", "emergency": "no", "healthcare": "hospital", "name": "Hoima Women\u2019s Family Hospital", "operator:type": "private"}}, {"type": "node", "id": 10763856053, "lat": 1.9533198, "lon": 34.9428498, "tags": {"amenity": "hospital", "name": "Amudat Hospital"}}, {"type": "node", "id": 10790238605, "lat": 7.8750291, "lon": 38.640778, "tags": {"amenity": "hospital", "name": "Halaku Gulanta Boke Halth Center", "name:en": "Hlau Gulanta Boke Halth Center"}}, {"type": "node", "id": 10790387705, "lat": 7.9911771, "lon": 38.6593741, "tags": {"amenity": "hospital", "name:en": "Gallo Hiraphe Health Center"}}, {"type": "node", "id": 10790389405, "lat": 7.7193474, "lon": 38.7758522, "tags": {"amenity": "hospital", "name:en": "Oietu Health Center"}}, {"type": "node", "id": 10792254705, "lat": 7.7164446, "lon": 38.7578052, "tags": {"amenity": "hospital", "name:en": "Oitu Health Center"}}, {"type": "node", "id": 10814519366, "lat": 1.4830166, "lon": 31.306114, "tags": {"amenity": "hospital", "check_date": "2023-04-15", "healthcare": "hospital", "name": "Karongo health Centre 3"}}, {"type": "node", "id": 10820672414, "lat": 4.0618739, "lon": 38.3158744, "tags": {"amenity": "hospital", "healthcare": "hospital"}}, {"type": "node", "id": 10855786606, "lat": 8.9911998, "lon": 38.7553088, "tags": {"amenity": "hospital", "name:en": "Sante Medical Center"}}, {"type": "node", "id": 10864747436, "lat": 3.7574504, "lon": 34.811562, "tags": {"amenity": "hospital", "name": "Nationakar Desp", "operator": "International Rescue committee", "operator:type": "ngo", "phone": "712837055"}}, {"type": "node", "id": 10864747437, "lat": 3.735405, "lon": 34.8397987, "tags": {"amenity": "hospital", "name": "Kaapoka Health Centre"}}, {"type": "node", "id": 10864747444, "lat": 3.7744317, "lon": 34.7308655, "tags": {"amenity": "hospital", "name": "Natukobenyo Health Centre", "operator": "Kenya Red Cross", "operator:type": "ngo", "phone": "+254707173515"}}, {"type": "node", "id": 10864747446, "lat": 3.7051484, "lon": 34.8843007, "tags": {"amenity": "hospital", "name": "Kakuma Sub County", "operator": "Turkana County Govt", "operator:type": "public", "phone": "70207905"}}, {"type": "node", "id": 10864747457, "lat": 3.7106229, "lon": 34.8555924, "tags": {"addr:city": "Kakuma", "addr:street": "Lodwar-Lokichogio Road", "amenity": "hospital", "healthcare": "hospital", "name": "Shepherds Hospital", "operator:type": "private"}}, {"type": "node", "id": 10864747462, "lat": 3.7551695, "lon": 34.7503434, "tags": {"amenity": "hospital", "name": "AIC", "operator": "UNHCR", "operator:type": "ngo", "phone": "+254702241131"}}, {"type": "node", "id": 10864747465, "lat": 3.7696051, "lon": 34.7292905, "tags": {"amenity": "hospital", "name": "Kalobeyei Main Medical Centre", "operator": "Robert Wabwire", "operator:type": "private", "phone": "707125622"}}, {"type": "node", "id": 10865168176, "lat": 2.8923531, "lon": 35.2629953, "tags": {"addr:city": "Lorugum", "amenity": "hospital", "healthcare": "hospital", "name": "Saint Elizabeth Lorugum Health Centre", "website": "https://dioceseoflodwar.org/health"}}, {"type": "node", "id": 10865401647, "lat": 2.0557489, "lon": 35.4313988, "tags": {"addr:city": "Nakwamoru", "amenity": "hospital", "healthcare": "hospital", "name": "Nakwamoru Health Centre", "website": "https://dioceseoflodwar.org/health"}}, {"type": "node", "id": 10876458964, "lat": 3.1223431, "lon": 35.6024292, "tags": {"addr:city": "Lodwar", "addr:postcode": "30500", "amenity": "hospital", "healthcare": "hospital", "name": "Lodwar County Referral Hospital", "operator": "Turkana County Government", "operator:type": "government"}}, {"type": "node", "id": 10881556328, "lat": 3.8935155, "lon": 38.5665937, "tags": {"amenity": "hospital", "healthcare": "hospital", "name": "Hospital"}}, {"type": "node", "id": 10939199235, "lat": 0.2222316, "lon": 34.0241688, "tags": {"addr:city": "Busia", "addr:housenumber": "50410", "addr:postcode": "50410", "addr:street": "Bujwang'a-Port Victoria Road", "amenity": "hospital", "email": "alhakeemmedicalclinics@gmail.com", "emergency": "yes", "healthcare": "hospital", "healthcare:speciality": "general", "name": "Al-Hakeem Medical Services", "operator": "Faisol Wesonga", "operator:type": "private", "website": "https://www.alhakeemclinics.co.ke/"}}, {"type": "node", "id": 10951554505, "lat": 9.0155692, "lon": 38.7366391, "tags": {"amenity": "hospital", "name": "eyasu chemicals and pharmaceutical industry"}}, {"type": "node", "id": 10963260468, "lat": 0.3157428, "lon": 32.6571064, "tags": {"amenity": "hospital", "healthcare": "hospital", "name": "Butabika Hospital"}}, {"type": "node", "id": 10963260469, "lat": 0.3116114, "lon": 32.6541788, "tags": {"amenity": "hospital", "healthcare": "hospital", "name": "St. Luke Hospital"}}, {"type": "node", "id": 10974529421, "lat": 1.4738094, "lon": 36.7184892, "tags": {"amenity": "hospital", "healthcare": "hospital"}}, {"type": "node", "id": 11001654295, "lat": 0.1217478, "lon": 31.8685521, "tags": {"Source": "Uganda Bureau of Statistics", "amenity": "hospital", "name": "MAWUKI EAST HEALTH CENTRE III"}}, {"type": "node", "id": 11001694506, "lat": 0.1133284, "lon": 31.9989834, "tags": {"Source": "Uganda Bureau of Statistics", "amenity": "hospital", "name": "BULO HEALTH CENTRE II"}}, {"type": "node", "id": 11001694511, "lat": 0.0829008, "lon": 32.1207927, "tags": {"Source": "Uganda Bureau of Statistics", "amenity": "hospital", "name": "ST ANTHONY MITALA MARIA HEALTH CENTRE"}}, {"type": "node", "id": 11001694521, "lat": 0.1190408, "lon": 32.12692, "tags": {"Source": "Uganda Bureau of Statistics", "amenity": "hospital", "description": "NEWLY CONSTRUCTED", "name": "BUYIJJA HEALTH UNITII"}}, {"type": "node", "id": 11001694531, "lat": 0.0022079, "lon": 32.015896, "tags": {"Source": "Uganda Bureau of Statistics", "amenity": "hospital", "description": "OUT PATIENT DEPARTMENT", "name": "NKOZI HOSPITAL"}}, {"type": "node", "id": 11001694542, "lat": 0.2653429, "lon": 31.9668875, "tags": {"Source": "Uganda Bureau of Statistics", "amenity": "hospital", "name": "MAANYI HEALTH CENTRE 111"}}, {"type": "node", "id": 11001694548, "lat": 0.1208363, "lon": 31.9943197, "tags": {"Source": "Uganda Bureau of Statistics", "amenity": "hospital", "name": "OUR LADY OF ASSUMPTION BULO PARISH HEALTH CENTRE 1"}}, {"type": "node", "id": 11001694592, "lat": 0.1217248, "lon": 31.7600772, "tags": {"Source": "Uganda Bureau of Statistics", "amenity": "hospital", "name": "KIFAMPA HEALTH CENTRE III"}}, {"type": "node", "id": 11001694596, "lat": 0.2255259, "lon": 32.0513057, "tags": {"Source": "Makerere University, Department of Geography", "amenity": "hospital", "grade": "HC III", "name": "MPENJA"}}, {"type": "node", "id": 11001694636, "lat": 0.2634796, "lon": 31.9686668, "tags": {"Source": "Makerere University, Department of Geography", "amenity": "hospital", "grade": "HC III", "name": "ST JUDE MARTENITY"}}, {"type": "node", "id": 11001694692, "lat": 0.1700051, "lon": 31.9051923, "tags": {"Source": "Makerere University, Department of Geography", "amenity": "hospital", "grade": "HC III", "name": "KANONI"}}, {"type": "node", "id": 11001694770, "lat": 0.1440158, "lon": 31.8847166, "tags": {"Source": "Uganda Bureau of Statistics", "amenity": "hospital", "description": "GOV'T AIDED", "name": "NAMABEYA HEALTH CENTRE"}}, {"type": "node", "id": 11001694772, "lat": 0.2130165, "lon": 31.6693025, "tags": {"Source": "Uganda Bureau of Statistics", "amenity": "hospital", "description": "GOVT AIDED", "name": "MADDU HEALTH CENTRE IV"}}, {"type": "node", "id": 11001694776, "lat": 0.0758491, "lon": 31.9254578, "tags": {"Source": "Makerere University, Department of Geography", "amenity": "hospital", "grade": "HC III", "name": "NGANDO"}}, {"type": "node", "id": 11001694786, "lat": 0.0521234, "lon": 31.9976552, "tags": {"Source": "Uganda Bureau of Statistics", "amenity": "hospital", "description": "GOVERNMENT", "name": "KITUNTU H/C 111"}}, {"type": "node", "id": 11001694805, "lat": 0.0613342, "lon": 32.1069551, "tags": {"Source": "Uganda Bureau of Statistics", "amenity": "hospital", "name": "BUWAMA HEALTH UNIT III"}}, {"type": "node", "id": 11001730383, "lat": 0.5575062, "lon": 30.1329554, "tags": {"Source": "Uganda Bureau of Statistics", "amenity": "hospital", "description": "SAME BUILDING", "name": "KIBATE HC III"}}, {"type": "node", "id": 11001730391, "lat": 0.6618256, "lon": 30.1787685, "tags": {"Source": "Uganda Bureau of Statistics", "amenity": "hospital", "name": "BUKUUKU H/C IV"}}, {"type": "node", "id": 11001730395, "lat": 0.2256737, "lon": 30.1955493, "tags": {"Source": "Uganda Bureau of Statistics", "amenity": "hospital", "name": "KANAMBA HEALTH CENTRE III"}}, {"type": "node", "id": 11001730398, "lat": 0.4669421, "lon": 30.1624457, "tags": {"Source": "Uganda Bureau of Statistics", "amenity": "hospital", "name": "KABONERO HEALTH CENTRE III"}}, {"type": "node", "id": 11001730399, "lat": 0.6421145, "lon": 30.2890505, "tags": {"Source": "Makerere University, Department of Geography", "amenity": "hospital", "grade": "HC III", "name": "BUKWALI"}}, {"type": "node", "id": 11001730401, "lat": 0.5383644, "lon": 30.1633482, "tags": {"Source": "Uganda Bureau of Statistics", "amenity": "hospital", "name": "KISOMORO HC III"}}, {"type": "node", "id": 11001734008, "lat": 0.3830318, "lon": 30.2156958, "tags": {"Source": "Uganda Bureau of Statistics", "amenity": "hospital", "healthcare": "hospital", "name": "HEALTH CENTRE III"}}, {"type": "node", "id": 11001734014, "lat": 0.2997869, "lon": 30.1815031, "tags": {"Source": "Uganda Bureau of Statistics", "amenity": "hospital", "name": "HIMA HEALTH CENTRE III"}}, {"type": "node", "id": 11001734020, "lat": 0.1934079, "lon": 30.0075416, "tags": {"Source": "Makerere University, Department of Geography", "amenity": "hospital", "grade": "Hospital"}}, {"type": "node", "id": 11001734022, "lat": 0.2386976, "lon": 30.0377592, "tags": {"Source": "Uganda Bureau of Statistics", "amenity": "hospital", "name": "BUHAGHURA HC II"}}, {"type": "node", "id": 11001734023, "lat": 0.7526798, "lon": 30.4056014, "tags": {"Source": "Uganda Bureau of Statistics", "amenity": "hospital", "name": "KIJURA H/C III"}}, {"type": "node", "id": 11001734025, "lat": 0.1776896, "lon": 30.0774308, "tags": {"Source": "Makerere University, Department of Geography", "amenity": "hospital", "grade": "HC III", "name": "KASESE NH"}}, {"type": "node", "id": 11001734031, "lat": 0.3338933, "lon": 30.101, "tags": {"Source": "Uganda Bureau of Statistics", "amenity": "hospital", "name": "MALIBA HEALTH CENTRE III"}}, {"type": "node", "id": 11001734038, "lat": 0.5981698, "lon": 30.2768013, "tags": {"Source": "Uganda Bureau of Statistics", "amenity": "hospital", "name": "RUBINGO HEALTH CENTRE II"}}, {"type": "node", "id": 11001734040, "lat": 0.4858401, "lon": 30.191736, "tags": {"Source": "Uganda Bureau of Statistics", "amenity": "hospital", "name": "ST JOSEPH YERYA H/C III"}}, {"type": "node", "id": 11001734045, "lat": 0.3538203, "lon": 30.1401721, "tags": {"Source": "Uganda Bureau of Statistics", "amenity": "hospital", "name": "KIHYO HEALTH CENTRE II"}}, {"type": "node", "id": 11001734046, "lat": 0.6616088, "lon": 30.1789571, "tags": {"Source": "Makerere University, Department of Geography", "amenity": "hospital", "grade": "HC IV", "name": "BUKUKU"}}, {"type": "node", "id": 11001734047, "lat": 0.5540159, "lon": 30.2988701, "tags": {"Source": "Uganda Bureau of Statistics", "amenity": "hospital", "name": "RUTEETE HEALTH CENTRE III"}}, {"type": "node", "id": 11001734049, "lat": 0.3335527, "lon": 30.1103076, "tags": {"Source": "Makerere University, Department of Geography", "amenity": "hospital", "grade": "HC III", "name": "MALIBA"}}, {"type": "node", "id": 11001734050, "lat": 0.6559732, "lon": 30.2812868, "tags": {"Source": "Makerere University, Department of Geography", "amenity": "hospital", "grade": "Hospital", "name": "BUHINGA FORTPORTAL"}}, {"type": "node", "id": 11001734053, "lat": 0.6711922, "lon": 30.0508741, "tags": {"Source": "Makerere University, Department of Geography", "amenity": "hospital", "grade": "HC II", "name": "BUSARU"}}, {"type": "node", "id": 11001734062, "lat": 0.4856142, "lon": 30.1918079, "tags": {"Source": "Makerere University, Department of Geography", "amenity": "hospital", "grade": "HC III", "name": "ST JOSEPH YERYA"}}, {"type": "node", "id": 11001734065, "lat": 0.4425733, "lon": 30.2785482, "tags": {"Source": "Uganda Bureau of Statistics", "amenity": "hospital", "name": "KASENDA HEALTH CENTRE III"}}, {"type": "node", "id": 11001734073, "lat": 0.3925358, "lon": 30.1555171, "tags": {"Source": "Uganda Bureau of Statistics", "amenity": "hospital", "name": "RWESANDE HEALTH CENTRE IV"}}, {"type": "node", "id": 11001734074, "lat": 0.2223899, "lon": 30.2237709, "tags": {"Source": "Makerere University, Department of Geography", "amenity": "hospital", "grade": "HC III", "name": "KANAMBA"}},