{"version": 0.6, "generator": "Overpass API 0.7.61.5 4133829e", "osm3s": {"timestamp_osm_base": "2023-10-31T20:53:36Z", "copyright": "The data included in this document is from www.openstreetmap.org. The data is made available under ODbL."}, "elements": [{"type": "node", "id": 340033055, "lat": 13.7529428, "lon": 100.480116, "tags": {"addr:city": "\u0e1a\u0e32\u0e07\u0e01\u0e2d\u0e01\u0e19\u0e49\u0e2d\u0e22", "addr:postcode": "10700", "addr:street": "\u0e2d\u0e34\u0e2a\u0e23\u0e20\u0e32\u0e1e 44", "amenity": "hospital", "healthcare": "hospital", "name": "\u0e42\u0e23\u0e07\u0e1e\u0e22\u0e32\u0e1a\u0e32\u0e25\u0e18\u0e19\u0e1a\u0e38\u0e23\u0e35", "name:en": "Thonburi Hospital", "name:th": "\u0e42\u0e23\u0e07\u0e1e\u0e22\u0e32\u0e1a\u0e32\u0e25\u0e18\u0e19\u0e1a\u0e38\u0e23\u0e35", "operator": "Thonburi Hospital Group", "operator:type": "private", "wikidata": "Q59206965", "wikimedia_commons": "Category:Thonburi Hospital", "wikipedia": "en:Thonburi Hospital"}}, {"type": "node", "id": 340033080, "lat": 13.7554064, "lon": 100.4789514, "tags": {"amenity": "hospital", "healthcare": "hospital"}}, {"type": "node", "id": 356278265, "lat": 14.9771923, "lon": 102.0914338, "tags": {"amenity": "hospital", "created_by": "Potlatch 0.10f", "name": "Montree Hospital"}}, {"type": "node", "id": 356278324, "lat": 14.975849, "lon": 102.0866702, "tags": {"amenity": "hospital", "created_by": "Potlatch 0.10f", "name": "Korat Memorial Hospital"}}, {"type": "node", "id": 356278384, "lat": 14.979431, "lon": 102.0904725, "tags": {"amenity": "hospital", "created_by": "Potlatch 0.10f", "name": "Korat MRI Medical Clinic"}}, {"type": "node", "id": 356282313, "lat": 14.9664379, "lon": 102.0869277, "tags": {"amenity": "hospital", "name": "Suranari Hospital"}}, {"type": "node", "id": 378636749, "lat": 16.4682595, "lon": 102.8302327, "tags": {"amenity": "hospital", "emergency": "yes", "name": "\u0e42\u0e23\u0e07\u0e1e\u0e22\u0e32\u0e1a\u0e32\u0e25\u0e28\u0e23\u0e35\u0e19\u0e04\u0e23\u0e34\u0e19\u0e17\u0e23\u0e4c", "name:en": "Srinagarind Hospital", "name:th": "\u0e42\u0e23\u0e07\u0e1e\u0e22\u0e32\u0e1a\u0e32\u0e25\u0e28\u0e23\u0e35\u0e19\u0e04\u0e23\u0e34\u0e19\u0e17\u0e23\u0e4c", "source": "GPS; sign", "website": "http://www.srinagarind.md.kku.ac.th"}}, {"type": "node", "id": 381911280, "lat": 16.4088975, "lon": 102.835041, "tags": {"amenity": "hospital", "name": "\u0e42\u0e23\u0e07\u0e1e\u0e22\u0e32\u0e1a\u0e32\u0e25 \u0e27\u0e31\u0e14\u0e2b\u0e19\u0e2d\u0e07\u0e41\u0e27\u0e07", "name:en": "Wat Nong Waeng Hospital", "name:th": "\u0e42\u0e23\u0e07\u0e1e\u0e22\u0e32\u0e1a\u0e32\u0e25 \u0e27\u0e31\u0e14\u0e2b\u0e19\u0e2d\u0e07\u0e41\u0e27\u0e07", "source": "GPS; sign"}}, {"type": "node", "id": 389407410, "lat": 16.4420747, "lon": 102.8200449, "tags": {"addr:city": "Khon Kaen", "addr:country": "TH", "addr:district": "Muang", "addr:housenumber": "148/3", "addr:street": "Maliwan Rd.", "amenity": "hospital", "contact:fax": "+66-43-042800", "contact:phone": "+66-43-042888", "contact:website": "http://www.bangkokhospitalkhonkaen.com", "emergency": "yes", "name": "\u0e42\u0e23\u0e07\u0e1e\u0e22\u0e32\u0e1a\u0e32\u0e25\u0e01\u0e23\u0e38\u0e07\u0e40\u0e17\u0e1e", "name:en": "Bangkok Hospital", "name:th": "\u0e42\u0e23\u0e07\u0e1e\u0e22\u0e32\u0e1a\u0e32\u0e25\u0e01\u0e23\u0e38\u0e07\u0e40\u0e17\u0e1e", "source": "GPS; sign"}}, {"type": "node", "id": 477126720, "lat": 16.4353594, "lon": 102.824182, "tags": {"addr:city": "Khon Kaen", "addr:country": "TH", "addr:district": "Muang", "addr:housenumber": "150/18", "addr:postcode": "40000", "addr:street": "Mittraphap Rd.", "amenity": "hospital", "contact:facebook": "http://www.facebook.com/rachapreuk", "contact:fax": "+66-43-238833", "contact:phone": "+66-43-333555..62", "contact:website": "http://www.rachapreukhospital.com", "emergency": "yes", "name": "\u0e42\u0e23\u0e07\u0e1e\u0e22\u0e32\u0e1a\u0e32\u0e25\u0e23\u0e32\u0e0a\u0e1e\u0e24\u0e01\u0e29\u0e4c", "name:en": "Ratchapreuk Hospital", "name:th": "\u0e42\u0e23\u0e07\u0e1e\u0e22\u0e32\u0e1a\u0e32\u0e25\u0e23\u0e32\u0e0a\u0e1e\u0e24\u0e01\u0e29\u0e4c", "source": "GPS; sign"}}, {"type": "node", "id": 528566908, "lat": 17.9555455, "lon": 102.6215258, "tags": {"amenity": "hospital", "name": "Hospital 5 April", "name:en": "Hospital 5 April \u0ec2\u0eae\u0e87\u0edd\u0ecd\u200b 5\u200b \u0ec0\u0ea1\u0eaa\u0eb2"}}, {"type": "node", "id": 539342709, "lat": 13.5384072, "lon": 103.7314575, "tags": {"amenity": "hospital", "name": "Reul Health Centre"}}, {"type": "node", "id": 539342724, "lat": 13.6457244, "lon": 103.6257034, "tags": {"amenity": "hospital", "name": "Char Chhuk Health Centre"}}, {"type": "node", "id": 539342736, "lat": 13.6839521, "lon": 103.6464844, "tags": {"amenity": "hospital", "name": "Angkor Chum Referral Hospital"}}, {"type": "node", "id": 567322744, "lat": 13.3934629, "lon": 103.7354838, "tags": {"amenity": "hospital", "name": "Health Center Samrcngyear"}}, {"type": "node", "id": 568954794, "lat": 13.3250769, "lon": 103.8400588, "tags": {"amenity": "hospital", "name": "Pohmeanchey Health Center"}}, {"type": "node", "id": 569030649, "lat": 13.2961488, "lon": 103.9987661, "tags": {"amenity": "hospital", "name": "Men Chey Health Center"}}, {"type": "node", "id": 569858958, "lat": 13.3576431, "lon": 104.0873693, "tags": {"amenity": "hospital", "name": "Chann Sor Health Center"}}, {"type": "node", "id": 569878688, "lat": 13.3549787, "lon": 103.973775, "tags": {"amenity": "hospital", "name": "Hospital of Region 4"}}, {"type": "node", "id": 627161959, "lat": 18.2831, "lon": 109.5064199, "tags": {"amenity": "hospital", "name": "Health Center", "operator": "\u6768\u4e16\u8363\u8bca\u6240"}}, {"type": "node", "id": 634093371, "lat": 16.649795, "lon": 103.2964938, "tags": {"amenity": "hospital", "name": "\u0e42\u0e23\u0e07\u0e1e\u0e22\u0e32\u0e02\u0e32\u0e25\u0e2b\u0e19\u0e2d\u0e07\u0e01\u0e38\u0e07\u0e28\u0e23\u0e35", "name:en": "Nongkungsri Hospital", "name:th": "\u0e42\u0e23\u0e07\u0e1e\u0e22\u0e32\u0e02\u0e32\u0e25\u0e2b\u0e19\u0e2d\u0e07\u0e01\u0e38\u0e07\u0e28\u0e23\u0e35", "source": "GPS; sign"}}, {"type": "node", "id": 634183668, "lat": 16.7293044, "lon": 102.8016952, "tags": {"addr:district": "\u0e19\u0e49\u0e33\u0e1e\u0e2d\u0e07", "addr:district:en": "Nam Phong", "addr:province": "\u0e02\u0e2d\u0e19\u0e41\u0e01\u0e48\u0e19", "addr:province:en": "Khon Kaen", "addr:subdistrict": "\u0e19\u0e49\u0e33\u0e1e\u0e2d\u0e07", "addr:subdistrict:en": "Nam Phong", "amenity": "hospital", "emergency": "yes", "name": "\u0e42\u0e23\u0e07\u0e1e\u0e22\u0e32\u0e1a\u0e32\u0e25\u0e19\u0e49\u0e33\u0e1e\u0e2d\u0e07", "name:en": "Nam Phong Hospital", "name:th": "\u0e42\u0e23\u0e07\u0e1e\u0e22\u0e32\u0e1a\u0e32\u0e25\u0e19\u0e49\u0e33\u0e1e\u0e2d\u0e07", "source": "Bing; sign"}}, {"type": "node", "id": 634183695, "lat": 16.9582945, "lon": 102.8911608, "tags": {"addr:district": "\u0e42\u0e19\u0e19\u0e2a\u0e30\u0e2d\u0e32\u0e14", "addr:district:en": "Non Sa-at", "addr:province": "\u0e2d\u0e38\u0e14\u0e23\u0e18\u0e32\u0e19\u0e35", "addr:province:en": "Udon Thani", "addr:subdistrict": "\u0e42\u0e19\u0e19\u0e2a\u0e30\u0e2d\u0e32\u0e14", "addr:subdistrict:en": "Non Sa-at", "amenity": "hospital", "name": "\u0e42\u0e23\u0e07\u0e1e\u0e22\u0e32\u0e1a\u0e32\u0e25 \u0e2d\u0e33\u0e40\u0e20\u0e2d\u0e42\u0e19\u0e19\u0e2a\u0e30\u0e2d\u0e32\u0e14", "name:en": "Non Sa-at District Hospital", "name:th": "\u0e42\u0e23\u0e07\u0e1e\u0e22\u0e32\u0e1a\u0e32\u0e25 \u0e2d\u0e33\u0e40\u0e20\u0e2d\u0e42\u0e19\u0e19\u0e2a\u0e30\u0e2d\u0e32\u0e14", "source": "Bing; sign"}}, {"type": "node", "id": 647813983, "lat": 17.9143117, "lon": 102.6202633, "tags": {"amenity": "hospital", "name": "Sisattanak District Hospital", "name:en": "Sisattanak District Hospital", "name:fr": "Hopital du district Sisatt Nak"}}, {"type": "node", "id": 665751454, "lat": 15.8139878, "lon": 102.3903798, "tags": {"addr:district": "\u0e41\u0e27\u0e07\u0e19\u0e49\u0e2d\u0e22", "addr:district:en": "Waeng Noi", "addr:hamlet": "\u0e2b\u0e21\u0e39\u0e48\u0e17\u0e35\u0e48 16", "addr:province": "\u0e02\u0e2d\u0e19\u0e41\u0e01\u0e48\u0e19", "addr:province:en": "Khon Kaen", "addr:subdistrict": "\u0e25\u0e30\u0e2b\u0e32\u0e19\u0e19\u0e32", "addr:subdistrict:en": "Lahan Na", "amenity": "hospital", "name": "\u0e42\u0e23\u0e07\u0e1e\u0e22\u0e32\u0e1a\u0e32\u0e25 \u0e2d\u0e33\u0e40\u0e20\u0e2d\u0e41\u0e27\u0e07\u0e19\u0e49\u0e2d\u0e22", "name:en": "Waeng Noi District Hospital", "source": "Bing; sign"}}, {"type": "node", "id": 665781427, "lat": 15.9399314, "lon": 102.5328474, "tags": {"addr:district": "\u0e41\u0e27\u0e07\u0e43\u0e2b\u0e0d\u0e48", "addr:district:en": "Waeng Yai", "addr:hamlet": "\u0e2b\u0e21\u0e39\u0e48\u0e17\u0e35\u0e48 1", "addr:province": "\u0e02\u0e2d\u0e19\u0e41\u0e01\u0e48\u0e19", "addr:province:en": "Khon Kaen", "addr:subdistrict": "\u0e41\u0e27\u0e07\u0e43\u0e2b\u0e0d\u0e48", "addr:subdistrict:en": "Waeng Yai", "amenity": "hospital", "name": "\u0e42\u0e23\u0e07\u0e1e\u0e22\u0e32\u0e1a\u0e32\u0e25 \u0e2d\u0e33\u0e40\u0e20\u0e2d\u0e41\u0e27\u0e07\u0e43\u0e2b\u0e0d\u0e48", "name:en": "Waeng Yai District Hospital", "source": "Bing; sign"}}, {"type": "node", "id": 666484678, "lat": 16.8710627, "lon": 102.5512312, "tags": {"amenity": "hospital", "name": "\u0e42\u0e23\u0e07\u0e1e\u0e22\u0e32\u0e02\u0e32\u0e25\u0e42\u0e19\u0e19\u0e2a\u0e31\u0e07", "name:en": "Non Sang Hospital", "name:th": "\u0e42\u0e23\u0e07\u0e1e\u0e22\u0e32\u0e02\u0e32\u0e25\u0e42\u0e19\u0e19\u0e2a\u0e31\u0e07", "source": "GPS; sign"}}, {"type": "node", "id": 671163606, "lat": 16.954232, "lon": 104.471129, "tags": {"amenity": "hospital", "name": "\u0e42\u0e23\u0e07\u0e1e\u0e22\u0e32\u0e1a\u0e32\u0e25\u0e19\u0e32\u0e41\u0e01", "name:en": "Na Kae Hospital", "name:th": "\u0e42\u0e23\u0e07\u0e1e\u0e22\u0e32\u0e1a\u0e32\u0e25\u0e19\u0e32\u0e41\u0e01", "source": "GPS; sign"}}, {"type": "node", "id": 671949934, "lat": 16.5960534, "lon": 103.229152, "tags": {"amenity": "hospital", "name": "\u0e42\u0e23\u0e07\u0e1e\u0e22\u0e32\u0e02\u0e32\u0e25\u0e2b\u0e49\u0e27\u0e22\u0e40\u0e21\u0e47\u0e01", "name:en": "Huai Mek Hospital", "name:th": "\u0e42\u0e23\u0e07\u0e1e\u0e22\u0e32\u0e02\u0e32\u0e25\u0e2b\u0e49\u0e27\u0e22\u0e40\u0e21\u0e47\u0e01", "source": "GPS; sign"}}, {"type": "node", "id": 671958698, "lat": 16.9486049, "lon": 103.4319844, "tags": {"amenity": "hospital", "name": "\u0e42\u0e23\u0e07\u0e1e\u0e22\u0e32\u0e02\u0e32\u0e25\u0e27\u0e31\u0e07\u0e2a\u0e32\u0e21\u0e2b\u0e21\u0e2d", "name:en": "Wang Sam Mo Hospital", "name:th": "\u0e42\u0e23\u0e07\u0e1e\u0e22\u0e32\u0e02\u0e32\u0e25\u0e27\u0e31\u0e07\u0e2a\u0e32\u0e21\u0e2b\u0e21\u0e2d", "source": "GPS; sign"}}, {"type": "node", "id": 729405654, "lat": 16.0681938, "lon": 108.2013645, "tags": {"amenity": "hospital", "healthcare": "hospital", "name": "Cong Ty CP Benh Vien Da Khoa Hoa Xuan"}}, {"type": "node", "id": 729405656, "lat": 16.054196, "lon": 108.2190335, "tags": {"amenity": "hospital", "healthcare": "hospital", "name": "Benh Vien Y Hoc Co Truyen Tp.Da Nang"}}, {"type": "node", "id": 729405657, "lat": 16.0569875, "lon": 108.2182556, "tags": {"amenity": "hospital", "healthcare": "hospital", "name": "Benh Vien Phu Nu Tp.Da Nang"}}, {"type": "node", "id": 729405658, "lat": 16.0708637, "lon": 108.218107, "tags": {"amenity": "hospital", "healthcare": "hospital", "name": "Benh Vien Da Khoa Vinh Toan"}}, {"type": "node", "id": 729405659, "lat": 16.0536495, "lon": 108.2089108, "tags": {"amenity": "hospital", "healthcare": "hospital", "name": "Trung Tam Bac Si Gia Dinh Da Nang"}}, {"type": "node", "id": 729405661, "lat": 16.0541328, "lon": 108.233067, "tags": {"amenity": "hospital", "name": "Benh Vien Ngoai Khoa Nguyen Van Thai"}}, {"type": "node", "id": 729405662, "lat": 16.059401, "lon": 108.2098753, "tags": {"addr:street": "Nguy\u1ec5n V\u0103n Linh", "amenity": "hospital", "healthcare": "hospital", "name": "Hoan My General Hospital"}}, {"type": "node", "id": 729405665, "lat": 16.0763725, "lon": 108.2139909, "tags": {"addr:city": "\u0110\u00e0 N\u1eb5ng", "addr:district": "H\u1ea3i Ch\u00e2u", "addr:housenumber": "38", "addr:street": "Cao Thang", "addr:subdistrict": "Thanh B\u00ecnh", "amenity": "hospital", "healthcare": "hospital", "name": "B\u1ec7nh Vi\u1ec7n \u0110a khoa Qu\u1eadn H\u1ea3i Ch\u00e2u"}}, {"type": "node", "id": 729405666, "lat": 16.0561872, "lon": 108.1655998, "tags": {"amenity": "hospital", "name": "Benh Vien Gtvt 5"}}, {"type": "node", "id": 729405667, "lat": 16.0713797, "lon": 108.2001187, "tags": {"addr:housenumber": "376", "addr:street": "\u0110\u01b0\u1eddng Tr\u1ea7n Cao V\u00e2n", "amenity": "hospital", "healthcare": "hospital", "name": "Benh Vien Da Khoa Binh Dan"}}, {"type": "node", "id": 729405671, "lat": 16.0686754, "lon": 108.2189349, "tags": {"amenity": "hospital", "healthcare": "hospital", "name": "Benh Vien Tu Binh Dan"}}, {"type": "node", "id": 729405672, "lat": 16.080931, "lon": 108.1448865, "tags": {"addr:housenumber": "193", "addr:street": "Nguy\u1ec5n L\u01b0\u01a1ng B\u1eb1ng", "amenity": "hospital", "name": "Benh Vien Tam Than Da Nang", "name:vi": "B\u1ec7nh vi\u1ec7n T\u00e2m th\u1ea7n \u0110\u00e0 N\u1eb5ng"}}, {"type": "node", "id": 729405673, "lat": 16.0740056, "lon": 108.1763952, "tags": {"amenity": "hospital", "name": "B\u1ec7nh vi\u1ec7n Da li\u1ec5u \u0110\u00e0 N\u1eb5ng"}}, {"type": "node", "id": 729405675, "lat": 16.0824806, "lon": 108.2205999, "tags": {"amenity": "hospital", "name": "Trung Tam Phuc Hoi Co Nhi Suy Dinh Duong Da Nang"}}, {"type": "node", "id": 729405677, "lat": 16.0249226, "lon": 108.2142699, "tags": {"amenity": "hospital", "name": "Benh Vien Y Hoc Co Truyen Tp Da Nang"}}, {"type": "node", "id": 793892266, "lat": 18.5201982, "lon": 102.5142853, "tags": {"amenity": "hospital", "name": "\u0ec2\u0eae\u0e87\u0eab\u0ea1\u0ecd\u0ec0\u0ea1\u0eb7\u0ead\u0e87\u0ec0\u0ec0\u0e81\u0ec9\u0ea7\u0ead\u0eb8\u0e94\u0ebb\u0ea1", "name:en": "K\u00e8o-Oud\u00f4m District Hospital"}}, {"type": "node", "id": 860696621, "lat": 10.7929834, "lon": 106.6704335, "tags": {"amenity": "hospital"}}, {"type": "node", "id": 900318962, "lat": 18.79505, "lon": 100.7881, "tags": {"amenity": "hospital", "name": "Hospital", "source": "GPS survey"}}, {"type": "node", "id": 942248650, "lat": 14.9253403, "lon": 101.965155, "tags": {"amenity": "hospital", "name": "\u0e42\u0e23\u0e07\u0e1e\u0e22\u0e32\u0e1a\u0e32\u0e25\u0e19\u0e04\u0e23\u0e23\u0e32\u0e0a\u0e2a\u0e35\u0e21\u0e32", "name:en": "Nakhon Ratchasima Hospital", "name:th": "\u0e42\u0e23\u0e07\u0e1e\u0e22\u0e32\u0e1a\u0e32\u0e25\u0e19\u0e04\u0e23\u0e23\u0e32\u0e0a\u0e2a\u0e35\u0e21\u0e32", "source": "GPS; sign"}}, {"type": "node", "id": 943216577, "lat": 15.1913953, "lon": 100.127383, "tags": {"addr:city": "Chai Nat", "addr:district": "Mueang Chai Nat", "addr:province": "Chai Nat", "addr:subdistrict": "Nai Mueang", "amenity": "hospital", "name": "\u0e42\u0e23\u0e07\u0e1e\u0e22\u0e32\u0e1a\u0e32\u0e25\u0e0a\u0e31\u0e22\u0e19\u0e32\u0e17", "name:en": "Chai Nat Hospital", "name:th": "\u0e42\u0e23\u0e07\u0e1e\u0e22\u0e32\u0e1a\u0e32\u0e25\u0e0a\u0e31\u0e22\u0e19\u0e32\u0e17", "source": "GPS; sign"}}, {"type": "node", "id": 947763632, "lat": 10.764268, "lon": 106.707021, "tags": {"amenity": "hospital", "healthcare": "hospital", "name": "Trung T\u00e2m Y T\u1ebf D\u1ef1 Ph\u00f2ng - Ph\u00f2ng Kh\u00e1m Ti\u00eam Ph\u00f2ng"}}, {"type": "node", "id": 963209375, "lat": 16.2944746, "lon": 103.9705455, "tags": {"addr:district": "Phon Thong", "addr:province": "Roi Et", "addr:subdistrict": "Sa Nokkaeo", "amenity": "hospital", "name": "\u0e42\u0e23\u0e07\u0e1e\u0e22\u0e32\u0e1a\u0e32\u0e25\u0e42\u0e1e\u0e19\u0e17\u0e2d\u0e07", "name:en": "Phon Thong Hospital", "name:th": "\u0e42\u0e23\u0e07\u0e1e\u0e22\u0e32\u0e1a\u0e32\u0e25\u0e42\u0e1e\u0e19\u0e17\u0e2d\u0e07", "source": "GPS; sign"}}, {"type": "node", "id": 963209459, "lat": 16.2641251, "lon": 103.7399961, "tags": {"amenity": "hospital", "name": "\u0e42\u0e23\u0e07\u0e1e\u0e22\u0e32\u0e1a\u0e32\u0e25\u0e23\u0e48\u0e2d\u0e07\u0e04\u0e33", "name:en": "Rong Kham Hospital", "name:th": "\u0e42\u0e23\u0e07\u0e1e\u0e22\u0e32\u0e1a\u0e32\u0e25\u0e23\u0e48\u0e2d\u0e07\u0e04\u0e33", "source": "GPS; sign"}}, {"type": "node", "id": 966810388, "lat": 15.5682119, "lon": 101.993895, "tags": {"amenity": "hospital", "name": "\u0e42\u0e23\u0e07\u0e1e\u0e22\u0e32\u0e1a\u0e32\u0e25\u0e40\u0e19\u0e34\u0e19\u0e2a\u0e07\u0e48\u0e32", "name:en": "Noen Sa-nga Hospital", "name:th": "\u0e42\u0e23\u0e07\u0e1e\u0e22\u0e32\u0e1a\u0e32\u0e25\u0e40\u0e19\u0e34\u0e19\u0e2a\u0e07\u0e48\u0e32", "source": "GPS; sign"}}, {"type": "node", "id": 966810806, "lat": 16.0828622, "lon": 101.8102762, "tags": {"addr:district": "\u0e2b\u0e19\u0e2d\u0e07\u0e1a\u0e31\u0e27\u0e41\u0e14\u0e07", "addr:district:en": "Nong Bua Daeng", "addr:province": "\u0e0a\u0e31\u0e22\u0e20\u0e39\u0e21\u0e34", "addr:province:en": "Chaiyaphum", "addr:subdistrict": "\u0e2b\u0e19\u0e2d\u0e07\u0e1a\u0e31\u0e27\u0e41\u0e14\u0e07", "addr:subdistrict:en": "Nong Bua Daeng", "amenity": "hospital", "name": "\u0e42\u0e23\u0e07\u0e1e\u0e22\u0e32\u0e1a\u0e32\u0e25 \u0e2d\u0e33\u0e40\u0e20\u0e2d\u0e2b\u0e19\u0e2d\u0e07\u0e1a\u0e31\u0e27\u0e41\u0e14\u0e07", "name:en": "Nong Bua Daeng District Hospital", "source": "Bing; sign"}}, {"type": "node", "id": 966812936, "lat": 15.570139, "lon": 101.8550478, "tags": {"amenity": "hospital", "name": "\u0e42\u0e23\u0e07\u0e1e\u0e22\u0e32\u0e1a\u0e32\u0e25\u0e08\u0e31\u0e15\u0e38\u0e23\u0e31\u0e2a", "name:en": "Chatturat Hospital", "name:th": "\u0e42\u0e23\u0e07\u0e1e\u0e22\u0e32\u0e1a\u0e32\u0e25\u0e08\u0e31\u0e15\u0e38\u0e23\u0e31\u0e2a", "source": "GPS; sign"}}, {"type": "node", "id": 967663687, "lat": 15.932741, "lon": 102.2819063, "tags": {"amenity": "hospital", "name": "\u0e42\u0e23\u0e07\u0e1e\u0e22\u0e32\u0e1a\u0e32\u0e25\u0e04\u0e2d\u0e19\u0e2a\u0e27\u0e23\u0e23\u0e04\u0e4c", "name:en": "Khon Sawan Hospital", "name:th": "\u0e42\u0e23\u0e07\u0e1e\u0e22\u0e32\u0e1a\u0e32\u0e25\u0e04\u0e2d\u0e19\u0e2a\u0e27\u0e23\u0e23\u0e04\u0e4c", "source": "GPS; sign"}}, {"type": "node", "id": 980135499, "lat": 10.5371749, "lon": 106.4121969, "tags": {"amenity": "hospital", "name": "Ph\u00f2ng Ch\u1ea9n Tr\u1ecb Y H\u1ecdc C\u1ed5 Truy\u1ec1n T\u01b0 Nh\u00e2n"}}, {"type": "node", "id": 980136874, "lat": 10.5392545, "lon": 106.4194209, "tags": {"amenity": "hospital", "name": "B\u1ec7nh Vi\u1ec7n \u0110a Khoa Long An - Khoa N\u1ed9i A1", "name:en": "Long An General Practice Hospital - Internal Medicine Faculty A1"}}, {"type": "node", "id": 980139083, "lat": 10.5448297, "lon": 106.3882369, "tags": {"amenity": "hospital", "name": "\u0110i\u1ec3m S\u01a1 C\u1ea5p C\u1ee9u"}}, {"type": "node", "id": 1001431539, "lat": 12.5703545, "lon": 101.4644665, "tags": {"amenity": "hospital", "name": "\u0e2a\u0e16\u0e32\u0e19\u0e35\u0e2d\u0e19\u0e32\u0e21\u0e31\u0e22\u0e40\u0e01\u0e32\u0e30\u0e40\u0e2a\u0e21\u0e47\u0e14", "name:en": "Ko Samet Health Centre", "name:th": "\u0e2a\u0e16\u0e32\u0e19\u0e35\u0e2d\u0e19\u0e32\u0e21\u0e31\u0e22\u0e40\u0e01\u0e32\u0e30\u0e40\u0e2a\u0e21\u0e47\u0e14"}}, {"type": "node", "id": 1001527959, "lat": 12.6823006, "lon": 101.2762146, "tags": {"amenity": "hospital", "name": "\u0e42\u0e23\u0e07\u0e1e\u0e22\u0e32\u0e1a\u0e32\u0e25\u0e23\u0e30\u0e22\u0e2d\u0e07", "name:en": "Rayong Hospital", "name:th": "\u0e42\u0e23\u0e07\u0e1e\u0e22\u0e32\u0e1a\u0e32\u0e25\u0e23\u0e30\u0e22\u0e2d\u0e07"}}, {"type": "node", "id": 1068754708, "lat": 16.5298201, "lon": 104.0412199, "tags": {"amenity": "hospital", "name": "\u0e42\u0e23\u0e07\u0e1e\u0e22\u0e32\u0e1a\u0e32\u0e25\u0e2a\u0e21\u0e40\u0e14\u0e47\u0e08\u0e1e\u0e23\u0e30\u0e22\u0e38\u0e1e\u0e23\u0e32\u0e0a \u0e01\u0e38\u0e09\u0e34\u0e19\u0e32\u0e23\u0e32\u0e22\u0e13\u0e4c", "name:en": "Somdet Phra Yuppharat Kuchinarai Hospital", "name:th": "\u0e42\u0e23\u0e07\u0e1e\u0e22\u0e32\u0e1a\u0e32\u0e25\u0e2a\u0e21\u0e40\u0e14\u0e47\u0e08\u0e1e\u0e23\u0e30\u0e22\u0e38\u0e1e\u0e23\u0e32\u0e0a \u0e01\u0e38\u0e09\u0e34\u0e19\u0e32\u0e23\u0e32\u0e22\u0e13\u0e4c", "source": "GPS; sign"}}, {"type": "node", "id": 1085687599, "lat": 16.0206467, "lon": 104.3381843, "tags": {"amenity": "hospital", "name": "\u0e42\u0e23\u0e07\u0e1e\u0e22\u0e32\u0e1a\u0e32\u0e25\u0e01\u0e38\u0e14\u0e0a\u0e38\u0e21", "name:en": "Kut Chum Hospital", "name:th": "\u0e42\u0e23\u0e07\u0e1e\u0e22\u0e32\u0e1a\u0e32\u0e25\u0e01\u0e38\u0e14\u0e0a\u0e38\u0e21", "source": "GPS; sign"}}, {"type": "node", "id": 1091369946, "lat": 16.429482, "lon": 102.8510992, "tags": {"amenity": "hospital", "name": "\u0e28\u0e39\u0e19\u0e22\u0e4c\u0e2d\u0e19\u0e32\u0e21\u0e31\u0e22\u0e17\u0e35\u0e48 6", "name:en": "Regional Health Promotion Center 6", "name:th": "\u0e28\u0e39\u0e19\u0e22\u0e4c\u0e2d\u0e19\u0e32\u0e21\u0e31\u0e22\u0e17\u0e35\u0e48 6", "source": "GPS; sign"}}, {"type": "node", "id": 1096327937, "lat": 13.5927735, "lon": 100.5781403, "tags": {"addr:street": "\u0e2a\u0e38\u0e02\u0e2a\u0e27\u0e31\u0e2a\u0e14\u0e34\u0e4c", "amenity": "hospital", "name": "\u0e42\u0e23\u0e07\u0e1e\u0e22\u0e32\u0e1a\u0e32\u0e25\u0e1e\u0e23\u0e30\u0e2a\u0e21\u0e38\u0e17\u0e23\u0e40\u0e08\u0e14\u0e35\u0e22\u0e4c\u0e27\u0e32\u0e17\u0e22\u0e32\u0e19\u0e19\u0e17\u0e4c"}}, {"type": "node", "id": 1133937451, "lat": 18.7167043, "lon": 102.1066693, "tags": {"amenity": "hospital", "name": "Phonsavath Village Health Center"}}, {"type": "node", "id": 1150943082, "lat": 11.9398477, "lon": 108.4329545, "tags": {"amenity": "hospital", "name": "Ph\u00f2ng Kh\u00e1m \u0110a Khoa Trung T\u00e2m Y T\u1ebf \u0110\u00e0 L\u1ea1t"}}, {"type": "node", "id": 1152347004, "lat": 11.9482325, "lon": 108.4594665, "tags": {"amenity": "hospital", "healthcare": "hospital", "name": "Y H\u1ecdc C\u1ed5 Truy\u1ec1n Ph\u1ea1m Ng\u1ecdc Th\u1ea1ch"}}, {"type": "node", "id": 1174355716, "lat": 18.848137, "lon": 101.9272576, "tags": {"amenity": "hospital", "emergency": "yes", "name": "Muank Met Hospital"}}, {"type": "node", "id": 1203059492, "lat": 18.2544082, "lon": 109.5008715, "tags": {"amenity": "hospital", "healthcare": "hospital", "name": "\u4e09\u4e9a\u4eba\u6c11\u533b\u9662 - Sanya People Hospital", "name:en": "Sanya People Hospital", "name:ru": "\u041d\u0430\u0440\u043e\u0434\u043d\u0430\u044f \u0431\u043e\u043b\u044c\u043d\u0438\u0446\u0430", "name:zh": "\u4e09\u4e9a\u4eba\u6c11\u533b\u9662"}}, {"type": "node", "id": 1218765524, "lat": 11.8115083, "lon": 102.4812709, "tags": {"amenity": "hospital", "name": "\u0e2a\u0e16\u0e32\u0e19\u0e35\u0e2d\u0e19\u0e32\u0e21\u0e31\u0e22\u0e15\u0e33\u0e1a\u0e25\u0e40\u0e01\u0e32\u0e30\u0e2b\u0e21\u0e32\u0e01", "name:en": "Kohmak Health Center"}}, {"type": "node", "id": 1218832213, "lat": 12.0996699, "lon": 102.2759364, "tags": {"amenity": "hospital", "healthcare": "hospital", "name": "Bangkok hospital"}}, {"type": "node", "id": 1241849685, "lat": 15.7135617, "lon": 103.2335255, "tags": {"addr:country": "TH", "addr:district": "\u0e19\u0e32\u0e14\u0e39\u0e19", "addr:district:en": "Na Dun", "addr:province": "\u0e21\u0e2b\u0e32\u0e2a\u0e32\u0e23\u0e04\u0e32\u0e21", "addr:province:en": "Maha Sarakham", "amenity": "hospital", "name": "\u0e42\u0e23\u0e07\u0e1e\u0e22\u0e32\u0e1a\u0e32\u0e25\u0e19\u0e32\u0e14\u0e39\u0e19", "name:en": "Na Dun Hospital", "source": "Bing; sign"}}, {"type": "node", "id": 1245013628, "lat": 15.6504516, "lon": 103.5786924, "tags": {"amenity": "hospital", "name": "\u0e42\u0e23\u0e07\u0e1e\u0e22\u0e32\u0e1a\u0e32\u0e25\u0e40\u0e01\u0e29\u0e15\u0e23\u0e27\u0e34\u0e2a\u0e31\u0e22", "name:en": "Kaset Wisai Hospital", "name:th": "\u0e42\u0e23\u0e07\u0e1e\u0e22\u0e32\u0e1a\u0e32\u0e25\u0e40\u0e01\u0e29\u0e15\u0e23\u0e27\u0e34\u0e2a\u0e31\u0e22", "source": "Bing"}}, {"type": "node", "id": 1255805469, "lat": 11.5596737, "lon": 104.9248858, "tags": {"amenity": "hospital", "name": "Raffles Medical"}}, {"type": "node", "id": 1274146574, "lat": 10.2885668, "lon": 105.7708256, "tags": {"amenity": "hospital", "name": "B\u1ec7nh vi\u1ec7n \u0111a khoa Sa \u0110\u00e9c"}}, {"type": "node", "id": 1275615338, "lat": 11.5478023, "lon": 106.0016526, "tags": {"amenity": "hospital", "name": "Tr\u1ea1m y t\u1ebf T\u00e2n Bi\u00ean"}}, {"type": "node", "id": 1313558732, "lat": 17.4216091, "lon": 102.7838538, "tags": {"addr:housenumber": "042325999", "addr:street": "\u0e16\u0e19\u0e19\u0e28\u0e38\u0e20\u0e01\u0e34\u0e08\u0e08\u0e23\u0e23\u0e22\u0e32", "amenity": "hospital", "email": "admin@wattanahospital.net", "name": "\u0e42\u0e23\u0e07\u0e1e\u0e22\u0e32\u0e1a\u0e32\u0e25 \u0e27\u0e31\u0e12\u0e19\u0e32", "name:en": "Wattana Hospital", "name:th": "\u0e42\u0e23\u0e07\u0e1e\u0e22\u0e32\u0e1a\u0e32\u0e25 \u0e27\u0e31\u0e12\u0e19\u0e32", "opening_hours": "24/7", "phone": "042325999", "website": "https://www.wattanahospital.net/"}}, {"type": "node", "id": 1313784515, "lat": 17.4769571, "lon": 101.9737559, "tags": {"amenity": "hospital", "name": "\u0e42\u0e23\u0e07\u0e1e\u0e22\u0e32\u0e1a\u0e32\u0e25\u0e19\u0e32\u0e14\u0e49\u0e27\u0e07", "name:en": "Na Duang Hospital", "source": "GPS; sign"}}, {"type": "node", "id": 1319724319, "lat": 16.1347821, "lon": 102.5341154, "tags": {"addr:country": "TH", "addr:district": "\u0e21\u0e31\u0e0d\u0e08\u0e32\u0e04\u0e35\u0e23\u0e35", "addr:district:en": "Mancha Khiri", "addr:province": "\u0e02\u0e2d\u0e19\u0e41\u0e01\u0e48\u0e19", "addr:province:en": "Khon Kaen", "addr:subdistrict": "\u0e01\u0e38\u0e14\u0e40\u0e04\u0e49\u0e32", "addr:subdistrict:en": "Kut Khao", "amenity": "hospital", "name": "\u0e42\u0e23\u0e07\u0e1e\u0e22\u0e32\u0e1a\u0e32\u0e25\u0e21\u0e31\u0e0d\u0e08\u0e32\u0e04\u0e35\u0e23\u0e35", "name:en": "Mancha Khiri Hospital", "name:th": "Mancha Khiri Hospital", "name:zh": "Mancha Khiri Hospital", "source": "Bing; sign"}}, {"type": "node", "id": 1325130265, "lat": 16.4058982, "lon": 102.3436237, "tags": {"amenity": "hospital", "name": "\u0e42\u0e23\u0e07\u0e1e\u0e22\u0e32\u0e1a\u0e32\u0e25\u0e1a\u0e49\u0e32\u0e19\u0e41\u0e17\u0e48\u0e19", "name:en": "Ban Thaen Hospital", "source": "Bing; sign"}}, {"type": "node", "id": 1347695009, "lat": 17.1659773, "lon": 102.7798508, "tags": {"addr:country": "TH", "addr:district": "\u0e2b\u0e19\u0e2d\u0e07\u0e41\u0e2a\u0e07", "addr:district:en": "Nong Saeng", "addr:province": "\u0e2d\u0e38\u0e14\u0e23\u0e18\u0e32\u0e19\u0e35", "addr:province:en": "Udon Thani", "addr:subdistrict": "\u0e2b\u0e19\u0e2d\u0e07\u0e41\u0e2a\u0e07", "addr:subdistrict:en": "Nong Saeng", "amenity": "hospital", "name": "\u0e42\u0e23\u0e07\u0e1e\u0e22\u0e32\u0e1a\u0e32\u0e25\u0e2b\u0e19\u0e2d\u0e07\u0e41\u0e2a\u0e07", "name:en": "Nong Saeng Hospital", "source": "Bing; sign"}}, {"type": "node", "id": 1347774770, "lat": 17.973464, "lon": 102.6505569, "tags": {"amenity": "hospital", "name": "Xaysettha District Hospital", "source": "GPS"}}, {"type": "node", "id": 1350940541, "lat": 17.088278, "lon": 102.6054131, "tags": {"amenity": "hospital", "name": "\u0e2a\u0e16\u0e32\u0e19\u0e1e\u0e22\u0e32\u0e1a\u0e32\u0e25\u0e42\u0e19\u0e19\u0e42\u0e1e\u0e18\u0e34\u0e4c", "name:en": "Non Pho Hospital", "source": "GPS; sign"}}, {"type": "node", "id": 1364240998, "lat": 15.8084029, "lon": 102.5999536, "tags": {"addr:country": "TH", "addr:district": "\u0e1e\u0e19", "addr:district:en": "Phon", "addr:province": "\u0e02\u0e2d\u0e19\u0e41\u0e01\u0e48\u0e19", "addr:province:en": "Khon Kaen", "addr:subdistrict": "\u0e40\u0e21\u0e37\u0e2d\u0e07\u0e1e\u0e19", "addr:subdistrict:en": "Mueang Phon", "amenity": "hospital", "name": "\u0e42\u0e23\u0e07\u0e1e\u0e22\u0e32\u0e02\u0e32\u0e25\u0e1e\u0e25", "name:en": "Phon Hospital", "source": "GPS; sign"}}, {"type": "node", "id": 1365404708, "lat": 15.7409626, "lon": 102.26815, "tags": {"amenity": "hospital", "name": "\u0e42\u0e23\u0e07\u0e1e\u0e22\u0e32\u0e02\u0e32\u0e25\u0e41\u0e01\u0e49\u0e07\u0e2a\u0e19\u0e32\u0e21\u0e19\u0e32\u0e07", "name:en": "Kaeng Sanam Nang Hospital", "source": "Bing; sign"}}, {"type": "node", "id": 1367502494, "lat": 16.0915456, "lon": 102.6188565, "tags": {"addr:country": "TH", "addr:district": "\u0e0a\u0e19\u0e1a\u0e17", "addr:district:en": "Chonnabot", "addr:province": "\u0e02\u0e2d\u0e19\u0e41\u0e01\u0e48\u0e19", "addr:province:en": "Khon Kaen", "addr:subdistrict": "\u0e0a\u0e19\u0e1a\u0e17", "addr:subdistrict:en": "Chonnabot", "amenity": "hospital", "name": "\u0e42\u0e23\u0e07\u0e1e\u0e22\u0e32\u0e1a\u0e32\u0e25\u0e0a\u0e19\u0e1a\u0e17", "name:en": "Chonnabot Hospital", "source": "GPS; sign"}}, {"type": "node", "id": 1374797504, "lat": 16.7565741, "lon": 102.6327386, "tags": {"amenity": "hospital", "name": "\u0e42\u0e23\u0e07\u0e1e\u0e22\u0e32\u0e1a\u0e32\u0e25\u0e2d\u0e38\u0e1a\u0e25\u0e23\u0e31\u0e15\u0e19\u0e4c", "name:en": "Ubonrat Hospital", "source": "Bing; sign"}}, {"type": "node", "id": 1375583771, "lat": 16.8511655, "lon": 102.856344, "tags": {"amenity": "hospital", "name": "\u0e42\u0e23\u0e07\u0e1e\u0e22\u0e32\u0e02\u0e32\u0e25\u0e40\u0e02\u0e32\u0e2a\u0e27\u0e19\u0e01\u0e27\u0e32\u0e07", "name:en": "Khao Suan Kwang Hospital", "name:th": "\u0e42\u0e23\u0e07\u0e1e\u0e22\u0e32\u0e02\u0e32\u0e25\u0e40\u0e02\u0e32\u0e2a\u0e27\u0e19\u0e01\u0e27\u0e32\u0e07", "source": "Bing; sign"}}, {"type": "node", "id": 1382674290, "lat": 16.9806451, "lon": 103.1854407, "tags": {"amenity": "hospital", "name": "\u0e42\u0e23\u0e07\u0e1e\u0e22\u0e32\u0e1a\u0e32\u0e25\u0e28\u0e23\u0e35\u0e18\u0e32\u0e15\u0e38", "name:en": "Si That Hospital", "source": "Bing; sign"}}, {"type": "node", "id": 1384419477, "lat": 16.6517898, "lon": 102.3798834, "tags": {"amenity": "hospital", "name": "\u0e42\u0e23\u0e07\u0e1e\u0e22\u0e32\u0e02\u0e32\u0e25\u0e20\u0e39\u0e40\u0e27\u0e35\u0e22\u0e07", "name:en": "Phu Wiang Hospital", "source": "Bing; sign"}}, {"type": "node", "id": 1388255029, "lat": 16.7011787, "lon": 104.0892702, "tags": {"amenity": "hospital", "name": "\u0e42\u0e23\u0e07\u0e1e\u0e22\u0e32\u0e1a\u0e32\u0e25\u0e40\u0e02\u0e32\u0e27\u0e07", "name:en": "Khao Wong Hospital", "source": "GPS; sign"}}, {"type": "node", "id": 1388255621, "lat": 17.0519275, "lon": 104.2665683, "tags": {"amenity": "hospital", "name": "\u0e42\u0e23\u0e07\u0e1e\u0e22\u0e32\u0e1a\u0e32\u0e25\u0e42\u0e04\u0e01\u0e28\u0e23\u0e35\u0e2a\u0e38\u0e1e\u0e23\u0e23\u0e13", "name:en": "Khok Si Suphan Hospital", "source": "GPS; sign"}}, {"type": "node", "id": 1388257525, "lat": 17.1901849, "lon": 104.5259276, "tags": {"amenity": "hospital", "name": "\u0e42\u0e23\u0e07\u0e1e\u0e22\u0e32\u0e1a\u0e32\u0e25\u0e1b\u0e25\u0e32\u0e1b\u0e32\u0e01", "name:en": "Pla Pak Hospital", "source": "GPS; sign"}}, {"type": "node", "id": 1388263071, "lat": 16.9922675, "lon": 104.1602916, "tags": {"amenity": "hospital", "healthcare": "hospital", "name": "\u0e42\u0e23\u0e07\u0e1e\u0e22\u0e32\u0e1a\u0e32\u0e25\u0e40\u0e15\u0e48\u0e32\u0e07\u0e2d\u0e22", "name:en": "Tao Ngoi Hospital", "name:th": "\u0e42\u0e23\u0e07\u0e1e\u0e22\u0e32\u0e1a\u0e32\u0e25\u0e40\u0e15\u0e48\u0e32\u0e07\u0e2d\u0e22", "source": "GPS;sign"}}, {"type": "node", "id": 1388264913, "lat": 17.4130366, "lon": 104.7779959, "tags": {"amenity": "hospital", "name": "\u0e44\u0e23\u0e07\u0e1e\u0e22\u0e32\u0e1a\u0e32\u0e25\u0e19\u0e04\u0e23\u0e1e\u0e19\u0e21", "name:en": "Nakhon Phanom Hospital", "source": "GPS; sign"}}, {"type": "node", "id": 1388303041, "lat": 16.9273944, "lon": 103.2435887, "tags": {"amenity": "hospital", "name": "\u0e42\u0e23\u0e07\u0e1e\u0e22\u0e32\u0e02\u0e32\u0e25\u0e17\u0e48\u0e32\u0e04\u0e31\u0e19\u0e42\u0e17", "name:en": "Tha Khantho Hospital", "source": "GPS; sign"}}, {"type": "node", "id": 1388304239, "lat": 17.29563, "lon": 103.2311969, "tags": {"amenity": "hospital", "name": "\u0e42\u0e23\u0e07\u0e1e\u0e22\u0e32\u0e1a\u0e32\u0e25\u0e44\u0e0a\u0e22\u0e27\u0e32\u0e19", "name:en": "Chaiwan Hospital", "source": "Bing; sign"}}, {"type": "node", "id": 1388308951, "lat": 17.1050988, "lon": 103.0198447, "tags": {"amenity": "hospital", "name": "\u0e42\u0e23\u0e07\u0e1e\u0e22\u0e32\u0e1a\u0e32\u0e25\u0e01\u0e38\u0e21\u0e20\u0e27\u0e32\u0e1b\u0e35", "name:en": "Kumphawapi Hospital", "source": "Bing;sign"}}, {"type": "node", "id": 1389224994, "lat": 17.4149312, "lon": 102.7803421, "tags": {"amenity": "hospital", "emergency": "yes", "healthcare": "hospital", "name": "\u0e42\u0e23\u0e07\u0e1e\u0e22\u0e32\u0e1a\u0e32\u0e25\u0e2d\u0e38\u0e14\u0e23\u0e18\u0e32\u0e19\u0e35", "name:en": "Udon Thani Hospital", "source": "Bing; sign", "website": "https://www.udh.go.th/", "wikidata": "Q30270584"}}, {"type": "node", "id": 1389256604, "lat": 17.3699739, "lon": 102.8118659, "tags": {"amenity": "hospital", "name": "\u0e42\u0e23\u0e07\u0e1e\u0e22\u0e32\u0e1a\u0e32\u0e25\u0e04\u0e48\u0e32\u0e22\u0e1b\u0e23\u0e30\u0e08\u0e31\u0e01\u0e29\u0e4c\u0e28\u0e34\u0e25\u0e1b\u0e32\u0e04\u0e21", "name:en": "Prachak Sinlapakhom Army Hospital", "name:th": "\u0e42\u0e23\u0e07\u0e1e\u0e22\u0e32\u0e1a\u0e32\u0e25\u0e04\u0e48\u0e32\u0e22\u0e1b\u0e23\u0e30\u0e08\u0e31\u0e01\u0e29\u0e4c\u0e28\u0e34\u0e25\u0e1b\u0e32\u0e04\u0e21", "source": "Bing; sign"}}, {"type": "node", "id": 1395957939, "lat": 15.3512628, "lon": 102.1724353, "tags": {"amenity": "hospital", "name": "\u0e42\u0e23\u0e07\u0e1e\u0e22\u0e32\u0e1a\u0e32\u0e25\u0e02\u0e32\u0e21\u0e2a\u0e30\u0e41\u0e01\u0e41\u0e2a\u0e07", "name:en": "Kham Sakae Saeng Hospital", "source": "Bing; sign"}}, {"type": "node", "id": 1402295027, "lat": 15.867519, "lon": 100.5934174, "tags": {"amenity": "hospital", "name": "\u0e42\u0e23\u0e07\u0e1e\u0e22\u0e32\u0e02\u0e32\u0e25\u0e2b\u0e19\u0e2d\u0e07\u0e1a\u0e31\u0e27", "name:en": "Nong Bua Hospital", "source": "Bing; sign"}}, {"type": "node", "id": 1402295030, "lat": 15.8514298, "lon": 101.4156194, "tags": {"amenity": "hospital", "name": "\u0e42\u0e23\u0e07\u0e1e\u0e22\u0e32\u0e1a\u0e32\u0e25\u0e20\u0e31\u0e01\u0e14\u0e35\u0e0a\u0e38\u0e21\u0e1e\u0e25", "name:en": "Phakdi Chumphon Hospital", "source": "GPS; sign"}}, {"type": "node", "id": 1402895609, "lat": 13.8939018, "lon": 100.5616676, "tags": {"amenity": "hospital", "emergency": "yes", "healthcare": "hospital", "name": "\u0e42\u0e23\u0e07\u0e1e\u0e22\u0e32\u0e1a\u0e32\u0e25\u0e21\u0e07\u0e01\u0e38\u0e0e\u0e27\u0e31\u0e12\u0e19\u0e30", "name:en": "Mongkutwattana General Hospital", "operator:type": "private", "source": "Bing; sign", "website": "http://www.mongkutwattana.co.th/"}}, {"type": "node", "id": 1433192072, "lat": 16.2367913, "lon": 108.078659, "tags": {"amenity": "hospital", "emergency": "no", "name": "Lang Co Hospital"}}, {"type": "node", "id": 1473041820, "lat": 17.3086477, "lon": 100.073646, "tags": {"amenity": "hospital", "name": "\u0e42\u0e23\u0e07\u0e1e\u0e22\u0e32\u0e1a\u0e32\u0e25\u0e1e\u0e34\u0e0a\u0e31\u0e22", "name:en": "Phichai Hospital", "name:th": "\u0e42\u0e23\u0e07\u0e1e\u0e22\u0e32\u0e1a\u0e32\u0e25\u0e1e\u0e34\u0e0a\u0e31\u0e22"}}, {"type": "node", "id": 1482233715, "lat": 16.4491924, "lon": 102.6543304, "tags": {"addr:district": "\u0e1a\u0e49\u0e32\u0e19\u0e1d\u0e32\u0e07", "addr:district:en": "Ban Fang", "addr:province": "\u0e02\u0e2d\u0e19\u0e41\u0e01\u0e48\u0e19", "addr:province:en": "Khon Kaen", "addr:subdistrict": "\u0e1a\u0e49\u0e32\u0e19\u0e1d\u0e32\u0e07", "addr:subdistrict:en": "Ban Fang", "amenity": "hospital", "name": "\u0e42\u0e23\u0e07\u0e1e\u0e22\u0e32\u0e1a\u0e32\u0e25\u0e1a\u0e49\u0e32\u0e19\u0e1d\u0e32\u0e07", "name:en": "Ban Fang Hospital", "opening_hours": "6:00-21:00", "source": "Bing; sign"}}, {"type": "node", "id": 1492972706, "lat": 19.8775049, "lon": 102.1398819, "tags": {"amenity": "hospital", "name": "Lao Red Cross, blood donation"}}, {"type": "node", "id": 1505125168, "lat": 16.4909649, "lon": 102.4434179, "tags": {"addr:district": "\u0e2b\u0e19\u0e2d\u0e07\u0e40\u0e23\u0e37\u0e2d", "addr:district:en": "Nong Ruea", "addr:province": "\u0e02\u0e2d\u0e19\u0e41\u0e01\u0e48\u0e19", "addr:province:en": "Khon Kaen", "addr:subdistrict": "\u0e2b\u0e19\u0e2d\u0e07\u0e40\u0e23\u0e37\u0e2d", "addr:subdistrict:en": "Nong Ruea", "amenity": "hospital", "name": "\u0e42\u0e23\u0e07\u0e1e\u0e22\u0e32\u0e1a\u0e32\u0e25 \u0e2d\u0e33\u0e40\u0e20\u0e2d\u0e2b\u0e19\u0e2d\u0e07\u0e40\u0e23\u0e37\u0e2d", "name:en": "Nong Ruea District Hospital", "source": "Bing; sign"}}, {"type": "node", "id": 1527921317, "lat": 13.7748044, "lon": 109.2374251, "tags": {"addr:city": "Quy Nh\u01a1n", "addr:district": "Quy Nh\u01a1n", "addr:housenumber": "114", "addr:province": "B\u00ecnh \u0110\u1ecbnh", "addr:street": "Tr\u1ea7n H\u01b0ng \u0110\u1ea1o", "addr:subdistrict": "Quy Nhon", "amenity": "hospital", "healthcare": "hospital", "name": "B\u1ec7nh Vi\u1ec7n \u0110a Khoa Quy Nh\u01a1n", "name:en": "Quy Nhon City General Hospital", "operator": "Government", "operator:type": "public", "phone": "+842563892973", "website": "https://benhvienquynhon.gov.vn/"}}, {"type": "node", "id": 1527921376, "lat": 13.7736217, "lon": 109.2400912, "tags": {"amenity": "hospital", "name": "B\u1ec7nh Vi\u1ec7n M\u1eaft B\u00ecnh \u0110\u1ecbnh"}}, {"type": "node", "id": 1577988798, "lat": 12.0929946, "lon": 102.2777027, "tags": {"amenity": "hospital", "emergency": "yes", "name": "International Clinic", "opening_hours": "24/7", "wheelchair": "yes"}}, {"type": "node", "id": 1597544742, "lat": 13.6844421, "lon": 101.0732375, "tags": {"amenity": "hospital", "healthcare": "hospital"}}, {"type": "node", "id": 1611570040, "lat": 16.7718501, "lon": 103.0219578, "tags": {"amenity": "hospital", "source": "Bing"}}, {"type": "node", "id": 1613079931, "lat": 16.8061289, "lon": 103.0398708, "tags": {"amenity": "hospital", "source": "Bing"}}, {"type": "node", "id": 1613080690, "lat": 16.842908, "lon": 103.0801398, "tags": {"amenity": "hospital", "source": "Bing"}}, {"type": "node", "id": 1613082319, "lat": 16.8612261, "lon": 103.1062018, "tags": {"amenity": "hospital", "source": "Bing"}}, {"type": "node", "id": 1614851223, "lat": 17.2633659, "lon": 102.8825237, "tags": {"amenity": "hospital", "name": "\u0e42\u0e23\u0e07\u0e1e\u0e22\u0e32\u0e1a\u0e32\u0e25 \u0e21\u0e30\u0e40\u0e23\u0e47\u0e07 \u0e2d\u0e38\u0e14\u0e23\u0e18\u0e32\u0e19\u0e35", "name:en": "Udon Thani Cancer Hospital", "name:th": "\u0e42\u0e23\u0e07\u0e1e\u0e22\u0e32\u0e1a\u0e32\u0e25 \u0e21\u0e30\u0e40\u0e23\u0e47\u0e07 \u0e2d\u0e38\u0e14\u0e23\u0e18\u0e32\u0e19\u0e35"}}, {"type": "node", "id": 1614907877, "lat": 17.267074, "lon": 102.8804287, "tags": {"amenity": "hospital", "name": "\u0e28\u0e39\u0e19\u0e22\u0e4c\u0e1a\u0e33\u0e1a\u0e31\u0e14\u0e23\u0e31\u0e01\u0e29\u0e32\u0e22\u0e32\u0e40\u0e2a\u0e1e\u0e15\u0e34\u0e14\u0e2d\u0e38\u0e14\u0e23\u0e18\u0e32\u0e19\u0e35", "name:en": "Drug Treatment Center", "name:th": "\u0e28\u0e39\u0e19\u0e22\u0e4c\u0e1a\u0e33\u0e1a\u0e31\u0e14\u0e23\u0e31\u0e01\u0e29\u0e32\u0e22\u0e32\u0e40\u0e2a\u0e1e\u0e15\u0e34\u0e14\u0e2d\u0e38\u0e14\u0e23\u0e18\u0e32\u0e19\u0e35"}}, {"type": "node", "id": 1614907953, "lat": 17.3130539, "lon": 102.8496622, "tags": {"amenity": "hospital", "name": "\u0e28\u0e39\u0e19\u0e22\u0e4c\u0e2a\u0e07\u0e40\u0e04\u0e23\u0e32\u0e30\u0e2b\u0e4c\u0e1a\u0e38\u0e04\u0e04\u0e25\u0e1b\u0e31\u0e0d\u0e0d\u0e32\u0e2d\u0e48\u0e2d\u0e19 \u0e20\u0e32\u0e04\u0e15\u0e30\u0e27\u0e31\u0e19\u0e2d\u0e2d\u0e01\u0e40\u0e09\u0e35\u0e22\u0e07\u0e40\u0e2b\u0e19\u0e37\u0e2d", "name:en": "Northeast Mental Retardation Hospital", "name:th": "\u0e28\u0e39\u0e19\u0e22\u0e4c\u0e2a\u0e07\u0e40\u0e04\u0e23\u0e32\u0e30\u0e2b\u0e4c\u0e1a\u0e38\u0e04\u0e04\u0e25\u0e1b\u0e31\u0e0d\u0e0d\u0e32\u0e2d\u0e48\u0e2d\u0e19 \u0e20\u0e32\u0e04\u0e15\u0e30\u0e27\u0e31\u0e19\u0e2d\u0e2d\u0e01\u0e40\u0e09\u0e35\u0e22\u0e07\u0e40\u0e2b\u0e19\u0e37\u0e2d"}}, {"type": "node", "id": 1637395202, "lat": 11.5576008, "lon": 104.9249475, "tags": {"amenity": "hospital", "designation": "Naga Clinic", "emergency": "yes", "name": "Naga Clinic"}}, {"type": "node", "id": 1644008063, "lat": 13.1048698, "lon": 109.3116773, "tags": {"amenity": "hospital", "name": "B\u1ec7nh Vi\u00ean Y h\u1ecdc C\u1ed5 Truy\u1ec1n t\u1ec9nh Ph\u00fa Y\u00ean"}}, {"type": "node", "id": 1645930798, "lat": 13.8999118, "lon": 100.5020172, "tags": {"alt_name": "\u0e42\u0e23\u0e07\u0e1e\u0e22\u0e32\u0e1a\u0e32\u0e25\u0e0a\u0e25\u0e1b\u0e23\u0e30\u0e17\u0e32\u0e19", "alt_name:en": "Royal Irrigation Department Hospital", "alt_name:th": "\u0e42\u0e23\u0e07\u0e1e\u0e22\u0e32\u0e1a\u0e32\u0e25\u0e0a\u0e25\u0e1b\u0e23\u0e30\u0e17\u0e32\u0e19", "amenity": "hospital", "emergency": "yes", "healthcare:speciality": "teach", "name": "\u0e28\u0e39\u0e19\u0e22\u0e4c\u0e01\u0e32\u0e23\u0e41\u0e1e\u0e17\u0e22\u0e4c\u0e1b\u0e31\u0e0d\u0e0d\u0e32\u0e19\u0e31\u0e19\u0e17\u0e20\u0e34\u0e01\u0e02\u0e38 \u0e0a\u0e25\u0e1b\u0e23\u0e30\u0e17\u0e32\u0e19 \u0e21\u0e2b\u0e32\u0e27\u0e34\u0e17\u0e22\u0e32\u0e25\u0e31\u0e22\u0e28\u0e23\u0e35\u0e19\u0e04\u0e23\u0e34\u0e19\u0e17\u0e23\u0e27\u0e34\u0e42\u0e23\u0e12", "name:en": "Panyananthaphikkhu Chonprathan Medical Center", "name:th": "\u0e28\u0e39\u0e19\u0e22\u0e4c\u0e01\u0e32\u0e23\u0e41\u0e1e\u0e17\u0e22\u0e4c\u0e1b\u0e31\u0e0d\u0e0d\u0e32\u0e19\u0e31\u0e19\u0e17\u0e20\u0e34\u0e01\u0e02\u0e38 \u0e0a\u0e25\u0e1b\u0e23\u0e30\u0e17\u0e32\u0e19 \u0e21\u0e2b\u0e32\u0e27\u0e34\u0e17\u0e22\u0e32\u0e25\u0e31\u0e22\u0e28\u0e23\u0e35\u0e19\u0e04\u0e23\u0e34\u0e19\u0e17\u0e23\u0e27\u0e34\u0e42\u0e23\u0e12", "phone": "025022345", "website": "http://pcmc.swu.ac.th/", "wikidata": "Q13021490", "wikimedia_commons": "Category:Panyananthaphikkhu Chonprathan Medical Center", "wikipedia": "th:\u0e28\u0e39\u0e19\u0e22\u0e4c\u0e01\u0e32\u0e23\u0e41\u0e1e\u0e17\u0e22\u0e4c\u0e1b\u0e31\u0e0d\u0e0d\u0e32\u0e19\u0e31\u0e19\u0e17\u0e20\u0e34\u0e01\u0e02\u0e38 \u0e0a\u0e25\u0e1b\u0e23\u0e30\u0e17\u0e32\u0e19 \u0e21\u0e2b\u0e32\u0e27\u0e34\u0e17\u0e22\u0e32\u0e25\u0e31\u0e22\u0e28\u0e23\u0e35\u0e19\u0e04\u0e23\u0e34\u0e19\u0e17\u0e23\u0e27\u0e34\u0e42\u0e23\u0e12"}}, {"type": "node", "id": 1648675260, "lat": 13.8452316, "lon": 100.5172204, "tags": {"amenity": "hospital", "healthcare": "hospital", "healthcare:speciality": "psychiatry;child_psychiatry;neuropsychiatry", "name": "\u0e42\u0e23\u0e07\u0e1e\u0e22\u0e32\u0e1a\u0e32\u0e25\u0e28\u0e23\u0e35\u0e18\u0e31\u0e0d\u0e0d\u0e32", "name:en": "Srithanya Hospital", "name:th": "\u0e42\u0e23\u0e07\u0e1e\u0e22\u0e32\u0e1a\u0e32\u0e25\u0e28\u0e23\u0e35\u0e18\u0e31\u0e0d\u0e0d\u0e32", "website": "https://www.srithanya.go.th/", "wikidata": "Q16306395", "wikipedia": "th:\u0e42\u0e23\u0e07\u0e1e\u0e22\u0e32\u0e1a\u0e32\u0e25\u0e28\u0e23\u0e35\u0e18\u0e31\u0e0d\u0e0d\u0e32"}}, {"type": "node", "id": 1648675298, "lat": 13.8535704, "lon": 100.5224289, "tags": {"addr:city": "\u0e15\u0e33\u0e1a\u0e25\u0e15\u0e25\u0e32\u0e14\u0e02\u0e27\u0e31\u0e0d", "addr:hamlet": "4", "addr:housenumber": "38", "addr:street": "\u0e16\u0e19\u0e19\u0e15\u0e34\u0e27\u0e32\u0e19\u0e19\u0e17\u0e4c", "amenity": "hospital", "healthcare": "hospital", "healthcare:speciality": "infectious_diseases", "name": "\u0e2a\u0e16\u0e32\u0e1a\u0e31\u0e19\u0e1a\u0e33\u0e23\u0e32\u0e28\u0e19\u0e23\u0e32\u0e14\u0e39\u0e23", "name:en": "Bamrasnaradura Infectious Diseases Institute", "name:th": "\u0e2a\u0e16\u0e32\u0e1a\u0e31\u0e19\u0e1a\u0e33\u0e23\u0e32\u0e28\u0e19\u0e23\u0e32\u0e14\u0e39\u0e23", "phone": "02-951-1170-76, 02-591-1178-79, 02-590-3402,02-590-3427", "website": "http://bamras.ddc.moph.go.th/", "wikidata": "Q13021911", "wikipedia": "th:\u0e2a\u0e16\u0e32\u0e1a\u0e31\u0e19\u0e1a\u0e33\u0e23\u0e32\u0e28\u0e19\u0e23\u0e32\u0e14\u0e39\u0e23"}}, {"type": "node", "id": 1657141019, "lat": 14.918347, "lon": 103.0793151, "tags": {"amenity": "hospital", "source": "Bing; sign"}}, {"type": "node", "id": 1658690743, "lat": 13.4599569, "lon": 101.1726897, "tags": {"amenity": "hospital", "name": "\u0e42\u0e23\u0e07\u0e1e\u0e22\u0e32\u0e1a\u0e32\u0e25\u0e1e\u0e19\u0e31\u0e2a\u0e19\u0e34\u0e04\u0e21", "name:en": "Phanat Nikhom Hospital"}}, {"type": "node", "id": 1669899706, "lat": 13.8190156, "lon": 100.0752367, "tags": {"amenity": "hospital", "emergency": "yes", "name": "\u0e42\u0e23\u0e07\u0e1e\u0e22\u0e32\u0e1a\u0e32\u0e25\u0e28\u0e39\u0e19\u0e22\u0e4c\u0e19\u0e04\u0e23\u0e1b\u0e10\u0e21", "name:en": "Nakhonpathom Hospital", "website": "https://nkpthospital.com/"}}, {"type": "node", "id": 1669899707, "lat": 13.805757, "lon": 100.0391289, "tags": {"amenity": "hospital", "emergency": "yes", "name": "\u0e42\u0e23\u0e07\u0e1e\u0e22\u0e32\u0e1a\u0e32\u0e25\u0e2a\u0e19\u0e32\u0e21\u0e08\u0e31\u0e19\u0e17\u0e23\u0e4c", "name:en": "Sanam Chan Hospital"}}, {"type": "node", "id": 1669899708, "lat": 13.8203525, "lon": 100.063818, "tags": {"amenity": "hospital", "name": "\u0e42\u0e23\u0e07\u0e1e\u0e22\u0e32\u0e1a\u0e32\u0e25\u0e40\u0e17\u0e1e\u0e32\u0e01\u0e23", "name:en": "Tepakorn Hospital"}}, {"type": "node", "id": 1675580882, "lat": 12.8521307, "lon": 102.6093576, "tags": {"amenity": "hospital", "name": "Khemara Clinic"}}, {"type": "node", "id": 1700620340, "lat": 15.8788253, "lon": 102.9108077, "tags": {"addr:district": "\u0e40\u0e1b\u0e37\u0e2d\u0e22\u0e19\u0e49\u0e2d\u0e22", "addr:district:en": "Pueai Noi", "addr:province": "\u0e02\u0e2d\u0e19\u0e41\u0e01\u0e48\u0e19", "addr:province:en": "Khon Kaen", "addr:subdistrict": "\u0e40\u0e1b\u0e37\u0e2d\u0e22\u0e19\u0e49\u0e2d\u0e22", "addr:subdistrict:en": "Pueai Noi", "amenity": "hospital", "name": "\u0e42\u0e23\u0e07\u0e1e\u0e22\u0e32\u0e1a\u0e32\u0e25 \u0e2d\u0e33\u0e40\u0e20\u0e2d\u0e40\u0e1b\u0e37\u0e2d\u0e22\u0e19\u0e49\u0e2d\u0e22", "name:en": "Pueai Noi District Hospital", "source": "Bing; sign"}}, {"type": "node", "id": 1721503151, "lat": 15.7676321, "lon": 101.0101567, "tags": {"amenity": "hospital", "emergency": "yes", "name": "\u0e42\u0e23\u0e07\u0e1e\u0e22\u0e32\u0e1a\u0e32\u0e25\u0e1a\u0e36\u0e07\u0e2a\u0e32\u0e21\u0e1e\u0e31\u0e19", "name:en": "Bueng Sam Phan Hospital", "name:th": "\u0e42\u0e23\u0e07\u0e1e\u0e22\u0e32\u0e1a\u0e32\u0e25\u0e1a\u0e36\u0e07\u0e2a\u0e32\u0e21\u0e1e\u0e31\u0e19"}}, {"type": "node", "id": 1721835164, "lat": 14.6864526, "lon": 102.5349386, "tags": {"addr:district": "\u0e2b\u0e19\u0e2d\u0e07\u0e01\u0e35\u0e48", "addr:district:en": "Nong Ki", "addr:province": "\u0e1a\u0e38\u0e23\u0e35\u0e23\u0e31\u0e21\u0e22\u0e4c", "addr:province:en": "Buri Ram", "addr:subdistrict": "\u0e2b\u0e19\u0e2d\u0e07\u0e01\u0e35\u0e48", "addr:subdistrict:en": "Nong Ki", "amenity": "hospital", "name": "\u0e42\u0e23\u0e07\u0e1e\u0e22\u0e32\u0e1a\u0e32\u0e25 \u0e2d\u0e33\u0e40\u0e20\u0e2d\u0e19\u0e2d\u0e07\u0e01\u0e35\u0e48", "name:en": "Nong Ki District Hospital", "source": "GPS; sign"}}, {"type": "node", "id": 1727558698, "lat": 12.6504798, "lon": 108.0230837, "tags": {"amenity": "hospital", "name": "B\u1ec7nh vi\u1ec7n \u0110\u1ea1i h\u1ecdc T\u00e2y Nguy\u00ean"}}, {"type": "node", "id": 1727724722, "lat": 15.3406167, "lon": 102.7459599, "tags": {"addr:district": "\u0e0a\u0e38\u0e21\u0e1e\u0e27\u0e07", "addr:district:en": "Chum Phuang", "addr:province": "\u0e19\u0e04\u0e23\u0e23\u0e32\u0e0a\u0e2a\u0e35\u0e21\u0e32", "addr:province:en": "Nakhon Ratchasima", "addr:subdistrict": "\u0e0a\u0e38\u0e21\u0e1e\u0e27\u0e07", "addr:subdistrict:en": "Chum Phuang", "amenity": "hospital", "name": "\u0e42\u0e23\u0e07\u0e1e\u0e22\u0e32\u0e1a\u0e32\u0e25 \u0e2d\u0e33\u0e40\u0e20\u0e2d\u0e0a\u0e38\u0e21\u0e1e\u0e27\u0e07", "name:en": "Chum Phuang District Hospital", "source": "Bing"}}, {"type": "node", "id": 1727724727, "lat": 15.0144741, "lon": 102.832996, "tags": {"addr:district:en": "Lam Plai Mat", "addr:province": "\u0e1a\u0e38\u0e23\u0e35\u0e23\u0e31\u0e21\u0e22\u0e4c", "addr:province:en": "Buri Ram", "addr:subdistrict": "\u0e25\u0e33\u0e1b\u0e25\u0e32\u0e22\u0e21\u0e32\u0e28", "addr:subdistrict:en": "Lam Plai Mat", "amenity": "hospital", "name": "\u0e42\u0e23\u0e07\u0e1e\u0e22\u0e32\u0e1a\u0e32\u0e25 \u0e2d\u0e33\u0e40\u0e20\u0e2d\u0e25\u0e33\u0e1b\u0e25\u0e32\u0e22\u0e21\u0e32\u0e28", "name:en": "Lam Plai Mat District Hospital", "source": "Bing; sign"}}, {"type": "node", "id": 1765857987, "lat": 10.922227, "lon": 105.0241164, "tags": {"amenity": "hospital", "emergency": "no", "name": "Kok Thlok Health Center"}}, {"type": "node", "id": 1777707116, "lat": 10.0296653, "lon": 105.7762811, "tags": {"amenity": "hospital", "name": "H\u1ed9i \u0110\u00f4ng Y"}}, {"type": "node", "id": 1781217140, "lat": 10.0306927, "lon": 105.7731243, "tags": {"amenity": "hospital", "name": "Tr\u1ea1m Y t\u1ebf P. Xu\u00e2n Kh\u00e1nh"}}, {"type": "node", "id": 1781231926, "lat": 10.0223343, "lon": 105.7659144, "tags": {"amenity": "hospital", "name": "Nha khoa H\u01b0ng L\u1ee3i"}}, {"type": "node", "id": 1781250863, "lat": 10.0210749, "lon": 105.7699058, "tags": {"amenity": "hospital", "healthcare": "clinic", "name": "Tr\u1ea1m y t\u1ebf H\u01b0ng L\u1ee3i"}}, {"type": "node", "id": 1783222953, "lat": 10.0440487, "lon": 105.7816809, "tags": {"amenity": "hospital", "name": "Trung t\u00e2m y t\u1ebf d\u1ef1 ph\u00f2ng C\u1ea7n Th\u01a1"}}, {"type": "node", "id": 1783223376, "lat": 10.0437641, "lon": 105.7815365, "tags": {"amenity": "hospital", "name": "TT Nha khoa M\u1ef9 Thu\u1eadt Cao"}}, {"type": "node", "id": 1783227734, "lat": 10.0402647, "lon": 105.785331, "tags": {"amenity": "hospital", "name": "Tr\u1ea1m Y t\u1ebf"}}, {"type": "node", "id": 1783266159, "lat": 10.0451555, "lon": 105.7826643, "tags": {"amenity": "hospital", "name": "Tr\u1ea1m Y t\u1ebf C\u00e1i Kh\u1ebf"}}, {"type": "node", "id": 1787142357, "lat": 15.9342021, "lon": 102.5302974, "tags": {"addr:district": "\u0e41\u0e27\u0e07\u0e43\u0e2b\u0e0d\u0e48", "addr:district:en": "Waeng Yai", "addr:hamlet": "\u0e2b\u0e21\u0e39\u0e48\u0e17\u0e35\u0e48 1", "addr:province": "\u0e02\u0e2d\u0e19\u0e41\u0e01\u0e48\u0e19", "addr:province:en": "Khon Kaen", "addr:subdistrict": "\u0e04\u0e2d\u0e21\u0e09\u0e34\u0e21", "addr:subdistrict:en": "Khom Chim", "amenity": "hospital", "building": "public", "name": "\u0e2d\u0e07\u0e04\u0e4c\u0e01\u0e32\u0e23\u0e1a\u0e23\u0e34\u0e2b\u0e32\u0e23\u0e2a\u0e48\u0e27\u0e19 \u0e15\u0e33\u0e1a\u0e25\u0e04\u0e2d\u0e21\u0e09\u0e34\u0e21", "name:en": "Khom Chim Subdistrict Administration Office", "source": "Bing; sign"}}, {"type": "node", "id": 1793935354, "lat": 10.0303545, "lon": 105.7513901, "tags": {"amenity": "hospital", "name": "B\u1ec7nh vi\u1ec7n ph\u1ee5 s\u1ea3n qu\u1ed1c t\u1ebf Ph\u01b0\u01a1ng Ch\u00e2u"}}, {"type": "node", "id": 1797189361, "lat": 13.792343, "lon": 100.5396756, "tags": {"amenity": "hospital", "emergency": "no", "healthcare": "hospital", "name:en": "Public Health Center 11", "source": "local knowledge"}}, {"type": "node", "id": 1798920830, "lat": 10.3751746, "lon": 105.4416699, "tags": {"amenity": "hospital", "name": "B\u1ec7nh Vi\u1ec7n B\u00ecnh D\u00e2n"}}, {"type": "node", "id": 1798922803, "lat": 10.3655131, "lon": 105.4435206, "tags": {"amenity": "hospital", "name": "Tr\u1ea1m Y t\u1ebf M\u1ef9 Ph\u01b0\u1edbc"}}, {"type": "node", "id": 1798925054, "lat": 10.3552363, "lon": 105.4584414, "tags": {"amenity": "hospital", "emergency": "yes", "name": "B\u1ec7nh vi\u1ec7n H\u1ea1nh Ph\u00fac", "operator": "t\u01b0 nh\u00e2n"}}, {"type": "node", "id": 1798925058, "lat": 10.3460092, "lon": 105.4666627, "tags": {"amenity": "hospital", "name": "Tr\u1ea1m Y t\u1ebf ph\u01b0\u1eddng M\u1ef9 Th\u1ea1nh"}}, {"type": "node", "id": 1798925073, "lat": 10.3458084, "lon": 105.4667325, "tags": {"amenity": "hospital", "name": "Tr\u1ea1m Y t\u1ebf ph\u01b0\u1eddng M\u1ef9 Th\u1edbi"}}, {"type": "node", "id": 1800559122, "lat": 12.6742578, "lon": 101.2787691, "tags": {"amenity": "hospital", "emergency": "yes", "name": "\u0e04\u0e25\u0e34\u0e19\u0e34\u0e01\u0e0a\u0e38\u0e21\u0e0a\u0e19\u0e2d\u0e1a\u0e2d\u0e38\u0e48\u0e19", "name:en": "Chumchon Op-Un Clinic"}}, {"type": "node", "id": 1802406247, "lat": 16.4034324, "lon": 103.0987143, "tags": {"addr:district": "\u0e40\u0e0a\u0e35\u0e22\u0e07\u0e22\u0e37\u0e19", "addr:district:en": "Chiang Yuen", "addr:province": "\u0e21\u0e2b\u0e32\u0e2a\u0e32\u0e23\u0e04\u0e32\u0e21", "addr:province:en": "Maha Sarakham", "addr:subdistrict": "\u0e40\u0e0a\u0e35\u0e22\u0e07\u0e22\u0e37\u0e19", "addr:subdistrict:en": "Chiang Yuen", "amenity": "hospital", "name": "\u0e42\u0e23\u0e07\u0e1e\u0e22\u0e32\u0e1a\u0e32\u0e25 \u0e2d\u0e33\u0e40\u0e20\u0e2d\u0e40\u0e0a\u0e35\u0e22\u0e07\u0e22\u0e37\u0e19", "name:en": "Chiang Yuen District Hospital", "name:th": "\u0e42\u0e23\u0e07\u0e1e\u0e22\u0e32\u0e1a\u0e32\u0e25 \u0e2d\u0e33\u0e40\u0e20\u0e2d\u0e40\u0e0a\u0e35\u0e22\u0e07\u0e22\u0e37\u0e19", "source": "Bing; sign"}}, {"type": "node", "id": 1825172788, "lat": 16.0782595, "lon": 102.7152971, "tags": {"addr:district": "\u0e1a\u0e49\u0e32\u0e19\u0e44\u0e1c\u0e48", "addr:district:en": "Ban Phai", "addr:province": "\u0e02\u0e2d\u0e19\u0e41\u0e01\u0e48\u0e19", "addr:province:en": "Khon Kaen", "addr:subdistrict": "\u0e43\u0e19\u0e40\u0e21\u0e37\u0e2d\u0e07", "addr:subdistrict:en": "Nai Mueang", "amenity": "hospital", "name": "\u0e42\u0e23\u0e07\u0e1e\u0e22\u0e32\u0e1a\u0e32\u0e25\u0e1a\u0e49\u0e32\u0e19\u0e40\u0e01\u0e34\u0e49\u0e07", "name:en": "Ban Koeng Hospital", "source": "Bing; sign"}}, {"type": "node", "id": 1868772257, "lat": 13.9090183, "lon": 100.6181733, "tags": {"amenity": "hospital", "emergency": "yes", "name": "\u0e23\u0e1e.\u0e20\u0e39\u0e21\u0e34\u0e1e\u0e25\u0e2d\u0e14\u0e38\u0e25\u0e22\u0e40\u0e14\u0e0a \u0e1e\u0e2d", "name:en": "Bhumibol Adulyadej Hospital", "wikidata": "Q13026856", "wikimedia_commons": "Category:Bhumibol Adulyadej Hospital", "wikipedia": "en:Bhumibol Adulyadej Hospital"}}, {"type": "node", "id": 1872414783, "lat": 13.7125212, "lon": 100.4356835, "tags": {"amenity": "hospital", "name": "\u0e2a\u0e16\u0e32\u0e19\u0e35\u0e01\u0e32\u0e0a\u0e32\u0e14\u0e17\u0e35\u0e48 11 \u0e27\u0e34\u0e40\u0e28\u0e29\u0e19\u0e34\u0e22\u0e21"}}, {"type": "node", "id": 1883550279, "lat": 16.7977395, "lon": 102.1877869, "tags": {"addr:district": "\u0e2a\u0e35\u0e0a\u0e21\u0e1e\u0e39", "addr:district:en": "Si Chomphu", "addr:hamlet": "\u0e2b\u0e21\u0e39\u0e48\u0e17\u0e35\u0e48 12", "addr:province": "\u0e02\u0e2d\u0e19\u0e41\u0e01\u0e48\u0e19", "addr:province:en": "Khon Kaen", "addr:subdistrict": "\u0e27\u0e31\u0e07\u0e40\u0e1e\u0e34\u0e48\u0e21", "addr:subdistrict:en": "Wang Phoem", "amenity": "hospital", "name": "\u0e42\u0e23\u0e07\u0e1e\u0e22\u0e32\u0e1a\u0e32\u0e25 \u0e2d\u0e33\u0e40\u0e20\u0e2d\u0e2a\u0e35\u0e0a\u0e21\u0e1e\u0e39", "name:en": "Si Chomphu District Hospital", "source": "Bing; sign"}}, {"type": "node", "id": 1908445585, "lat": 16.5456932, "lon": 102.0999099, "tags": {"addr:district": "\u0e0a\u0e38\u0e21\u0e41\u0e1e", "addr:district:en": "Chum Phae", "addr:province": "\u0e02\u0e2d\u0e19\u0e41\u0e01\u0e48\u0e19", "addr:province:en": "Khon Kaen", "addr:subdistrict": "\u0e0a\u0e38\u0e21\u0e41\u0e1e", "addr:subdistrict:en": "Chum Phae", "amenity": "hospital", "name": "\u0e42\u0e23\u0e07\u0e1e\u0e22\u0e32\u0e1a\u0e32\u0e25 \u0e2d\u0e33\u0e40\u0e20\u0e2d\u0e0a\u0e38\u0e21\u0e41\u0e1e", "name:en": "Chum Phae District Hospital", "source": "Bing; sign"}}, {"type": "node", "id": 1913931587, "lat": 16.6156206, "lon": 101.9150707, "tags": {"addr:district": "\u0e04\u0e2d\u0e19\u0e2a\u0e32\u0e23", "addr:district:en": "Khon San", "addr:province": "\u0e0a\u0e31\u0e22\u0e20\u0e39\u0e21\u0e34", "addr:province:en": "Chaiyaphum", "addr:subdistrict": "\u0e04\u0e2d\u0e19\u0e2a\u0e32\u0e23", "addr:subdistrict:en": "Khon San", "amenity": "hospital", "name": "\u0e42\u0e23\u0e07\u0e1e\u0e22\u0e32\u0e1a\u0e32\u0e25 \u0e2d\u0e33\u0e40\u0e20\u0e2d\u0e04\u0e2d\u0e19\u0e2a\u0e32\u0e23", "name:en": "Khon San District Hospital", "source": "GPS; sign"}}, {"type": "node", "id": 1913931588, "lat": 16.646025, "lon": 101.9023325, "tags": {"addr:district": "\u0e20\u0e39\u0e1e\u0e32\u0e21\u0e48\u0e32\u0e19", "addr:district:en": "Phu Pha Man", "addr:province": "\u0e02\u0e2d\u0e19\u0e41\u0e01\u0e48\u0e19", "addr:province:en": "Khon Kaen", "addr:subdistrict": "\u0e20\u0e39\u0e1e\u0e32\u0e21\u0e48\u0e32\u0e19", "addr:subdistrict:en": "Phu Pha Man", "amenity": "hospital", "name": "\u0e42\u0e23\u0e07\u0e1e\u0e22\u0e32\u0e1a\u0e32\u0e25 \u0e2d\u0e33\u0e40\u0e20\u0e2d\u0e20\u0e39\u0e1e\u0e32\u0e21\u0e48\u0e32\u0e19", "name:en": "Phu Pha Man District Hospital", "source": "GPS; sign"}}, {"type": "node", "id": 1928865162, "lat": 16.1123902, "lon": 103.1973039, "tags": {"amenity": "hospital", "source": "Bing"}}, {"type": "node", "id": 1973472546, "lat": 11.6380505, "lon": 104.8846507, "tags": {"amenity": "hospital", "name": "Santepheap Clinic", "name:km": "\u1782\u17d2\u179b\u17b8\u1793\u17b7\u1780\u179f\u1793\u17d2\u178f\u17b7\u1797\u17b6\u1796"}}, {"type": "node", "id": 2068143964, "lat": 13.8343627, "lon": 100.6110973, "tags": {"amenity": "hospital", "emergency": "no", "healthcare": "hospital", "level": "1", "name": "Prodenta Dental Clinic", "number zone": "C208"}}, {"type": "node", "id": 2068143965, "lat": 13.8343093, "lon": 100.6110893, "tags": {"amenity": "hospital", "healthcare": "hospital", "level": "1", "name": "Kudos By Tarakorn", "number zone": "C207"}}, {"type": "node", "id": 2068143969, "lat": 13.834407, "lon": 100.6110584, "tags": {"amenity": "hospital", "emergency": "no", "healthcare": "hospital", "image": "http://farm9.staticflickr.com/8370/8385572217_bd5bf44914_m.jpg", "level": "1", "name": "Pruksa Clinic", "number zone": "C209"}}, {"type": "node", "id": 2068143976, "lat": 13.8345164, "lon": 100.6110973, "tags": {"amenity": "hospital", "emergency": "no", "healthcare": "hospital", "level": "1", "name": "S-Smart Clinic", "number zone": "C210"}}, {"type": "node", "id": 2093025769, "lat": 18.4737298, "lon": 102.4851726, "tags": {"amenity": "hospital", "name": "\u0ec2\u0eae\u0e87\u0edd\u0ecd\u0ec1\u0e82\u0ea7\u0e87\u0ea7\u0ebd\u0e87\u0e88\u0eb1\u0e99", "name:en": "Vientiane Province Hospital", "name:th": "\u0e42\u0e23\u0e07\u0e1e\u0e22\u0e32\u0e1a\u0e32\u0e25\u0e08\u0e31\u0e07\u0e2b\u0e27\u0e31\u0e14\u0e40\u0e27\u0e35\u0e22\u0e07\u0e08\u0e31\u0e19\u0e17\u0e19\u0e4c", "source": "bing"}}, {"type": "node", "id": 2112296382, "lat": 14.8967735, "lon": 100.3974611, "tags": {"amenity": "hospital", "healthcare": "hospital", "name": "\u0e42\u0e23\u0e07\u0e1e\u0e22\u0e32\u0e1a\u0e32\u0e25\u0e2a\u0e34\u0e07\u0e2b\u0e4c\u0e1a\u0e38\u0e23\u0e35", "name:en": "Sing Buri Hospital", "name:th": "\u0e42\u0e23\u0e07\u0e1e\u0e22\u0e32\u0e1a\u0e32\u0e25\u0e2a\u0e34\u0e07\u0e2b\u0e4c\u0e1a\u0e38\u0e23\u0e35", "wheelchair": "yes"}}, {"type": "node", "id": 2112412385, "lat": 13.7280179, "lon": 100.5742113, "tags": {"amenity": "hospital", "healthcare": "hospital", "level": "3", "name": "charisma"}}, {"type": "node", "id": 2141656855, "lat": 11.657889, "lon": 102.5399255, "tags": {"amenity": "hospital", "name": "Koh Kood Hospital"}}, {"type": "node", "id": 2145554970, "lat": 14.2348705, "lon": 104.0804559, "tags": {"amenity": "hospital", "name": "Anlong Veng Hospital"}}, {"type": "node", "id": 2145618441, "lat": 14.1885249, "lon": 103.5177582, "tags": {"amenity": "hospital", "name": "Oddar Meanchey Hospital"}}, {"type": "node", "id": 2147654917, "lat": 16.1016726, "lon": 108.2486987, "tags": {"amenity": "hospital", "emergency": "no"}}, {"type": "node", "id": 2171899228, "lat": 13.7965652, "lon": 104.9817389, "tags": {"amenity": "hospital", "name": "16 Makara Provincial Referral Hospital"}}, {"type": "node", "id": 2182981236, "lat": 13.7144385, "lon": 100.5770853, "tags": {"amenity": "hospital", "name": "\u0e42\u0e23\u0e07\u0e1e\u0e22\u0e32\u0e1a\u0e32\u0e25\u200b\u0e40\u0e17\u0e1e\u0e18\u0e32\u0e23\u0e34\u0e19\u0e17\u0e23\u0e4c", "name:en": "Theptarin Hospital", "name:th": "\u0e42\u0e23\u0e07\u0e1e\u0e22\u0e32\u0e1a\u0e32\u0e25\u200b\u0e40\u0e17\u0e1e\u0e18\u0e32\u0e23\u0e34\u0e19\u0e17\u0e23\u0e4c", "source": "survey"}}, {"type": "node", "id": 2185742149, "lat": 15.7060186, "lon": 100.1309499, "tags": {"amenity": "hospital", "emergency": "yes", "name": "\u0e42\u0e23\u0e07\u0e1e\u0e22\u0e32\u0e1a\u0e32\u0e25\u0e28\u0e23\u0e35\u0e2a\u0e27\u0e23\u0e23\u0e04\u0e4c", "name:en": "Srisawan Hospital"}}, {"type": "node", "id": 2185742157, "lat": 15.7069998, "lon": 100.1384386, "tags": {"amenity": "hospital", "emergency": "yes", "name": "\u0e42\u0e23\u0e07\u0e1e\u0e22\u0e32\u0e1a\u0e32\u0e25\u0e2a\u0e27\u0e23\u0e23\u0e04\u0e4c\u0e1b\u0e23\u0e30\u0e0a\u0e32\u0e23\u0e31\u0e01\u0e29\u0e4c", "name:en": "sawan pracharak hospital", "website": "http://www.spr.go.th/"}}, {"type": "node", "id": 2185742161, "lat": 15.6839278, "lon": 100.1067778, "tags": {"amenity": "hospital"}}, {"type": "node", "id": 2185742162, "lat": 15.696222, "lon": 100.1231393, "tags": {"amenity": "hospital", "emergency": "yes", "name": "\u0e42\u0e23\u0e07\u0e1e\u0e22\u0e32\u0e1a\u0e32\u0e25\u0e1b\u0e32\u0e01\u0e19\u0e49\u0e33\u0e42\u0e1e", "name:en": "Paknampho Hospital"}}, {"type": "node", "id": 2240989792, "lat": 12.3062066, "lon": 103.1067575, "tags": {"amenity": "hospital", "name": "Pra Moy Health Center"}}, {"type": "node", "id": 2262455096, "lat": 10.3503097, "lon": 107.0714235, "tags": {"amenity": "hospital", "name": "SOS International Medical clinic"}}, {"type": "node", "id": 2301118771, "lat": 10.7293847, "lon": 106.7096877, "tags": {"amenity": "hospital", "healthcare": "hospital", "name": "Nh\u00e0 Thu\u1ed1c S.C Pharma"}}, {"type": "node", "id": 2321107849, "lat": 16.4234125, "lon": 101.157488, "tags": {"amenity": "hospital", "healthcare": "hospital", "name": "Muang Phet Hospital"}}, {"type": "node", "id": 2321107850, "lat": 16.4269606, "lon": 101.1531347, "tags": {"amenity": "hospital", "emergency": "yes", "name": "Phetchabun Hospital"}}, {"type": "node", "id": 2325759006, "lat": 10.1615278, "lon": 104.6142991, "tags": {"amenity": "hospital", "emergency": "yes", "name": "Tr\u1ea1m Y t\u1ebf B\u00ecnh An"}}, {"type": "node", "id": 2326845867, "lat": 10.3040973, "lon": 104.5335152, "tags": {"amenity": "hospital", "name": "Tr\u1ea1m y t\u1ebf D\u01b0\u01a1ng H\u00f2a"}}, {"type": "node", "id": 2333063559, "lat": 14.9853647, "lon": 102.0995022, "tags": {"addr:housenumber": "49", "addr:postcode": "30000", "addr:street": "Changpueak Road", "amenity": "hospital", "email": "maharat@mnrh.go.th", "name": "\u0e42\u0e23\u0e07\u0e1e\u0e22\u0e32\u0e1a\u0e32\u0e25\u0e21\u0e2b\u0e32\u0e23\u0e32\u0e0a\u0e19\u0e04\u0e23\u0e23\u0e32\u0e0a\u0e2a\u0e35\u0e21\u0e32", "name:en": "Maharat Nakhon Ratchasima Hospital", "name:th": "\u0e42\u0e23\u0e07\u0e1e\u0e22\u0e32\u0e1a\u0e32\u0e25\u0e21\u0e2b\u0e32\u0e23\u0e32\u0e0a\u0e19\u0e04\u0e23\u0e23\u0e32\u0e0a\u0e2a\u0e35\u0e21\u0e32", "opening_hours": "24/7", "phone": "044235000", "website": "https://www.mnrh.go.th/", "wikidata": "Q13026861"}}, {"type": "node", "id": 2340078156, "lat": 18.0644649, "lon": 102.5372624, "tags": {"amenity": "hospital", "name": "\u0ec2\u0eae\u0e87\u0edd\u0ecd\u0ec0\u0ea1\u0eb7\u0ead\u0e87 \u0e99\u0eb2\u0e8a\u0eb2\u0e8d\u0e97\u0ead\u0e87", "name:en": "Nasaithong", "name:lo": "\u0ec2\u0eae\u0e87\u0edd\u0ecd\u0ec0\u0ea1\u0eb7\u0ead\u0e87 \u0e99\u0eb2\u0e8a\u0eb2\u0e8d\u0e97\u0ead\u0e87"}}, {"type": "node", "id": 2341484948, "lat": 10.1227951, "lon": 105.5267268, "tags": {"amenity": "hospital", "name": "tr\u1ea1m y t\u1ebf th\u1edbi h\u01b0ng"}}, {"type": "node", "id": 2341601957, "lat": 10.0668613, "lon": 105.5472852, "tags": {"amenity": "hospital", "name": "B\u1ec7nh vi\u1ec7n huy\u1ec7n Th\u1edbi Lai"}}, {"type": "node", "id": 2341745287, "lat": 10.0840697, "lon": 105.547602, "tags": {"amenity": "hospital", "name": "tr\u1ea1m y t\u1ebf x\u00e3 xu\u00e2n th\u1eafng"}}, {"type": "node", "id": 2341791280, "lat": 10.1876873, "lon": 105.5506934, "tags": {"amenity": "hospital", "name": "tr\u1ea1m y t\u1ebf T\u00e2n H\u01b0ng"}}, {"type": "node", "id": 2378730942, "lat": 17.271291, "lon": 102.5980394, "tags": {"amenity": "hospital", "name": "\u0e42\u0e23\u0e07\u0e1e\u0e22\u0e32\u0e1a\u0e32\u0e25\u0e2b\u0e19\u0e2d\u0e07\u0e27\u0e31\u0e27\u0e0b\u0e2d", "name:en": "Nong Wua So Hospital", "name:th": "\u0e42\u0e23\u0e07\u0e1e\u0e22\u0e32\u0e1a\u0e32\u0e25\u0e2b\u0e19\u0e2d\u0e07\u0e27\u0e31\u0e27\u0e0b\u0e2d"}}, {"type": "node", "id": 2385769463, "lat": 16.8847876, "lon": 101.8831567, "tags": {"amenity": "hospital", "name": "\u0e42\u0e23\u0e07\u0e1e\u0e22\u0e32\u0e1a\u0e32\u0e25\u0e20\u0e39\u0e01\u0e23\u0e30\u0e14\u0e36\u0e07", "name:en": "Phu Kradueng Hospital", "name:th": "\u0e42\u0e23\u0e07\u0e1e\u0e22\u0e32\u0e1a\u0e32\u0e25\u0e20\u0e39\u0e01\u0e23\u0e30\u0e14\u0e36\u0e07"}}, {"type": "node", "id": 2385856215, "lat": 17.3070741, "lon": 101.9412813, "tags": {"amenity": "hospital", "name": "\u0e42\u0e23\u0e07\u0e1e\u0e22\u0e32\u0e1a\u0e32\u0e25\u0e40\u0e2d\u0e23\u0e32\u0e27\u0e31\u0e13", "name:en": "Erawan Hospital", "name:th": "\u0e42\u0e23\u0e07\u0e1e\u0e22\u0e32\u0e1a\u0e32\u0e25\u0e40\u0e2d\u0e23\u0e32\u0e27\u0e31\u0e13"}}, {"type": "node", "id": 2386101060, "lat": 17.1222846, "lon": 101.8583966, "tags": {"amenity": "hospital", "name": "\u0e42\u0e23\u0e07\u0e1e\u0e22\u0e32\u0e1a\u0e32\u0e25\u0e2a\u0e48\u0e07\u0e40\u0e2a\u0e23\u0e34\u0e21\u0e2a\u0e38\u0e02\u0e20\u0e32\u0e1e \u0e15\u0e33\u0e1a\u0e25 \u0e2b\u0e19\u0e2d\u0e07\u0e2b\u0e34\u0e19", "name:en": "Nong Hin Hospital", "name:th": "\u0e42\u0e23\u0e07\u0e1e\u0e22\u0e32\u0e1a\u0e32\u0e25\u0e2a\u0e48\u0e07\u0e40\u0e2a\u0e23\u0e34\u0e21\u0e2a\u0e38\u0e02\u0e20\u0e32\u0e1e \u0e15\u0e33\u0e1a\u0e25 \u0e2b\u0e19\u0e2d\u0e07\u0e2b\u0e34\u0e19"}}, {"type": "node", "id": 2391364878, "lat": 13.7568871, "lon": 100.5355632, "tags": {"amenity": "hospital", "name": "\u0e42\u0e23\u0e07\u0e1e\u0e22\u0e32\u0e1a\u0e32\u0e25\u0e40\u0e14\u0e0a\u0e32", "name:en": "Deja Hospital", "name:th": "\u0e42\u0e23\u0e07\u0e1e\u0e22\u0e32\u0e1a\u0e32\u0e25\u0e40\u0e14\u0e0a\u0e32"}}, {"type": "node", "id": 2394002459, "lat": 10.6271869, "lon": 103.5224907, "tags": {"amenity": "hospital", "healthcare": "hospital", "name": "CT clinic"}}, {"type": "node", "id": 2398240682, "lat": 17.8874326, "lon": 102.7571705, "tags": {"amenity": "hospital", "name": "\u0e04\u0e25\u0e34\u0e19\u0e34\u0e01\u0e2a\u0e48\u0e07\u0e40\u0e2a\u0e23\u0e34\u0e21\u0e2a\u0e38\u0e02\u0e20\u0e32\u0e1e \u0e42\u0e23\u0e07\u0e1e\u0e22\u0e32\u0e1a\u0e32\u0e25\u0e2b\u0e19\u0e2d\u0e07\u0e04\u0e32\u0e22", "name:en": "Health Promoting Clinic Nong Khai Hospital", "name:th": "\u0e04\u0e25\u0e34\u0e19\u0e34\u0e01\u0e2a\u0e48\u0e07\u0e40\u0e2a\u0e23\u0e34\u0e21\u0e2a\u0e38\u0e02\u0e20\u0e32\u0e1e \u0e42\u0e23\u0e07\u0e1e\u0e22\u0e32\u0e1a\u0e32\u0e25\u0e2b\u0e19\u0e2d\u0e07\u0e04\u0e32\u0e22"}}, {"type": "node", "id": 2407474136, "lat": 13.0969173, "lon": 109.3148522, "tags": {"amenity": "hospital", "name": "B\u00eanh vi\u1ec7n Qu\u00e2n Y"}}, {"type": "node", "id": 2407622145, "lat": 13.0921684, "lon": 109.3023658, "tags": {"amenity": "hospital", "name": "B\u1ec7nh vi\u1ec7n M\u1eaft Ph\u00fa Y\u00ean"}}, {"type": "node", "id": 2412639953, "lat": 14.6368935, "lon": 101.1982047, "tags": {"amenity": "hospital", "name": "\u0e42\u0e23\u0e07\u0e1e\u0e22\u0e32\u0e1a\u0e32\u0e25\u0e21\u0e27\u0e01\u0e40\u0e2b\u0e25\u0e47\u0e01", "name:en": "Muaklek Hospital", "name:th": "\u0e42\u0e23\u0e07\u0e1e\u0e22\u0e32\u0e1a\u0e32\u0e25\u0e21\u0e27\u0e01\u0e40\u0e2b\u0e25\u0e47\u0e01"}}, {"type": "node", "id": 2418695297, "lat": 11.5044123, "lon": 104.8915836, "tags": {"amenity": "hospital", "name": "Chamkar Doung Health Center"}}, {"type": "node", "id": 2423444737, "lat": 19.9118906, "lon": 100.2983165, "tags": {"amenity": "hospital", "name": "\u0e42\u0e23\u0e07\u0e1e\u0e22\u0e32\u0e1a\u0e32\u0e25\u0e02\u0e38\u0e19\u0e15\u0e32\u0e25", "name:en": "Khun Tan Hospital", "name:th": "\u0e42\u0e23\u0e07\u0e1e\u0e22\u0e32\u0e1a\u0e32\u0e25\u0e02\u0e38\u0e19\u0e15\u0e32\u0e25"}}, {"type": "node", "id": 2430406396, "lat": 13.7613044, "lon": 100.4971839, "tags": {"addr:housenumber": "139", "addr:postcode": "10200", "addr:street": "\u0e16\u0e19\u0e19\u0e08\u0e31\u0e01\u0e23\u0e1e\u0e07\u0e29\u0e4c", "amenity": "hospital", "email": "AllAboutToothDental@gmail.com", "internet_access": "wlan", "name": "\u0e2d\u0e30\u0e40\u0e1a\u0e32\u0e17\u0e4c\u0e17\u0e39\u0e18\u0e40\u0e14\u0e19\u0e17\u0e31\u0e25\u0e04\u0e25\u0e34\u0e19\u0e34\u0e01", "name:en": "About tooth dental cilnic", "opening_hours": "Mo-Sa 10:00-20:30", "phone": "+66993431325"}}, {"type": "node", "id": 2440347102, "lat": 13.8354411, "lon": 100.5738973, "tags": {"amenity": "hospital", "name": "\u0e42\u0e23\u0e07\u0e1e\u0e22\u0e32\u0e1a\u0e32\u0e25\u0e40\u0e21\u0e42\u0e22", "name:en": "Mayo Hospital", "wikidata": "Q6797522", "wikipedia": "en:Paolo Hospital Kaset"}}, {"type": "node", "id": 2547046568, "lat": 19.2361806, "lon": 100.7530858, "tags": {"amenity": "hospital"}}, {"type": "node", "id": 2562547850, "lat": 13.8565652, "lon": 100.8590001, "tags": {"amenity": "hospital", "emergency": "yes", "name": "\u0e42\u0e23\u0e07\u0e1e\u0e22\u0e32\u0e1a\u0e32\u0e25\u0e40\u0e27\u0e0a\u0e01\u0e32\u0e23\u0e38\u0e13\u0e22\u0e4c\u0e23\u0e31\u0e28\u0e21\u0e34\u0e4c"}}, {"type": "node", "id": 2562622348, "lat": 13.8112938, "lon": 100.7239005, "tags": {"amenity": "hospital", "emergency": "yes", "name": "\u0e42\u0e23\u0e07\u0e1e\u0e22\u0e32\u0e1a\u0e32\u0e25 \u0e19\u0e27\u0e21\u0e34\u0e19\u0e17\u0e23\u0e4c 9"}}, {"type": "node", "id": 2572163686, "lat": 16.1408157, "lon": 103.616103, "tags": {"amenity": "hospital", "name": "\u0e42\u0e23\u0e07\u0e1e\u0e22\u0e32\u0e1a\u0e32\u0e25\u0e08\u0e31\u0e07\u0e2b\u0e32\u0e23", "name:en": "Changhan Hospital"}}, {"type": "node", "id": 2593229823, "lat": 16.0016573, "lon": 103.4851331, "tags": {"amenity": "hospital", "name": "Si Somdet Hospital"}}, {"type": "node", "id": 2594089759, "lat": 15.846787, "lon": 103.8748581, "tags": {"amenity": "hospital", "name": "At Samat Hospital"}}, {"type": "node", "id": 2605403106, "lat": 18.0082501, "lon": 103.7083071, "tags": {"amenity": "hospital", "name": "Phon Charoen Hospital"}}, {"type": "node", "id": 2649623698, "lat": 18.6901665, "lon": 100.7641613, "tags": {"amenity": "hospital", "source": "GPS, survey"}}, {"type": "node", "id": 2654137132, "lat": 14.4770629, "lon": 103.5906018, "tags": {"amenity": "hospital", "internet_access": "wlan", "name": "Kap Choeng Hospital"}}, {"type": "node", "id": 2679753974, "lat": 10.7998479, "lon": 106.6675233, "tags": {"amenity": "hospital", "healthcare": "hospital", "name": "B\u1ec7nh vi\u1ec7n Ph\u1ee5 s\u1ea3n Mekong"}}, {"type": "node", "id": 2706008578, "lat": 15.2106871, "lon": 103.7553428, "tags": {"amenity": "hospital", "name": "Sanom Hospital"}}, {"type": "node", "id": 2737036678, "lat": 12.6610428, "lon": 101.2606406, "tags": {"amenity": "hospital", "name": "\u0e28\u0e39\u0e19\u0e22\u0e4c\u0e1a\u0e23\u0e34\u0e01\u0e32\u0e23\u0e2a\u0e32\u0e18\u0e32\u0e23\u0e13\u0e2a\u0e38\u0e02 \u0e1b\u0e32\u0e01\u0e19\u0e49\u0e33", "name:en": "Paknam Health Service Center", "name:th": "\u0e28\u0e39\u0e19\u0e22\u0e4c\u0e1a\u0e23\u0e34\u0e01\u0e32\u0e23\u0e2a\u0e32\u0e18\u0e32\u0e23\u0e13\u0e2a\u0e38\u0e02 \u0e1b\u0e32\u0e01\u0e19\u0e49\u0e33"}}, {"type": "node", "id": 2774436442, "lat": 17.7196925, "lon": 103.9231956, "tags": {"amenity": "hospital"}}, {"type": "node", "id": 2776795743, "lat": 10.8332833, "lon": 106.7799993, "tags": {"amenity": "hospital", "healthcare": "hospital", "name": "Trung t\u00e2m Y t\u1ebf D\u1ef1 ph\u00f2ng Qu\u1eadn 9"}}, {"type": "node", "id": 2804962211, "lat": 17.5980695, "lon": 103.9731706, "tags": {"amenity": "hospital", "healthcare": "hospital", "name:en": "Akat Amnuay District Hospital", "source": "GPS"}}, {"type": "node", "id": 2889115530, "lat": 12.7783009, "lon": 101.2926381, "tags": {"amenity": "hospital", "name": "\u0e42\u0e23\u0e07\u0e1e\u0e22\u0e32\u0e1a\u0e32\u0e25\u0e1a\u0e49\u0e32\u0e19\u0e04\u0e48\u0e32\u0e22", "name:en": "Bankhai Hospital", "name:th": "\u0e42\u0e23\u0e07\u0e1e\u0e22\u0e32\u0e1a\u0e32\u0e25\u0e1a\u0e49\u0e32\u0e19\u0e04\u0e48\u0e32\u0e22"}}, {"type": "node", "id": 2909146053, "lat": 13.3598001, "lon": 103.8507775, "tags": {"addr:city": "Siem Reap", "addr:country": "KH", "amenity": "hospital"}}, {"type": "node", "id": 2930719503, "lat": 10.7795758, "lon": 106.6965213, "tags": {"addr:housenumber": "8", "addr:street": "Alexandre de Rhodes", "amenity": "hospital", "healthcare": "hospital", "name": "Columbia Asia Saigon", "operator": "Columbia Asia", "operator:wikidata": "Q5149612"}}, {"type": "node", "id": 2947427314, "lat": 11.4649727, "lon": 104.983477, "tags": {"amenity": "hospital", "emergency": "yes", "name": "Praek Thmei Health Center"}}, {"type": "node", "id": 2965509424, "lat": 19.290692, "lon": 100.8606141, "tags": {"amenity": "hospital"}}, {"type": "node", "id": 2982300410, "lat": 11.5807671, "lon": 104.9019071, "tags": {"amenity": "hospital", "emergency": "yes", "name": "Khema Clinic & Maternity"}}, {"type": "node", "id": 2982306632, "lat": 11.5768306, "lon": 104.8983595, "tags": {"amenity": "hospital", "emergency": "no", "name:en": "Chann Sokhom Clinic"}}, {"type": "node", "id": 2993872984, "lat": 10.3785311, "lon": 105.4348273, "tags": {"amenity": "hospital", "name": "B\u1ec7nh vi\u1ec7n ph\u1ee5 s\u1ea3n Vu\u00f4ng Tr\u00f2n"}}, {"type": "node", "id": 3008454323, "lat": 14.9624689, "lon": 102.0181612, "tags": {"amenity": "hospital"}}, {"type": "node", "id": 3040931236, "lat": 13.6606056, "lon": 100.4343189, "tags": {"addr:city": "\u0e1a\u0e32\u0e07\u0e02\u0e38\u0e19\u0e40\u0e17\u0e35\u0e22\u0e19", "addr:housenumber": "1", "addr:postcode": "10150", "addr:street": "\u0e1e\u0e23\u0e30\u0e23\u0e32\u0e21\u0e17\u0e35\u0e48 2 \u0e0b\u0e2d\u0e22 56", "amenity": "hospital", "emergency": "yes", "name": "\u0e42\u0e23\u0e07\u0e1e\u0e22\u0e32\u0e1a\u0e32\u0e25\u0e19\u0e04\u0e23\u0e18\u0e19", "name:en": "Nakornthon Hospital", "name:th": "\u0e42\u0e23\u0e07\u0e1e\u0e22\u0e32\u0e1a\u0e32\u0e25\u0e19\u0e04\u0e23\u0e18\u0e19", "phone": "02-450-9999", "website": "https://www.nakornthon.com/", "wikidata": "Q6960693", "wikimedia_commons": "Category:Nakornthon Hospital", "wikipedia": "en:Nakornthon Hospital"}}, {"type": "node", "id": 3045809765, "lat": 13.0991613, "lon": 103.2077587, "tags": {"amenity": "hospital", "name": "Handa medical center"}}, {"type": "node", "id": 3057125948, "lat": 13.6517376, "lon": 100.422095, "tags": {"addr:city": "\u0e1a\u0e32\u0e07\u0e02\u0e38\u0e19\u0e40\u0e17\u0e35\u0e22\u0e19", "addr:housenumber": "280", "addr:postcode": "10150", "addr:street": "\u0e16\u0e19\u0e19\u0e1e\u0e23\u0e30\u0e23\u0e32\u0e21\u0e17\u0e35\u0e48 2", "amenity": "hospital", "emergency": "yes", "name": "\u0e42\u0e23\u0e07\u0e1e\u0e22\u0e32\u0e1a\u0e32\u0e25\u0e1e\u0e23\u0e30\u0e23\u0e32\u0e21 2", "name:en": "Praram 2 Hospital"}}, {"type": "node", "id": 3090738848, "lat": 14.07858, "lon": 100.6144737, "tags": {"amenity": "hospital", "emergency": "yes", "emergency:phone": "025245555", "name": "AIT Medical Clinic", "opening_hours": "07:00-22:00", "phone": "025245286"}}, {"type": "node", "id": 3098834445, "lat": 10.762528, "lon": 106.6701859, "tags": {"amenity": "hospital", "healthcare": "hospital", "name": "Trung T\u00e2m Ch\u1ea9n \u0110o\u00e1n Y Khoa Medic - BV H\u00f2a H\u1ea3o"}}, {"type": "node", "id": 3117314444, "lat": 12.7926559, "lon": 100.9563246, "tags": {"amenity": "hospital", "name": "Yahnasang Vararam Hospital"}}, {"type": "node", "id": 3162763967, "lat": 13.5895576, "lon": 102.9744089, "tags": {"amenity": "hospital", "name": "Sereysophorn Referral Hospital"}}, {"type": "node", "id": 3210036356, "lat": 10.6270877, "lon": 104.0258021, "tags": {"amenity": "hospital"}}, {"type": "node", "id": 3217904580, "lat": 10.9034999, "lon": 106.7102737, "tags": {"amenity": "hospital", "name": "B\u1ec7nh vi\u1ec7n \u0110a khoa Qu\u1ed1c T\u1ebf Mi\u1ec1n \u0110\u00f4ng"}}, {"type": "node", "id": 3326559851, "lat": 15.2362299, "lon": 104.865494, "tags": {"addr:city": "\u0e2d\u0e38\u0e1a\u0e25\u0e23\u0e32\u0e0a\u0e18\u0e32\u0e19\u0e35", "addr:housenumber": "122", "addr:postcode": "34000", "addr:street": "\u0e16\u0e19\u0e19\u0e2a\u0e23\u0e23\u0e1e\u0e2a\u0e34\u0e17\u0e18\u0e34\u0e4c", "amenity": "hospital", "emergency": "yes", "name": "\u0e42\u0e23\u0e07\u0e1e\u0e22\u0e32\u0e1a\u0e32\u0e25\u0e2a\u0e23\u0e23\u0e1e\u0e2a\u0e34\u0e17\u0e18\u0e34\u0e1b\u0e23\u0e30\u0e2a\u0e07\u0e04\u0e4c", "name:en": "Sunpasitthiprasong Hospital", "website": "https://www.sunpasit.go.th/"}}, {"type": "node", "id": 3326566443, "lat": 15.2508312, "lon": 104.8412386, "tags": {"amenity": "hospital", "name": "Phra Si Maha Phot Psychiatric Hospital"}}, {"type": "node", "id": 3339003013, "lat": 15.3550604, "lon": 106.7310102, "tags": {"amenity": "hospital", "name": "Sekong Hospital"}}, {"type": "node", "id": 3364528415, "lat": 13.6040462, "lon": 100.7062821, "tags": {"amenity": "hospital", "healthcare": "hospital", "name": "Bangplee Hospital", "name:en": "Bangplee Hospital", "name:th": "\u0e42\u0e23\u0e07\u0e1e\u0e22\u0e32\u0e1a\u0e32\u0e25\u0e1a\u0e32\u0e07\u0e1e\u0e25\u0e35"}}, {"type": "node", "id": 3372779489, "lat": 17.1874745, "lon": 105.4226207, "tags": {"amenity": "hospital"}}, {"type": "node", "id": 3392352271, "lat": 17.4348063, "lon": 102.7922787, "tags": {"amenity": "hospital", "name": "\u0e23\u0e1e.\u0e2b\u0e21\u0e2d\u0e44\u0e1e\u0e42\u0e23\u0e08\u0e19\u0e4c\u200b"}}, {"type": "node", "id": 3418085941, "lat": 15.1873447, "lon": 102.0746049, "tags": {"amenity": "hospital"}}, {"type": "node", "id": 3448532959, "lat": 16.3888068, "lon": 103.3481894, "tags": {"alt_name:en": "Yang Talat Hospital", "amenity": "hospital", "emergency": "yes", "name": "\u0e42\u0e23\u0e07\u0e1e\u0e22\u0e32\u0e1a\u0e32\u0e25 \u0e22\u0e32\u0e07\u0e15\u0e25\u0e32\u0e14", "name:en": "Yangtalad Hospital", "name:th": "\u0e42\u0e23\u0e07\u0e1e\u0e22\u0e32\u0e1a\u0e32\u0e25 \u0e22\u0e32\u0e07\u0e15\u0e25\u0e32\u0e14"}}, {"type": "node", "id": 3509584154, "lat": 19.4384731, "lon": 102.4342917, "tags": {"amenity": "hospital"}}, {"type": "node", "id": 3510430342, "lat": 16.332268, "lon": 103.5688101, "tags": {"amenity": "hospital", "name": "\u0e42\u0e23\u0e07\u0e1e\u0e22\u0e32\u0e1a\u0e32\u0e25\u0e01\u0e21\u0e25\u0e32\u0e44\u0e2a\u0e22", "name:en": "Kamalasai Hospital"}}, {"type": "node", "id": 3549608305, "lat": 15.699488, "lon": 100.1335322, "tags": {"amenity": "hospital", "name": "\u0e42\u0e23\u0e07\u0e1e\u0e22\u0e32\u0e1a\u0e32\u0e25\u0e23\u0e48\u0e21\u0e09\u0e31\u0e15\u0e23", "name:en": "Romchat Hospital"}}, {"type": "node", "id": 3558549770, "lat": 16.0687611, "lon": 108.1894867, "tags": {"amenity": "hospital", "healthcare": "hospital", "name": "B\u1ec7nh vi\u1ec7n Thanh Kh\u00ea"}}, {"type": "node", "id": 3597628450, "lat": 16.6981425, "lon": 106.2113817, "tags": {"amenity": "hospital", "name": "Sepon Hospital"}}, {"type": "node", "id": 3599761095, "lat": 18.7025666, "lon": 101.0078871, "tags": {"amenity": "hospital", "name": "Mae Charim Hospital"}}, {"type": "node", "id": 3601792147, "lat": 17.9466324, "lon": 102.6222398, "tags": {"amenity": "hospital", "emergency": "no", "name": "Dermato-Venerology Hospital"}}, {"type": "node", "id": 3617257847, "lat": 17.9470944, "lon": 102.6313923, "tags": {"amenity": "hospital", "name": "Lao-Viet Hospital"}}, {"type": "node", "id": 3626919288, "lat": 11.0727878, "lon": 104.8175809, "tags": {"amenity": "hospital", "healthcare": "hospital", "name": "Trea Health Center", "name:km": "\u1798\u178e\u17d2\u178c\u179b\u179f\u17bb\u1781\u1797\u17b6\u1796\u1783\u17bb\u17c6\u1791\u17d2\u179a\u17b6"}}, {"type": "node", "id": 3648286644, "lat": 13.8998167, "lon": 100.2163148, "tags": {"amenity": "hospital", "name": "\u0e23\u0e1e.\u0e2b\u0e25\u0e27\u0e07\u0e1e\u0e48\u0e2d\u0e40\u0e1b\u0e34\u0e48\u0e19"}}, {"type": "node", "id": 3724097433, "lat": 13.7443109, "lon": 100.2133854, "tags": {"amenity": "hospital", "name": "Samphran Hospital", "operator": "Government"}}, {"type": "node", "id": 3736864091, "lat": 10.2477654, "lon": 105.412925, "tags": {"amenity": "hospital", "name": "Tr\u1ea1m Y t\u1ebf x\u00e3 Th\u1ea1nh M\u1ef9"}}, {"type": "node", "id": 3736870290, "lat": 10.2363471, "lon": 105.4023571, "tags": {"amenity": "hospital", "name": "B\u1ec7nh vi\u1ec7n \u0110a khoa huy\u1ec7n V\u0129nh Th\u1ea1nh"}}, {"type": "node", "id": 3763495713, "lat": 10.5431087, "lon": 105.5374986, "tags": {"amenity": "hospital", "name": "Tr\u1ea1m Y t\u1ebf B\u00ecnh Th\u00e0nh"}}, {"type": "node", "id": 3763545358, "lat": 10.4620627, "lon": 105.6300593, "tags": {"amenity": "hospital", "name": "B\u00e1c s\u0129 Thanh T\u00fa - Tim M\u1ea1ch"}}, {"type": "node", "id": 3763545361, "lat": 10.4619383, "lon": 105.6279102, "tags": {"amenity": "hospital", "name": "Tr\u1ea1m Y t\u1ebf H\u00f2a Thu\u1eadn"}}, {"type": "node", "id": 3766844280, "lat": 10.5401518, "lon": 105.5403949, "tags": {"amenity": "hospital", "name": "B\u00e1c s\u0129 C\u01b0\u1eddng"}}, {"type": "node", "id": 3776005963, "lat": 10.4299931, "lon": 105.634159, "tags": {"amenity": "hospital", "name": "TYT Ph\u01b0\u1eddng 6"}}, {"type": "node", "id": 3776017451, "lat": 10.52071, "lon": 105.8411882, "tags": {"amenity": "hospital", "name": "BV TH\u00e1p M\u01b0\u1eddi"}}, {"type": "node", "id": 3813461312, "lat": 18.9295622, "lon": 102.0169462, "tags": {"amenity": "hospital", "name": "Ban Nakangpa Health Centre"}}, {"type": "node", "id": 3840181829, "lat": 12.6909493, "lon": 108.0303902, "tags": {"amenity": "hospital"}}, {"type": "node", "id": 3898514219, "lat": 14.520677, "lon": 100.9154819, "tags": {"amenity": "hospital", "emergency": "yes", "healthcare": "hospital", "name": "\u0e42\u0e23\u0e07\u0e1e\u0e22\u0e32\u0e1a\u0e32\u0e25\u0e21\u0e34\u0e15\u0e23\u0e20\u0e32\u0e1e\u0e40\u0e21\u0e42\u0e21\u0e40\u0e23\u0e35\u0e22\u0e25", "name:en": "Mittraphap Memorial Hospital", "name:th": "\u0e42\u0e23\u0e07\u0e1e\u0e22\u0e32\u0e1a\u0e32\u0e25\u0e21\u0e34\u0e15\u0e23\u0e20\u0e32\u0e1e\u0e40\u0e21\u0e42\u0e21\u0e40\u0e23\u0e35\u0e22\u0e25"}}, {"type": "node", "id": 3905842214, "lat": 10.9613532, "lon": 105.1179071, "tags": {"amenity": "hospital"}}, {"type": "node", "id": 3931749941, "lat": 12.6863213, "lon": 106.0179581, "tags": {"amenity": "hospital", "source": "survey"}}, {"type": "node", "id": 3933124441, "lat": 12.2978044, "lon": 106.0358168, "tags": {"amenity": "hospital", "source": "survey"}}, {"type": "node", "id": 3964316250, "lat": 19.3466873, "lon": 101.7654146, "tags": {"amenity": "hospital", "name": "Nala Hospital", "source": "local_knowledge"}}, {"type": "node", "id": 3981005954, "lat": 17.133235, "lon": 101.6672095, "tags": {"amenity": "hospital", "name:en": "Phu Luang Hospital"}}, {"type": "node", "id": 4018875860, "lat": 18.0732945, "lon": 102.7486634, "tags": {"addr:city": "\u0e9a\u0ec9\u0eb2\u0e99 \u0ec2\u0e84\u0e81\u0eaa\u0eb5\u0ea7\u0eb4\u0ec4\u0ea5", "addr:housenumber": "13", "addr:postcode": "21008", "addr:street": "Road 13 South", "amenity": "hospital", "healthcare": "hospital", "healthcare:speciality": "general", "name": "Village Health Center", "operator": "Government", "operator:type": "government"}}, {"type": "node", "id": 4040096163, "lat": 10.3365974, "lon": 103.8565939, "tags": {"amenity": "hospital", "name": "Vinmec"}}, {"type": "node", "id": 4052723460, "lat": 14.5344941, "lon": 100.9154079, "tags": {"amenity": "hospital", "emergency": "yes", "healthcare": "hospital", "name": "\u0e42\u0e23\u0e07\u0e1e\u0e22\u0e32\u0e1a\u0e32\u0e25\u0e2a\u0e23\u0e30\u0e1a\u0e38\u0e23\u0e35", "name:en": "Saraburi Hospital", "website": "http://www.srbr.in.th/", "wikidata": "Q47090489"}}, {"type": "node", "id": 4057901612, "lat": 16.310414, "lon": 104.2011906, "tags": {"amenity": "hospital"}}, {"type": "node", "id": 4061099999, "lat": 13.76572, "lon": 100.642388, "tags": {"addr:city": "\u0e01\u0e17\u0e21.", "addr:housenumber": "3522", "addr:postcode": "10240", "addr:street": "\u0e25\u0e32\u0e14\u0e1e\u0e23\u0e49\u0e32\u0e27", "amenity": "hospital", "description": "\u0e40\u0e21\u0e42\u0e01\u0e30 \u0e04\u0e25\u0e34\u0e19\u0e34\u0e01\u0e40\u0e1b\u0e47\u0e19\u0e17\u0e35\u0e48\u0e23\u0e39\u0e49\u0e08\u0e31\u0e01\u0e41\u0e25\u0e30\u0e2d\u0e22\u0e39\u0e48\u0e43\u0e19\u0e23\u0e30\u0e14\u0e31\u0e1a\u0e41\u0e16\u0e27\u0e2b\u0e19\u0e49\u0e32\u0e02\u0e2d\u0e07\u0e41\u0e27\u0e14\u0e27\u0e07\u0e04\u0e27\u0e32\u0e21\u0e07\u0e32\u0e21\u0e40\u0e21\u0e37\u0e2d\u0e07\u0e44\u0e17\u0e22 \u0e42\u0e14\u0e22\u0e40\u0e09\u0e1e\u0e32\u0e30\u0e40\u0e23\u0e37\u0e48\u0e2d\u0e07\u0e1c\u0e34\u0e27\u0e1e\u0e23\u0e23\u0e13\u0e41\u0e25\u0e30\u0e28\u0e31\u0e25\u0e22\u0e01\u0e23\u0e23\u0e21\u0e04\u0e27\u0e32\u0e21\u0e07\u0e32\u0e21 \u0e42\u0e14\u0e22\u0e22\u0e36\u0e14\u0e16\u0e37\u0e2d\u0e21\u0e32\u0e15\u0e23\u0e10\u0e32\u0e19\u0e01\u0e32\u0e23\u0e14\u0e39\u0e41\u0e25\u0e23\u0e31\u0e01\u0e29\u0e32\u0e41\u0e25\u0e30\u0e01\u0e32\u0e23\u0e1a\u0e23\u0e34\u0e01\u0e32\u0e23\u0e40\u0e17\u0e35\u0e22\u0e1a\u0e40\u0e17\u0e48\u0e32\u0e23\u0e30\u0e14\u0e31\u0e1a\u0e2a\u0e32\u0e01\u0e25\u0e21\u0e32\u0e42\u0e14\u0e22\u0e15\u0e25\u0e2d\u0e14", "healthcare": "hospital", "level": "3", "name": "Meko Clinic The Mall Bangkapi \u0e40\u0e21\u0e42\u0e01\u0e30 \u0e2a\u0e32\u0e02\u0e32 \u0e40\u0e14\u0e2d\u0e30\u0e21\u0e2d\u0e25\u0e25\u0e4c\u0e1a\u0e32\u0e07\u0e01\u0e30\u0e1b\u0e34", "note": "\u0e40\u0e14\u0e2d\u0e30\u0e21\u0e2d\u0e25\u0e25\u0e4c \u0e1a\u0e32\u0e07\u0e01\u0e30\u0e1b\u0e34 \u0e0a\u0e31\u0e49\u0e19 3 \u0e1d\u0e31\u0e48\u0e07\u0e25\u0e32\u0e19\u0e08\u0e2d\u0e14\u0e23\u0e16\u0e1b\u0e23\u0e30\u0e15\u0e39\u0e01\u0e25\u0e32\u0e07 \u0e15\u0e23\u0e07\u0e02\u0e49\u0e32\u0e21\u0e18\u0e19\u0e32\u0e04\u0e32\u0e23\u0e2d\u0e2d\u0e21\u0e2a\u0e34\u0e19", "phone": "02-734-2323-4", "website": "https://mekoclinic.com/"}}, {"type": "node", "id": 4061129358, "lat": 13.7275177, "lon": 100.5807031, "tags": {"addr:city": "\u0e01\u0e23\u0e38\u0e07\u0e40\u0e17\u0e1e\u0e21\u0e2b\u0e32\u0e19\u0e04\u0e23", "addr:housenumber": "\u0e40\u0e25\u0e02\u0e17\u0e35\u0e48 95/4", "addr:postcode": "10110", "addr:street": "\u0e0b\u0e2d\u0e22\u0e2a\u0e38\u0e02\u0e38\u0e21\u0e27\u0e34\u0e17 55", "amenity": "hospital", "description": "\u0e40\u0e21\u0e42\u0e01\u0e30 \u0e04\u0e25\u0e34\u0e19\u0e34\u0e01\u0e40\u0e1b\u0e47\u0e19\u0e17\u0e35\u0e48\u0e23\u0e39\u0e49\u0e08\u0e31\u0e01\u0e41\u0e25\u0e30\u0e2d\u0e22\u0e39\u0e48\u0e43\u0e19\u0e23\u0e30\u0e14\u0e31\u0e1a\u0e41\u0e16\u0e27\u0e2b\u0e19\u0e49\u0e32\u0e02\u0e2d\u0e07\u0e41\u0e27\u0e14\u0e27\u0e07\u0e04\u0e27\u0e32\u0e21\u0e07\u0e32\u0e21\u0e40\u0e21\u0e37\u0e2d\u0e07\u0e44\u0e17\u0e22 \u0e42\u0e14\u0e22\u0e40\u0e09\u0e1e\u0e32\u0e30\u0e40\u0e23\u0e37\u0e48\u0e2d\u0e07\u0e1c\u0e34\u0e27\u0e1e\u0e23\u0e23\u0e13\u0e41\u0e25\u0e30\u0e28\u0e31\u0e25\u0e22\u0e01\u0e23\u0e23\u0e21\u0e04\u0e27\u0e32\u0e21\u0e07\u0e32\u0e21 \u0e42\u0e14\u0e22\u0e22\u0e36\u0e14\u0e16\u0e37\u0e2d\u0e21\u0e32\u0e15\u0e23\u0e10\u0e32\u0e19\u0e01\u0e32\u0e23\u0e14\u0e39\u0e41\u0e25\u0e23\u0e31\u0e01\u0e29\u0e32\u0e41\u0e25\u0e30\u0e01\u0e32\u0e23\u0e1a\u0e23\u0e34\u0e01\u0e32\u0e23\u0e40\u0e17\u0e35\u0e22\u0e1a\u0e40\u0e17\u0e48\u0e32\u0e23\u0e30\u0e14\u0e31\u0e1a\u0e2a\u0e32\u0e01\u0e25\u0e21\u0e32\u0e42\u0e14\u0e22\u0e15\u0e25\u0e2d\u0e14", "healthcare": "hospital", "name": "Meko Clinic Thonglor \u0e40\u0e21\u0e42\u0e01\u0e30 \u0e2a\u0e32\u0e02\u0e32 \u0e17\u0e2d\u0e07\u0e2b\u0e25\u0e48\u0e2d", "note": "\u0e1b\u0e32\u0e01\u0e0b\u0e2d\u0e22\u0e17\u0e2d\u0e07\u0e2b\u0e25\u0e48\u0e2d 3 \u0e15\u0e23\u0e07\u0e02\u0e49\u0e32\u0e21\u0e18\u0e19\u0e32\u0e04\u0e32\u0e23 TMB", "phone": "02-101-3881-2", "website": "https://mekoclinic.com/", "wheelchair": "no"}}, {"type": "node", "id": 4061193833, "lat": 13.6630939, "lon": 100.4375344, "tags": {"addr:city": "\u0e01\u0e17\u0e21", "addr:housenumber": "160", "addr:postcode": "10150", "addr:street": "\u0e16. \u0e1e\u0e23\u0e30\u0e23\u0e32\u0e21\u0e17\u0e35\u0e48 2", "amenity": "hospital", "description": "\u0e40\u0e21\u0e42\u0e01\u0e30 \u0e04\u0e25\u0e34\u0e19\u0e34\u0e01\u0e40\u0e1b\u0e47\u0e19\u0e17\u0e35\u0e48\u0e23\u0e39\u0e49\u0e08\u0e31\u0e01\u0e41\u0e25\u0e30\u0e2d\u0e22\u0e39\u0e48\u0e43\u0e19\u0e23\u0e30\u0e14\u0e31\u0e1a\u0e41\u0e16\u0e27\u0e2b\u0e19\u0e49\u0e32\u0e02\u0e2d\u0e07\u0e41\u0e27\u0e14\u0e27\u0e07\u0e04\u0e27\u0e32\u0e21\u0e07\u0e32\u0e21\u0e40\u0e21\u0e37\u0e2d\u0e07\u0e44\u0e17\u0e22 \u0e42\u0e14\u0e22\u0e40\u0e09\u0e1e\u0e32\u0e30\u0e40\u0e23\u0e37\u0e48\u0e2d\u0e07\u0e1c\u0e34\u0e27\u0e1e\u0e23\u0e23\u0e13\u0e41\u0e25\u0e30\u0e28\u0e31\u0e25\u0e22\u0e01\u0e23\u0e23\u0e21\u0e04\u0e27\u0e32\u0e21\u0e07\u0e32\u0e21 \u0e42\u0e14\u0e22\u0e22\u0e36\u0e14\u0e16\u0e37\u0e2d\u0e21\u0e32\u0e15\u0e23\u0e10\u0e32\u0e19\u0e01\u0e32\u0e23\u0e14\u0e39\u0e41\u0e25\u0e23\u0e31\u0e01\u0e29\u0e32\u0e41\u0e25\u0e30\u0e01\u0e32\u0e23\u0e1a\u0e23\u0e34\u0e01\u0e32\u0e23\u0e40\u0e17\u0e35\u0e22\u0e1a\u0e40\u0e17\u0e48\u0e32\u0e23\u0e30\u0e14\u0e31\u0e1a\u0e2a\u0e32\u0e01\u0e25\u0e21\u0e32\u0e42\u0e14\u0e22\u0e15\u0e25\u0e2d\u0e14", "level": "2", "name": "Meko Clinic CentralPlaza Rama 2 \u0e40\u0e21\u0e42\u0e01\u0e30 \u0e2a\u0e32\u0e02\u0e32 \u0e40\u0e0b\u0e19\u0e17\u0e23\u0e31\u0e25\u0e1e\u0e23\u0e30\u0e23\u0e32\u0e21 2", "note": "\u0e42\u0e0b\u0e19\u0e1e\u0e25\u0e32\u0e0b\u0e48\u0e32 \u0e15\u0e34\u0e14 Coffee World", "phone": "02-872-4132-3"}}, {"type": "node", "id": 4071679452, "lat": 16.2569357, "lon": 104.0368165, "tags": {"amenity": "hospital"}}, {"type": "node", "id": 4080248078, "lat": 16.2375656, "lon": 104.0903696, "tags": {"amenity": "hospital"}}, {"type": "node", "id": 4081300685, "lat": 16.1948874, "lon": 104.0743729, "tags": {"amenity": "hospital"}}, {"type": "node", "id": 4087161435, "lat": 15.9364295, "lon": 103.6168985, "tags": {"amenity": "hospital"}}, {"type": "node", "id": 4093456562, "lat": 16.1410033, "lon": 104.140245, "tags": {"amenity": "hospital"}}, {"type": "node", "id": 4118322389, "lat": 11.5832373, "lon": 104.9167705, "tags": {"addr:housenumber": "#24B, Street 2B", "addr:postcode": "12401", "addr:street": "Borey Lim Chheanghak Chamkar Doung", "amenity": "hospital", "email": "info@balegacorp.com", "internet_access": "wlan", "name": "Praram 9 Hospital Cambodia Office", "name:en": "Balega Corp Ltd", "opening_hours": "Mo-Su 08:00-18:00", "phone": "077857788", "website": "http://www.balegacorp.com"}}, {"type": "node", "id": 4131467368, "lat": 16.4839275, "lon": 104.3432637, "tags": {"amenity": "hospital"}}, {"type": "node", "id": 4142664190, "lat": 11.55912, "lon": 104.9189448, "tags": {"addr:housenumber": "39", "addr:street": "Street 105", "amenity": "hospital", "email": "techheng@yahoo.com", "internet_access": "wlan", "name": "Apsara Phnom Penh Hospital", "opening_hours": "24/7", "phone": "089588914"}}, {"type": "node", "id": 4148736350, "lat": 19.9799057, "lon": 105.9841948, "tags": {"amenity": "hospital", "name": "Tr\u1ea1m y t\u1ebf x\u00e3 Nga Th\u1ee7y"}}, {"type": "node", "id": 4152538490, "lat": 11.0253391, "lon": 106.6312288, "tags": {"amenity": "hospital", "name": "Thu\u1ed1c Nam Th\u1ea7y Thanh"}}, {"type": "node", "id": 4155916937, "lat": 13.0920389, "lon": 103.2028684, "tags": {"amenity": "hospital", "internet_access": "wlan", "name": "Battambang Laboratory", "opening_hours": "Mo-Su 07:00-19:00"}}, {"type": "node", "id": 4162044397, "lat": 16.9920047, "lon": 104.1601071, "tags": {"addr:district:en": "Tao Ngoi", "addr:province:en": "Sakhon Nakhon", "addr:subdistrict:en": "Tao Ngoi", "amenity": "hospital", "emergency": "yes", "healthcare": "hospital", "moph_code": "140100", "name": "\u0e42\u0e23\u0e07\u0e1e\u0e22\u0e32\u0e1a\u0e32\u0e25\u0e40\u0e15\u0e48\u0e32\u0e07\u0e2d\u0e22", "name:en": "Tao Ngoi Hospital", "name:th": "\u0e42\u0e23\u0e07\u0e1e\u0e22\u0e32\u0e1a\u0e32\u0e25\u0e40\u0e15\u0e48\u0e32\u0e07\u0e2d\u0e22", "operator": "Ministry of Public Health"}}, {"type": "node", "id": 4162044401, "lat": 17.0019424, "lon": 103.9660722, "tags": {"addr:district:en": "Phu Phan", "addr:province:en": "Sakhon Nakhon", "addr:subdistrict:en": "Sang Kho", "amenity": "hospital", "emergency": "yes", "moph_code": "180100", "name": "\u0e42\u0e23\u0e07\u0e1e\u0e22\u0e32\u0e1a\u0e32\u0e25\u0e1e\u0e23\u0e30\u0e2d\u0e32\u0e08\u0e32\u0e23\u0e22\u0e4c\u0e41\u0e1a\u0e19 \u0e18\u0e19\u0e32\u0e01\u0e42\u0e23", "name:en": "Pra Ajan Ben Tanakaro", "operator": "Ministry of Public Health"}}, {"type": "node", "id": 4162044408, "lat": 17.0519644, "lon": 104.2665659, "tags": {"addr:district:en": "Khok Sri Supan", "addr:province:en": "Sakhon Nakhon", "amenity": "hospital", "emergency": "yes", "moph_code": "150100", "name:en": "Khok Sri Supan", "operator": "Ministry of Public Health"}}, {"type": "node", "id": 4162044414, "lat": 17.0898833, "lon": 103.8212935, "tags": {"addr:district:en": "Kut Bak", "addr:province:en": "Sakhon Nakhon", "addr:subdistrict:en": "Kut Bak", "amenity": "hospital", "emergency": "yes", "moph_code": "30100", "name:en": "Kut Bak", "operator": "Ministry of Public Health"}}, {"type": "node", "id": 4162044434, "lat": 17.1624801, "lon": 104.1444252, "tags": {"addr:district:en": "Muang", "addr:province:en": "Sakhon Nakhon", "amenity": "hospital", "emergency": "yes", "moph_code": "10107", "name:en": "Rak Sakhon", "operator": "Ministry of Public Health"}}, {"type": "node", "id": 4162044440, "lat": 17.1849437, "lon": 103.7151941, "tags": {"addr:district:en": "Nikhom Nam Un", "addr:province:en": "Sakhon Nakhon", "addr:subdistrict:en": "Nong Pling", "amenity": "hospital", "emergency": "yes", "moph_code": "70100", "name:en": "Nikhom Nam Un", "operator": "Ministry of Public Health"}}, {"type": "node", "id": 4162044441, "lat": 17.1873904, "lon": 104.1057931, "tags": {"addr:district:en": "Muang", "addr:province:en": "Sakhon Nakhon", "amenity": "hospital", "emergency": "yes", "moph_code": "10105", "name:en": "Khai Klit Siwala", "operator": "Ministry of Public Health"}}, {"type": "node", "id": 4162044449, "lat": 17.2215711, "lon": 104.2878378, "tags": {"addr:district:en": "Phon Na Kaeo", "addr:province:en": "Sakhon Nakhon", "addr:subdistrict:en": "Na Tong Wattana", "amenity": "hospital", "emergency": "yes", "moph_code": "170100", "name:en": "Phon Na Kaeo", "operator": "Ministry of Public Health"}}, {"type": "node", "id": 4162044456, "lat": 17.2652709, "lon": 103.6349775, "tags": {"addr:district:en": "Waritchaphum", "addr:province:en": "Sakhon Nakhon", "addr:subdistrict:en": "Waritchaphum", "amenity": "hospital", "emergency": "yes", "moph_code": "60100", "name:en": "Waritchaphum", "operator": "Ministry of Public Health"}}, {"type": "node", "id": 4162044474, "lat": 17.326748, "lon": 104.3095397, "tags": {"addr:district:en": "Kusuman", "addr:province:en": "Sakhon Nakhon", "addr:subdistrict:en": "Kusuman", "amenity": "hospital", "emergency": "yes", "healthcare": "hospital", "moph_code": "20100", "name:en": "Kusuman", "operator": "Ministry of Public Health", "operator:short": "MOPH", "operator:wikidata": "Q5970641"}}, {"type": "node", "id": 4162044481, "lat": 17.3339372, "lon": 103.4775389, "tags": {"addr:district:en": "Song Dao", "addr:province:en": "Sakhon Nakhon", "addr:subdistrict:en": "Song Dao", "amenity": "hospital", "emergency": "yes", "internet_access": "wlan", "moph_code": "130100", "name:en": "Song Dao", "operator": "Ministry of Public Health"}}, {"type": "node", "id": 4162044487, "lat": 17.3524647, "lon": 103.8563811, "tags": {"addr:district:en": "Phanna Nikhom", "addr:province:en": "Sakhon Nakhon", "addr:subdistrict:en": "Phanna Nikhom", "amenity": "hospital", "emergency": "yes", "healthcare": "hospital", "moph_code": "40100", "name": "\u0e42\u0e23\u0e07\u0e1e\u0e22\u0e32\u0e1a\u0e32\u0e25\u0e1e\u0e23\u0e30\u0e2d\u0e32\u0e08\u0e32\u0e23\u0e22\u0e4c\u0e1d\u0e31\u0e49\u0e19", "name:en": "Pra Ajan Phan", "operator": "Ministry of Public Health"}}, {"type": "node", "id": 4162044500, "lat": 17.3937867, "lon": 103.70497, "tags": {"addr:district:en": "Phang Khon", "addr:province:en": "Sakhon Nakhon", "addr:subdistrict:en": "Phang Khon", "amenity": "hospital", "emergency": "yes", "moph_code": "50100", "name": "Phang Khon Hospital", "name:en": "Phang Khon", "operator": "Ministry of Public Health"}}, {"type": "node", "id": 4162044516, "lat": 17.4763083, "lon": 103.4586668, "tags": {"addr:district:en": "Sawang Daen Din", "addr:province:en": "Sakhon Nakhon", "addr:subdistrict:en": "Sawang Daen Din", "amenity": "hospital", "emergency": "yes", "moph_code": "120100", "name:en": "Sawang Daen Din", "operator": "Ministry of Public Health"}}, {"type": "node", "id": 4162044533, "lat": 17.597511, "lon": 103.972608, "tags": {"addr:district:en": "Akat Amnuai", "addr:province:en": "Sakhon Nakhon", "addr:subdistrict:en": "Akat", "amenity": "hospital", "emergency": "yes", "moph_code": "110100", "name:en": "Akat Amnuai", "operator": "Ministry of Public Health"}}, {"type": "node", "id": 4162044538, "lat": 17.6238336, "lon": 103.7502335, "tags": {"addr:district:en": "Wanon Niwat", "addr:province:en": "Sakhon Nakhon", "addr:subdistrict:en": "Wanon Niwat", "amenity": "hospital", "emergency": "yes", "moph_code": "80100", "name:en": "Wanon Niwat", "operator": "Ministry of Public Health"}}, {"type": "node", "id": 4162044567, "lat": 17.8500208, "lon": 103.5699618, "tags": {"addr:district:en": "Ban Muang", "addr:province:en": "Sakhon Nakhon", "addr:subdistrict:en": "Muang", "amenity": "hospital", "emergency": "yes", "moph_code": "100100", "name:en": "Ban Muang", "operator": "Ministry of Public Health"}}, {"type": "node", "id": 4162044569, "lat": 17.8602572, "lon": 103.7667356, "tags": {"addr:district:en": "Kham Ta kla", "addr:province:en": "Sakhon Nakhon", "addr:subdistrict:en": "Kham Ta kla", "amenity": "hospital", "emergency": "yes", "moph_code": "90100", "name:en": "Kham Ta kla", "operator": "Ministry of Public Health"}}, {"type": "node", "id": 4170411182, "lat": 16.3927871, "lon": 104.1536634, "tags": {"amenity": "hospital"}}, {"type": "node", "id": 4173364390, "lat": 18.0221653, "lon": 102.5386808, "tags": {"amenity": "hospital"}}, {"type": "node", "id": 4173895720, "lat": 11.5543528, "lon": 104.9290601, "tags": {"addr:housenumber": "126", "addr:street": "Preah Norodom Blvd (St: 41)", "amenity": "hospital", "healthcare": "hospital", "name": "Praram 9 Hospital Cambodia Office", "opening_hours": "Mo-Sa 08:08-17:08", "phone": "077857788"}}, {"type": "node", "id": 4177484489, "lat": 10.3469598, "lon": 107.0843401, "tags": {"addr:housenumber": "117", "addr:street": "Nam K\u1ef3 Kh\u1edfi Ngh\u0129a", "amenity": "hospital", "name": "Ph\u00f2ng kh\u00e1m BS Ph\u01b0\u1edbc", "opening_hours": "Mo-Su 17:30-20:00"}}, {"type": "node", "id": 4185701590, "lat": 10.3756299, "lon": 106.3259999, "tags": {"amenity": "hospital"}}, {"type": "node", "id": 4185836529, "lat": 11.4843866, "lon": 104.7789814, "tags": {"amenity": "hospital", "name": "\u1796\u17c1\u1791\u17d2\u1799\u1796\u17d2\u1799\u17b6\u1794\u17b6\u179b\u179f\u179f\u17c3"}}, {"type": "node", "id": 4189885801, "lat": 16.3686406, "lon": 104.0544167, "tags": {"amenity": "hospital"}}, {"type": "node", "id": 4190963824, "lat": 13.4210941, "lon": 101.0030811, "tags": {"amenity": "hospital", "name": "\u0e42\u0e23\u0e07\u0e1e\u0e22\u0e32\u0e1a\u0e32\u0e25 \u0e27\u0e34\u0e20\u0e32\u0e23\u0e32\u0e21 \u0e2d\u0e21\u0e15\u0e30\u0e19\u0e04\u0e23"}}, {"type": "node", "id": 4194566940, "lat": 10.747644, "lon": 106.6143869, "tags": {"amenity": "hospital", "healthcare": "hospital", "name": "B\u1ec7nh Vi\u1ec7n Qu\u1ed1c T\u1ebf Minh Anh"}}, {"type": "node", "id": 4223117676, "lat": 13.9148063, "lon": 100.4791146, "tags": {"amenity": "hospital"}}, {"type": "node", "id": 4249860689, "lat": 17.8470406, "lon": 102.5773784, "tags": {"amenity": "hospital", "name": "\u0e42\u0e23\u0e07\u0e1e\u0e23\u0e30\u0e22\u0e32\u0e1a\u0e32\u0e19 \u0e17\u0e48\u0e32\u0e1a\u0e48\u0e2d", "name:en": "Somdet Phra Yuppharat Thabo Hospital", "name:th": "\u0e42\u0e23\u0e07\u0e1e\u0e22\u0e32\u0e1a\u0e32\u0e25\u0e2a\u0e21\u0e40\u0e14\u0e47\u0e08\u0e1e\u0e23\u0e30\u0e22\u0e38\u0e1e\u0e23\u0e32\u0e0a \u0e17\u0e48\u0e32\u0e1a\u0e48\u0e2d"}}, {"type": "node", "id": 4265539889, "lat": 10.7713711, "lon": 106.6909391, "tags": {"addr:housenumber": "100", "addr:street": "L\u00ea Th\u1ecb Ri\u00eang", "amenity": "hospital", "healthcare": "hospital", "name": "B\u1ec7nh Vi\u1ec7n M\u1eaft S\u00e0i G\u00f2n"}}, {"type": "node", "id": 4267508189, "lat": 11.5321691, "lon": 104.8683172, "tags": {"amenity": "hospital", "name": "Ekreach Hospital"}}, {"type": "node", "id": 4267995389, "lat": 16.5813352, "lon": 105.9066551, "tags": {"amenity": "hospital", "name": "Xethamouak hotpital"}},