{"version": 0.6, "generator": "Overpass API 0.7.61.5 4133829e", "osm3s": {"timestamp_osm_base": "2023-10-31T20:52:36Z", "copyright": "The data included in this document is from www.openstreetmap.org. The data is made available under ODbL."}, "elements": [{"type": "node", "id": 501477139, "lat": 10.0945973, "lon": 12.0556786, "tags": {"LGA": "Shani", "alt_name": "Feshingo", "amenity": "hospital", "category": "Primary Health Clinic", "healthcare": "hospital", "name": "Mijuwana Health Clinic", "ownership": "State Ministry Of Health", "type": "Primary", "ward": "Gwalasho"}}, {"type": "node", "id": 501493061, "lat": 12.2243933, "lon": 14.2795647, "tags": {"LGA": "Ngala", "amenity": "hospital", "category": "Primary Health Clinic", "healthcare": "hospital", "name": "Ndufu MCH Clinic", "ownership": "public", "type": "Primary", "ward": "Ndufu"}}, {"type": "node", "id": 501526318, "lat": 10.5533725, "lon": 13.0983415, "tags": {"GNS:dsg_code": "PPL", "GNS:dsg_string": "populated place", "GNS:id": "10183022", "amenity": "hospital", "fixme": "no population estimate available, defaulted to village", "healthcare": "hospital", "is_in:country": "Nigeria", "name": "Kofin", "source": "GNS"}}, {"type": "node", "id": 3056973340, "lat": 11.9627608, "lon": 10.4452219, "tags": {"addr:district": "Gamawa", "addr:full": "Gadiya, Gamawa, Bauchi", "addr:municipality": "Gadiya", "addr:state": "Bauchi", "amenity": "hospital", "health_facility:type": "dispensary", "name": "Gadiya Dispensary", "operator:type": "public", "source": "ehealthafrica.org", "source:date": "2013"}}, {"type": "node", "id": 3056975106, "lat": 11.9635516, "lon": 10.6978086, "tags": {"addr:district": "Gamawa", "addr:full": "Udubo Central, Gamawa, Bauchi", "addr:municipality": "Udubo Central", "addr:state": "Bauchi", "amenity": "hospital", "health_facility:type": "dispensary", "name": "Kesa Dispensary", "operator:type": "public", "source": "ehealthafrica.org", "source:date": "2014"}}, {"type": "node", "id": 3056988919, "lat": 12.1391779, "lon": 10.5316951, "tags": {"addr:district": "Gamawa", "addr:full": "Gamawa North, Gamawa, Bauchi", "addr:municipality": "Gamawa North", "addr:state": "Bauchi", "amenity": "hospital", "health_facility:type": "hospital", "name": "General Hospital Gamawa", "operator:type": "public", "source": "ehealthafrica.org", "source:date": "2013"}}, {"type": "node", "id": 3056994467, "lat": 12.2062922, "lon": 10.1999516, "tags": {"addr:district": "Zaki", "addr:full": "Makawa, Zaki, Bauchi", "addr:municipality": "Makawa", "addr:state": "Bauchi", "amenity": "hospital", "health_facility:type": "dispensary", "name": "Makawa Dispensary", "operator:type": "public", "source": "ehealthafrica.org", "source:date": "2013"}}, {"type": "node", "id": 3057450368, "lat": 11.5762749, "lon": 10.9179788, "tags": {"addr:district": "Damban", "addr:full": "Janda, Damban, Bauchi", "addr:municipality": "Janda", "addr:state": "Bauchi", "amenity": "hospital", "health_facility:type": "dispensary", "name": "Dorawa Dispensary", "operator:type": "public", "source": "ehealthafrica.org", "source:date": "2013"}}, {"type": "node", "id": 3059336157, "lat": 11.4933332, "lon": 10.6625371, "tags": {"addr:district": "Misau", "addr:full": "Sarma, Misau, Bauchi", "addr:municipality": "Sarma", "addr:state": "Bauchi", "amenity": "hospital", "health_facility:type": "dispensary", "name": "Kafin Zaka Dispensary", "operator:type": "public", "source": "ehealthafrica.org", "source:date": "2013"}}, {"type": "node", "id": 3059336166, "lat": 11.4773166, "lon": 10.6712016, "tags": {"addr:district": "Misau", "addr:full": "Sarma, Misau, Bauchi", "addr:municipality": "Sarma", "addr:state": "Bauchi", "amenity": "hospital", "health_facility:type": "dispensary", "name": "Yelwa Sarman Dispensary", "operator:type": "public", "source": "ehealthafrica.org", "source:date": "2013"}}, {"type": "node", "id": 3059447551, "lat": 11.453656, "lon": 10.8977585, "tags": {"addr:district": "Damban", "addr:full": "Janda, Damban, Bauchi", "addr:municipality": "Janda", "addr:state": "Bauchi", "amenity": "hospital", "health_facility:type": "dispensary", "name": "G/Jarma", "operator:type": "public", "source": "ehealthafrica.org", "source:date": "2013"}}, {"type": "node", "id": 3059456322, "lat": 11.1884837, "lon": 10.9348249, "tags": {"addr:district": "Darazo", "addr:full": "Papa South, Darazo, Bauchi", "addr:municipality": "Papa South", "addr:state": "Bauchi", "amenity": "hospital", "health_facility:type": "dispensary", "name": "Makafiya Dispensary", "operator:type": "public", "source": "ehealthafrica.org", "source:date": "2013"}}, {"type": "node", "id": 3081661783, "lat": 10.2602242, "lon": 10.3008603, "tags": {"addr:district": "Alkaleri", "addr:full": "Alkaleri West, Alkaleri, Bauchi", "addr:municipality": "Alkaleri West", "addr:state": "Bauchi", "alt_name": "Galen Duguri HC - Gangar Dispensary", "amenity": "hospital", "health_facility:type": "health_centre", "name": "Bakin Kogi Model Primary Health Center", "operator:type": "public", "source": "ehealthafrica.org", "source:date": "2013"}}, {"type": "node", "id": 3081661785, "lat": 10.2713632, "lon": 10.3329598, "tags": {"addr:district": "Alkaleri", "addr:full": "Alkaleri East, Alkaleri, Bauchi", "addr:municipality": "Alkaleri East", "addr:state": "Bauchi", "alt_name": "Kunzun Health Post", "amenity": "hospital", "health_facility:type": "dispensary", "name": "Bojos Dispensary", "operator:type": "public", "source": "ehealthafrica.org", "source:date": "2013"}}, {"type": "node", "id": 3081661788, "lat": 10.2610311, "lon": 10.3005274, "tags": {"addr:district": "Alkaleri", "addr:full": "Alkaleri West, Alkaleri, Bauchi", "addr:municipality": "Alkaleri West", "addr:state": "Bauchi", "alt_name": "Badaram Dutsi", "amenity": "hospital", "health_facility:type": "dispensary", "name": "Guruntun Dispensary", "operator:type": "public", "source": "ehealthafrica.org", "source:date": "2013"}}, {"type": "node", "id": 3081661793, "lat": 10.271841, "lon": 10.334689, "tags": {"addr:district": "Alkaleri", "addr:full": "Alkaleri East, Alkaleri, Bauchi", "addr:municipality": "Alkaleri East", "addr:state": "Bauchi", "amenity": "hospital", "health_facility:type": "dispensary", "name": "Maimadi Health Center", "operator:type": "public", "source": "ehealthafrica.org", "source:date": "2013"}}, {"type": "node", "id": 3081661794, "lat": 10.2724877, "lon": 10.3417321, "tags": {"addr:district": "Alkaleri", "addr:full": "Alkaleri East, Alkaleri, Bauchi", "addr:municipality": "Alkaleri East", "addr:state": "Bauchi", "amenity": "hospital", "health_facility:type": "dispensary", "name": "Mari-ari Health Center", "operator:type": "public", "source": "ehealthafrica.org", "source:date": "2013"}}, {"type": "node", "id": 3244752178, "lat": 12.1188953, "lon": 15.0945554, "tags": {"addr:city": "\u0627\u0646\u062c\u0645\u064a\u0646\u0627", "amenity": "hospital", "healthcare": "hospital", "name": "Centre Medical SOS \u0627\u0644\u0645\u0631\u0643\u0632 \u0627\u0644\u0637\u0628\u064a \u0625\u0633 \u0623\u0648 \u0625\u0633", "name:ar": "\u0627\u0644\u0645\u0631\u0643\u0632 \u0627\u0644\u0637\u0628\u064a \u0625\u0633 \u0623\u0648 \u0625\u0633", "name:fr": "Centre Medical SOS", "operator": "\u0642\u0631\u0649 \u0627\u0644\u0623\u0637\u0641\u0627\u0644 \u0625\u0633 \u0623\u0648 \u0625\u0633"}}, {"type": "node", "id": 3244752179, "lat": 12.1214576, "lon": 15.0943468, "tags": {"addr:city": "\u0627\u0646\u062c\u0645\u064a\u0646\u0627", "amenity": "hospital", "healthcare": "hospital", "name": "Centre de sant\u00e9 de N'Djari \u0645\u0631\u0643\u0632 \u0627\u0644\u0635\u062d\u0629 \u0646\u062c\u064a\u0631", "name:ar": "\u0645\u0631\u0643\u0632 \u0627\u0644\u0635\u062d\u0629 \u0646\u062c\u064a\u0631", "name:fr": "Centre de sant\u00e9 de N'Djari"}}, {"type": "node", "id": 3420600738, "lat": 10.2598468, "lon": 11.8721451, "tags": {"LGA": "Shani", "alt_name": "Jauro Baba Wuro Dispensary", "amenity": "hospital", "category": "Health Post", "healthcare": "hospital", "name": "Jauro Baba Wuro Dispensary", "ownership": "public", "source": "ehealthafrica.org", "type": "primary", "ward": "Walama"}}, {"type": "node", "id": 3445317996, "lat": 11.7938062, "lon": 13.1822518, "tags": {"amenity": "hospital", "healthcare": "hospital", "name": "Ajajari camp", "source": "ehealthafrica.org"}}, {"type": "node", "id": 3459909008, "lat": 10.3037257, "lon": 11.8908256, "tags": {"LGA": "Shani", "amenity": "hospital", "category": "Health Post", "healthcare": "hospital", "name": "Kwahara Dispensary", "operator:type": "primary", "ownership": "public", "ward": "Walama"}}, {"type": "node", "id": 3459909010, "lat": 10.1746826, "lon": 11.8084717, "tags": {"LGA": "Shani", "amenity": "hospital", "healthcare": "hospital", "name": "Pahra Clinic", "ownership": "others", "type": "Primary", "ward": "Gasi"}}, {"type": "node", "id": 3471389404, "lat": 11.5090791, "lon": 12.5141163, "tags": {"LGA": "Kaga", "addr:full": "Galangi, Galangi, Kaga, BO", "amenity": "hospital", "disease:malaria": "yes", "health_facility:type": "health_centre", "health_service:prevention:vaccination": "no", "health_specialty:emergency_medicine": "yes", "health_specialty:obstetrics:antenatal": "no", "health_specialty:obstetrics:caesarean_section": "no", "health_specialty:obstetrics:postnatal": "no", "health_specialty:paediatrics": "yes", "health_specialty:social_paediatrics": "no", "health_specialty:tropical_medicine": "partial", "healthcare": "hospital", "medical_system:western": "yes", "name": "Galangi Primary Health Centre", "operator:type": "public", "ownership": "primary health center", "power_supply": "no", "source": "ehealthafrica.org", "source:date": "2012-05-02", "staff_count:doctors": "0", "staff_count:nurses": "0", "ward": "Galangi"}}, {"type": "node", "id": 3618567331, "lat": 10.0363159, "lon": 11.8601074, "tags": {"LGA": "Shani", "amenity": "hospital", "category": "Health Post", "healthcare": "hospital", "name": "Kareji Health Post", "ownership": "State Primary HealthCare Development Agency", "type": "Primary", "ward": "Kombo"}}, {"type": "node", "id": 3618567336, "lat": 10.0636391, "lon": 11.8318252, "tags": {"LGA": "Shani", "amenity": "hospital", "category": "Health Post", "healthcare": "hospital", "name": "Pilak Health Post Kombo Shani", "ownership": "public", "type": "Primary", "ward": "Kombo"}}, {"type": "node", "id": 3627501296, "lat": 10.3163943, "lon": 11.9432676, "tags": {"LGA": "Shani", "alt_name": "Bidam Dispensary", "amenity": "hospital", "category": "Health Post", "healthcare": "hospital", "name": "Nahuta Dispensary", "ownership": "State Primary HealthCare Development Agency", "type": "primary", "ward": "Walama"}}, {"type": "node", "id": 3645296629, "lat": 10.1387948, "lon": 12.0362112, "tags": {"LGA": "Shani", "amenity": "hospital", "category": "Health Post", "healthcare": "hospital", "name": "Bakaina Dispensary", "ownership": "public", "type": "Primary", "ward": "Shani"}}, {"type": "node", "id": 3645296631, "lat": 10.1078415, "lon": 12.0306517, "tags": {"LGA": "Shani", "amenity": "hospital", "category": "Primary Health Center", "healthcare": "hospital", "name": "Kubo Comprehensive Health Center", "ownership": "public", "type": "Primary", "ward": "Kubo"}}, {"type": "node", "id": 3645336773, "lat": 10.1826038, "lon": 11.9604783, "tags": {"LGA": "Shani", "amenity": "hospital", "category": "Health Post", "healthcare": "hospital", "name": "Lakundum Dispensary", "ownership": "public", "type": "Primary", "ward": "Lakundum"}}, {"type": "node", "id": 3645336781, "lat": 10.2180786, "lon": 12.0646973, "tags": {"LGA": "Shani", "amenity": "hospital", "category": "Primary Health Clinic", "healthcare": "hospital", "name": "Shani MCH Clinic", "ownership": "other", "type": "primary", "ward": "Shani"}}, {"type": "node", "id": 3645336785, "lat": 10.18618, "lon": 12.0079523, "tags": {"LGA": "Shani", "amenity": "hospital", "category": "Health Post", "healthcare": "hospital", "name": "Wunje Dispensary", "ownership": "public", "type": "Primary", "ward": "Shani"}}, {"type": "node", "id": 3657435047, "lat": 13.0949097, "lon": 13.8146973, "tags": {"addr:full": "Mission Side, Mission Side, Kukawa, BO", "amenity": "hospital", "disease:malaria": "yes", "health_facility:type": "clinic", "health_service:prevention:vaccination": "unknown", "health_specialty:emergency_medicine": "no", "health_specialty:obstetrics:antenatal": "yes", "health_specialty:obstetrics:caesarean_section": "no", "health_specialty:obstetrics:postnatal": "yes", "health_specialty:paediatrics": "unknown", "health_specialty:social_paediatrics": "yes", "health_specialty:tropical_medicine": "partial", "healthcare": "hospital", "medical_system:western": "yes", "name": "Cocin Rural Health Programme", "power_supply": "unknown", "source": "ehealthafrica.org", "source:date": "2012-05-01", "staff_count:doctors": "1", "staff_count:nurses": "1"}}, {"type": "node", "id": 3660342604, "lat": 11.906311, "lon": 12.5543213, "tags": {"addr:district": "Kaga", "addr:full": "Karagawaru, Karagawaru, Kaga, BO", "addr:ward": "Karagawaru", "amenity": "hospital", "category": "health post", "disease:malaria": "no", "health_facility:type": "office", "health_service:prevention:vaccination": "no", "health_specialty:emergency_medicine": "no", "health_specialty:obstetrics:antenatal": "no", "health_specialty:obstetrics:caesarean_section": "no", "health_specialty:obstetrics:postnatal": "no", "health_specialty:paediatrics": "yes", "health_specialty:social_paediatrics": "no", "health_specialty:tropical_medicine": "no", "healthcare": "hospital", "medical_system:western": "yes", "name": "Karagawaru Dispensary", "operator:type": "public", "power_supply": "no", "source": "ehealthafrica.org", "source:date": "2012-05-01", "staff_count:doctors": "unknown", "staff_count:nurses": "1"}}, {"type": "node", "id": 3660417435, "lat": 11.6011499, "lon": 12.4053139, "tags": {"addr:district": "Kaga", "addr:full": "Burguma, Burguma Wajuru, Kaga, BO", "addr:ward": "Wajiro", "amenity": "hospital", "category": "health post", "disease:malaria": "no", "health_facility:type": "office", "health_service:prevention:vaccination": "no", "health_specialty:emergency_medicine": "no", "health_specialty:obstetrics:antenatal": "no", "health_specialty:obstetrics:caesarean_section": "no", "health_specialty:obstetrics:postnatal": "no", "health_specialty:paediatrics": "no", "health_specialty:social_paediatrics": "no", "health_specialty:tropical_medicine": "no", "healthcare": "doctor", "medical_system:western": "yes", "name": "Burguma Dispensary", "operator:type": "public", "power_supply": "no", "source": "ehealthafrica.org", "source:date": "2012-05-02", "staff_count:doctors": "0", "staff_count:nurses": "0"}}, {"type": "node", "id": 3660417436, "lat": 11.5755005, "lon": 12.4495239, "tags": {"addr:district": "Kaga", "addr:full": "Dongo, Dongo, Kaga, BO", "addr:ward": "Dongo", "amenity": "hospital", "disease:malaria": "no", "fixme": "location approximate", "health_facility:type": "office", "health_service:prevention:vaccination": "no", "health_specialty:emergency_medicine": "no", "health_specialty:obstetrics:antenatal": "no", "health_specialty:obstetrics:caesarean_section": "no", "health_specialty:obstetrics:postnatal": "no", "health_specialty:paediatrics": "no", "healthcare": "hospital", "name": "Dongo Health Center", "operator:type": "Public"}}, {"type": "node", "id": 3660417437, "lat": 11.6248779, "lon": 12.5300903, "tags": {"LGA": "Kaga", "addr:full": "Guwo Laanti, Guwo, Kaga, BO", "amenity": "hospital", "disease:malaria": "no", "health_facility:type": "office", "health_service:prevention:vaccination": "no", "health_specialty:emergency_medicine": "no", "health_specialty:obstetrics:antenatal": "no", "health_specialty:obstetrics:caesarean_section": "no", "health_specialty:obstetrics:postnatal": "no", "health_specialty:paediatrics": "no", "health_specialty:social_paediatrics": "no", "health_specialty:tropical_medicine": "no", "healthcare": "doctor", "medical_system:western": "yes", "name": "Guwo Laanti Dispensary", "operator:type": "public", "ownership": "public", "power_supply": "no", "source": "ehealthafrica.org", "source:date": "2012-05-02", "staff_count:doctors": "unknown", "staff_count:nurses": "0", "ward": "Guwo"}}, {"type": "node", "id": 3660417439, "lat": 11.7783373, "lon": 12.3924141, "tags": {"addr:district": "Kaga", "addr:full": "Makintakururi, Wajiro. Bugurmma, Kaga, BO", "addr:ward": "Wajiro", "amenity": "hospital", "category": "Primary Health Center", "disease:malaria": "yes", "health_facility:type": "office", "health_service:prevention:vaccination": "no", "health_specialty:emergency_medicine": "no", "health_specialty:obstetrics:antenatal": "yes", "health_specialty:obstetrics:caesarean_section": "no", "health_specialty:obstetrics:postnatal": "yes", "health_specialty:paediatrics": "yes", "health_specialty:social_paediatrics": "yes", "health_specialty:tropical_medicine": "partial", "healthcare": "doctor", "medical_system:western": "yes", "name": "Makintakururi Clinic", "operator:type": "public", "power_supply": "no", "source": "ehealthafrica.org", "source:date": "2012-05-02", "staff_count:doctors": "0", "staff_count:nurses": "0"}}, {"type": "node", "id": 3660417440, "lat": 11.6937256, "lon": 12.5842896, "tags": {"addr:district": "Kaga", "addr:full": "Marguba, Marguba, Kaga, BO", "addr:ward": "Marguba", "amenity": "hospital", "disease:malaria": "yes", "health_facility:type": "health_centre", "health_service:prevention:vaccination": "no", "health_specialty:emergency_medicine": "no", "health_specialty:obstetrics:antenatal": "no", "health_specialty:obstetrics:caesarean_section": "no", "health_specialty:obstetrics:postnatal": "no", "health_specialty:paediatrics": "no", "health_specialty:social_paediatrics": "no", "health_specialty:tropical_medicine": "partial", "healthcare": "hospital", "medical_system:western": "yes", "name": "Marguba Primary Health Centre", "operator:type": "public", "power_supply": "no", "source": "ehealthafrica.org", "source:date": "2012-05-01", "staff_count:doctors": "0", "staff_count:nurses": "0"}}, {"type": "node", "id": 3660417444, "lat": 11.5567727, "lon": 12.5496362, "tags": {"addr:district": "Kaga", "addr:full": "Tobolo, Tobolo, Kaga, BO", "addr:ward": "Tobolo", "amenity": "hospital", "category": "Primary Health clinic", "disease:malaria": "no", "health_facility:type": "office", "health_service:prevention:vaccination": "no", "health_specialty:emergency_medicine": "no", "health_specialty:obstetrics:antenatal": "yes", "health_specialty:obstetrics:caesarean_section": "no", "health_specialty:obstetrics:postnatal": "yes", "health_specialty:paediatrics": "yes", "health_specialty:social_paediatrics": "no", "health_specialty:tropical_medicine": "no", "healthcare": "doctor", "medical_system:western": "yes", "name": "Tobolo Health Clinic", "operator:type": "public", "power_supply": "no", "source": "ehealthafrica.org", "source:date": "2012-05-01", "staff_count:doctors": "0", "staff_count:nurses": "0"}}, {"type": "node", "id": 3660417445, "lat": 11.6325904, "lon": 12.321991, "tags": {"addr:district": "Kaga", "addr:full": "Wasaram, Wasaram, Kaga, BO", "addr:ward": "Wassaram", "amenity": "hospital", "category": "health Post", "disease:malaria": "yes", "health_facility:type": "office", "health_service:prevention:vaccination": "no", "health_specialty:emergency_medicine": "no", "health_specialty:obstetrics:antenatal": "yes", "health_specialty:obstetrics:caesarean_section": "no", "health_specialty:obstetrics:postnatal": "no", "health_specialty:paediatrics": "yes", "health_specialty:social_paediatrics": "yes", "health_specialty:tropical_medicine": "partial", "healthcare": "hospital", "medical_system:western": "yes", "name": "Wasaram Clinic", "operator:type": "public", "power_supply": "no", "source": "ehealthafrica.org", "source:date": "2011-01-07", "staff_count:doctors": "0", "staff_count:nurses": "0"}}, {"type": "node", "id": 3663693347, "lat": 11.7982788, "lon": 13.1422729, "tags": {"addr:full": "Saltilmari, Maisandari, Maiduguri, BO", "amenity": "hospital", "disease:malaria": "yes", "health_facility:type": "hospital", "health_service:prevention:vaccination": "unknown", "health_specialty:emergency_medicine": "yes", "health_specialty:obstetrics:antenatal": "yes", "health_specialty:obstetrics:caesarean_section": "yes", "health_specialty:obstetrics:postnatal": "yes", "health_specialty:paediatrics": "unknown", "health_specialty:social_paediatrics": "yes", "health_specialty:tropical_medicine": "partial", "medical_system:western": "yes", "name": "Atla Medical Centre", "operator:type": "unknown", "power_supply": "unknown", "source": "ehealthafrica.org", "source:date": "2012-09-08", "staff_count:doctors": "3", "staff_count:nurses": "6"}}, {"type": "node", "id": 3667918155, "lat": 10.6654251, "lon": 11.7760086, "tags": {"addr:full": "Nyawi, Zara, Bayo, BO", "amenity": "hospital", "disease:malaria": "yes", "health_facility:type": "dispensary", "health_service:prevention:vaccination": "no", "health_specialty:emergency_medicine": "no", "health_specialty:obstetrics:antenatal": "no", "health_specialty:obstetrics:caesarean_section": "no", "health_specialty:obstetrics:postnatal": "no", "health_specialty:paediatrics": "yes", "health_specialty:social_paediatrics": "no", "health_specialty:tropical_medicine": "partial", "healthcare": "hospital", "medical_system:western": "yes", "name": "Nyawi Dispensary", "operator:type": "public", "power_supply": "no", "source": "ehealthafrica.org", "source:date": "2014-02-28", "staff_count:doctors": "0", "staff_count:nurses": "0"}}, {"type": "node", "id": 3682997512, "lat": 11.388548, "lon": 12.7233215, "tags": {"addr:district": "Kaga", "addr:full": "Yajiwa, Yajiwa, Konduga, BO", "addr:ward": "Fai", "amenity": "hospital", "disease:malaria": "no", "health_facility:type": "office", "health_service:prevention:vaccination": "no", "health_specialty:emergency_medicine": "no", "health_specialty:obstetrics:antenatal": "no", "health_specialty:obstetrics:caesarean_section": "no", "health_specialty:obstetrics:postnatal": "no", "health_specialty:paediatrics": "no", "health_specialty:social_paediatrics": "no", "health_specialty:tropical_medicine": "no", "healthcare": "doctor", "medical_system:western": "yes", "name": "Yajiwa Health Clinic", "operator:type": "public", "power_supply": "no", "source": "ehealthafrica.org", "source:date": "2012-05-03", "staff_count:doctors": "0", "staff_count:nurses": "0"}}, {"type": "node", "id": 3799086772, "lat": 12.3788478, "lon": 17.0600453, "tags": {"addr:city": "\u0628\u0648\u0643\u0648\u0631\u0648", "amenity": "hospital", "name": "\u0645\u0633\u062a\u0634\u0641\u0649 \u0628\u0648\u0643\u0648\u0631\u0648", "name:ar": "\u0645\u0633\u062a\u0634\u0641\u0649 \u0628\u0648\u0643\u0648\u0631\u0648", "name:en": "Bokoro Hospital"}}, {"type": "node", "id": 4034475096, "lat": 13.5428193, "lon": 14.3119636, "tags": {"amenity": "hospital"}}, {"type": "node", "id": 4034475097, "lat": 13.6431708, "lon": 15.3686997, "tags": {"amenity": "hospital"}}, {"type": "node", "id": 4116333290, "lat": 12.111048, "lon": 15.0500326, "tags": {"addr:city": "\u0627\u0646\u062c\u0645\u064a\u0646\u0627", "amenity": "hospital", "name": "Centre de sant\u00e9 Roi Faycal - \u0645\u0631\u0643\u0632 \u0627\u0644\u0645\u0644\u0643 \u0641\u064a\u0635\u0644 \u0627\u0644\u0635\u062d\u064a"}}, {"type": "node", "id": 4132799889, "lat": 12.1041357, "lon": 15.0590744, "tags": {"amenity": "hospital", "healthcare": "hospital", "name": "Centre de sant\u00e9 Ardep Djoumal"}}, {"type": "node", "id": 4146738591, "lat": 12.1147253, "lon": 15.0435416, "tags": {"amenity": "hospital", "name": "Centre de sant\u00e9 Bololo"}}, {"type": "node", "id": 4362811992, "lat": 12.0958775, "lon": 15.137964, "tags": {"amenity": "hospital", "name": "Clinique le Samaritain"}}, {"type": "node", "id": 4366969166, "lat": 13.5398697, "lon": 14.3088167, "tags": {"amenity": "hospital", "name": "Centre de Sant\u00e9 de Bagassola"}}, {"type": "node", "id": 4395316590, "lat": 12.3050828, "lon": 14.5861861, "tags": {"amenity": "hospital", "name": "Refugies Camp", "name:en": "Refugies Camp", "name:fr": "Camp de R\u00e9fugi\u00e9s"}}, {"type": "node", "id": 4395367790, "lat": 12.2401005, "lon": 14.6426645, "tags": {"addr:housenumber": "100", "addr:postcode": "00237", "addr:street": "Afade Bodo", "amenity": "hospital", "name": "Refugies Camp, Afade", "name:en": "Refugies Camp, Afade", "name:fr": "Camp de R\u00e9fugi\u00e9s, Afade"}}, {"type": "node", "id": 4462355156, "lat": 13.3854499, "lon": 11.9748638, "tags": {"amenity": "hospital", "name": "CSI Nayi Lawan"}}, {"type": "node", "id": 4506209402, "lat": 13.1380818, "lon": 16.7794102, "tags": {"amenity": "hospital"}}, {"type": "node", "id": 4506216028, "lat": 12.4990946, "lon": 16.6001737, "tags": {"amenity": "hospital"}}, {"type": "node", "id": 4517221036, "lat": 10.8043813, "lon": 12.7504599, "tags": {"addr:city": "Korongilum", "addr:housenumber": "12", "addr:street": "chibok gar", "amenity": "hospital", "emergency": "yes", "name": "chibok clinic", "operator": "ali sabo"}}, {"type": "node", "id": 4565079791, "lat": 13.5705992, "lon": 15.4057119, "tags": {"amenity": "hospital", "name": "H\u00f4pital de Kindjiria", "name:fr": "H\u00f4pital de Kindjiria", "phone": "+23590356001"}}, {"type": "node", "id": 4618858184, "lat": 13.2152795, "lon": 12.0240235, "tags": {"amenity": "hospital"}}, {"type": "node", "id": 4643887491, "lat": 12.1061433, "lon": 15.0501244, "tags": {"amenity": "hospital", "healthcare": "hospital", "name": "Centre de sant\u00e9 Polyclinique", "name:fr": "Centre de sant\u00e9 Polyclinique"}}, {"type": "node", "id": 4762059526, "lat": 10.5878304, "lon": 14.323368, "tags": {"amenity": "hospital", "name": "Plg", "name:fr": "Plg"}}, {"type": "node", "id": 4871898422, "lat": 12.1072864, "lon": 15.0768831, "tags": {"amenity": "hospital", "healthcare": "hospital", "name": "Centre National de Traitement des Fistules", "name:fr": "Centre National de Traitement des Fistules"}}, {"type": "node", "id": 5158937121, "lat": 13.2676143, "lon": 12.4893433, "tags": {"amenity": "hospital", "name": "CSI Boudouri"}}, {"type": "node", "id": 5363014523, "lat": 12.0949133, "lon": 15.0845638, "tags": {"addr:city": "N'Djam\u00e9na", "addr:city:ar": "\u0627\u0646\u062c\u0645\u064a\u0646\u0627", "addr:city:fr": "N'Djam\u00e9na", "amenity": "hospital", "healthcare": "hospital", "name": "H\u00f4pital de l'Union", "name:ar": "\u0645\u0633\u062a\u0634\u0641\u0649 \u0627\u0644\u0627\u062a\u062d\u0627\u062f", "name:fr": "H\u00f4pital de l'Union"}}, {"type": "node", "id": 5363014589, "lat": 12.1651131, "lon": 15.0578026, "tags": {"amenity": "hospital", "healthcare": "hospital", "name": "H\u00f4pital de Gozator"}}, {"type": "node", "id": 5377142521, "lat": 13.5130294, "lon": 14.691473, "tags": {"amenity": "hospital", "healthcare": "hospital"}}, {"type": "node", "id": 5547354063, "lat": 11.5941147, "lon": 13.5803789, "tags": {"amenity": "hospital", "healthcare": "hospital"}}, {"type": "node", "id": 5604725466, "lat": 11.8347793, "lon": 13.087655, "tags": {"amenity": "hospital", "healthcare": "hospital"}}, {"type": "node", "id": 5618555177, "lat": 17.9363697, "lon": 19.1127207, "tags": {"amenity": "hospital", "diet:halal": "yes", "healthcare": "hospital", "language:ar": "main", "name": "\u0645\u0633\u062a\u0634\u0641\u0649 \u0641\u0627\u064a\u0627", "name:ar": "\u0645\u0633\u062a\u0634\u0641\u0649 \u0641\u0627\u064a\u0627", "name:fr": "Ancien Hopital de faya"}}, {"type": "node", "id": 5913596891, "lat": 11.8251734, "lon": 13.1826716, "tags": {"addr:district": "Jere", "addr:state": "Borno", "addr:ward": "Maimusari", "amenity": "hospital", "health_specialty:covid19_isolation_centre": "yes", "healthcare": "hospital", "name": "University of Maiduguri Teaching Hospital"}}, {"type": "node", "id": 6282359886, "lat": 13.6511682, "lon": 16.4984603, "tags": {"amenity": "hospital", "name": "H\u00f4pital Provincial de Moussoro"}}, {"type": "node", "id": 6304395285, "lat": 13.2703315, "lon": 16.4174716, "tags": {"amenity": "hospital", "name": "Centre de Sant\u00e9 de Kamkalaga"}}, {"type": "node", "id": 6513497987, "lat": 11.0695449, "lon": 11.7942215, "tags": {"amenity": "hospital", "name": "Bularaba HEALTH CURE"}}, {"type": "node", "id": 6646425189, "lat": 17.9217654, "lon": 19.097503, "tags": {"amenity": "hospital", "healthcare": "hospital", "name": "Centre de Sant\u00e9", "name:ar": "\u0645\u0631\u0643\u0632 \u0627\u0644\u0635\u062d\u0629", "name:es": "Centro de Salud"}}, {"type": "node", "id": 6681609888, "lat": 12.8684693, "lon": 15.2797814, "tags": {"amenity": "hospital", "name": "Centre de sant\u00e9 de Tourba"}}, {"type": "node", "id": 6681764785, "lat": 12.850905, "lon": 14.9712883, "tags": {"amenity": "hospital", "name": "Centre de Sante d'Alkouk"}}, {"type": "node", "id": 6684332085, "lat": 12.7746263, "lon": 15.3017464, "tags": {"amenity": "hospital", "name": "Centre de sant\u00e9 de Boutcham/Tamadaye"}}, {"type": "node", "id": 6694827786, "lat": 12.9056741, "lon": 14.8389379, "tags": {"amenity": "hospital", "healthcare": "hospital", "healthcare:speciality": "general", "name": "Centre de sant\u00e9 de Baltram"}}, {"type": "node", "id": 6695229586, "lat": 13.0141005, "lon": 14.9661899, "tags": {"amenity": "hospital", "name": "Centre de sant\u00e9 de Sidje"}}, {"type": "node", "id": 6695250385, "lat": 13.7069655, "lon": 15.4357337, "tags": {"amenity": "hospital", "name": "Centre de sant\u00e9 de Tonkou", "name:fr": "Centre de Sant\u00e9 de Tonkou"}}, {"type": "node", "id": 6695250486, "lat": 12.9578142, "lon": 15.0666262, "tags": {"amenity": "hospital", "healthcare": "hospital", "name": "Centre de Sant\u00e9 de Gredaya"}}, {"type": "node", "id": 6996454687, "lat": 12.1125169, "lon": 15.1026672, "tags": {"amenity": "hospital", "healthcare": "hospital", "name": "Ordre de Malte"}}, {"type": "node", "id": 7188576894, "lat": 12.9929826, "lon": 15.7323248, "tags": {"amenity": "hospital", "name": "Hospital district de Massakory", "opening_hours": "Mo-Su 07:00-15:00"}}, {"type": "node", "id": 7301661486, "lat": 10.2987456, "lon": 11.1467868, "tags": {"amenity": "hospital", "name": "Metro hospital"}}, {"type": "node", "id": 7325758686, "lat": 14.2583304, "lon": 15.5573499, "tags": {"amenity": "hospital", "internet_access": "wlan", "name": "Centre de Sant\u00e9 de Melleah"}}, {"type": "node", "id": 7325758687, "lat": 14.2583082, "lon": 15.5573479, "tags": {"alt_name": "Centre de Sant\u00e9 de M\u00e9lea", "amenity": "hospital", "internet_access": "wlan", "name": "Centre de Sant\u00e9 de Mellah"}}, {"type": "node", "id": 7325758786, "lat": 13.8423909, "lon": 14.8385094, "tags": {"amenity": "hospital", "name": "Hopital de Kekedina"}}, {"type": "node", "id": 7326206586, "lat": 10.2766414, "lon": 11.2877361, "tags": {"amenity": "hospital", "healthcare": "hospital", "name": "Primary Health Care Kwadom"}}, {"type": "node", "id": 7330192556, "lat": 11.9233391, "lon": 13.188293, "tags": {"amenity": "hospital", "healthcare": "hospital", "name": "Gongulong Camp IDP Camp"}}, {"type": "node", "id": 7331675885, "lat": 10.2933468, "lon": 11.1815047, "tags": {"amenity": "hospital", "healthcare": "hospital", "name": "IDi maternity Clinic"}}, {"type": "node", "id": 7345602887, "lat": 10.2882472, "lon": 11.1820574, "tags": {"amenity": "hospital", "name": "DOMA HOSPITAL GOMBE"}}, {"type": "node", "id": 7366823118, "lat": 11.7887074, "lon": 13.1306148, "tags": {"amenity": "hospital", "healthcare": "hospital", "name": "Yajiwa Camp Kusheri Refugee Site"}}, {"type": "node", "id": 7366908696, "lat": 11.7877503, "lon": 13.1312571, "tags": {"amenity": "hospital", "healthcare": "hospital", "name": "Mufa A"}}, {"type": "node", "id": 7369198824, "lat": 12.132081, "lon": 15.0767331, "tags": {"addr:city": "\u0627\u0646\u062c\u0645\u064a\u0646\u0627", "amenity": "hospital", "designation": "Hopitale Chinois", "emergency": "yes", "name": "Hopital CHINOIS \u0627\u0644\u0645\u0633\u062a\u0634\u0641\u0649 \u0627\u0644\u0635\u064a\u0646\u064a", "name:ar": "\u0627\u0644\u0645\u0633\u062a\u0634\u0641\u0649 \u0627\u0644\u0635\u064a\u0646\u064a", "name:fr": "H\u00f4pital de la libert\u00e9", "source": "bing"}}, {"type": "node", "id": 7379008027, "lat": 11.867364, "lon": 13.2505531, "tags": {"amenity": "hospital", "healthcare": "hospital", "name": "Muna Da`Alti 2B Refugee Site"}}, {"type": "node", "id": 7379026143, "lat": 11.8659755, "lon": 13.2502681, "tags": {"amenity": "hospital", "healthcare": "hospital", "name": "Muna Mallam Kori Refugee Site"}}, {"type": "node", "id": 7379925077, "lat": 12.0858838, "lon": 15.084545, "tags": {"addr:city": "\u0627\u0646\u062c\u0645\u064a\u0646\u0627", "alt_name:ar": "\u0645\u0633\u062a\u0634\u0641\u0649 \u0644\u0648 \u0628\u0648\u0646 \u0633\u0627\u0645\u0627\u0631\u064a\u062a\u0627\u0646", "amenity": "hospital", "emergency": "yes", "name": "Le Bon Samaritain Hospital \u0645\u0633\u062a\u0634\u0641\u0649 \u0627\u0644\u0633\u0627\u0645\u0631\u064a \u0627\u0644\u0635\u0627\u0644\u062d"}}, {"type": "node", "id": 7384158283, "lat": 11.8669047, "lon": 13.246513, "tags": {"amenity": "hospital", "healthcare": "hospital", "name": "Muna Moforo Refugee Site"}}, {"type": "node", "id": 7411513947, "lat": 11.9186887, "lon": 13.19296, "tags": {"amenity": "hospital", "healthcare": "hospital", "name": "Kessa Kura Refugee Site"}}, {"type": "node", "id": 7419562582, "lat": 12.1400835, "lon": 14.9553498, "tags": {"amenity": "hospital", "name": "H\u00f4pital de Farcha Zarafa"}}, {"type": "node", "id": 7434570797, "lat": 13.092144, "lon": 10.3351897, "tags": {"amenity": "hospital", "healthcare": "hospital"}}, {"type": "node", "id": 7434570801, "lat": 13.0967001, "lon": 10.3334945, "tags": {"amenity": "hospital", "healthcare": "hospital"}}, {"type": "node", "id": 7486233424, "lat": 12.1113771, "lon": 15.0398996, "tags": {"addr:city": "N'Djam\u00e9na", "addr:city:ar": "\u0627\u0646\u062c\u0645\u064a\u0646\u0627", "addr:city:fr": "N'Djam\u00e9na", "addr:street": "Rue 3015", "addr:street:ar": "3015 \u0632\u0646\u0642\u0629", "addr:street:fr": "Rue 3015", "alt_name:ar": "\u0645\u0633\u062a\u0634\u0641\u0649 \u063a\u0627\u0631\u0646\u064a\u0632\u0648\u0646", "amenity": "hospital", "emergency": "yes", "healthcare": "hospital", "name": "H\u00f4pital Garnison", "name:ar": "\u0645\u0633\u062a\u0634\u0641\u0649 \u0627\u0644\u062d\u0627\u0645\u064a\u0629", "name:fr": "H\u00f4pital Garnison", "source": "Bing"}}, {"type": "node", "id": 7562922185, "lat": 14.3349508, "lon": 13.1884703, "tags": {"amenity": "hospital", "healthcare": "hospital", "name": "Case Lari"}}, {"type": "node", "id": 7608739343, "lat": 12.1708358, "lon": 15.0121039, "tags": {"addr:city": "\u0627\u0646\u062c\u0645\u064a\u0646\u0627", "amenity": "hospital", "name": "H\u00f4pital de Guinebor II / \u0645\u0633\u062a\u0634\u0641\u0649 \u0642\u064a\u0628\u0628\u0648\u0631 2", "name:ar": "\u0645\u0633\u062a\u0634\u0641\u0649 \u0642\u064a\u0628\u0628\u0648\u0631 2", "name:fr": "H\u00f4pital de Guinebor II"}}, {"type": "node", "id": 7643882535, "lat": 13.3854499, "lon": 11.9748182, "tags": {"amenity": "hospital", "name": "CSI Nayi Lawan"}}, {"type": "node", "id": 7702696773, "lat": 10.9617328, "lon": 10.3474734, "tags": {"addr:district": "Darazo", "addr:full": "Darazo west, Darazo, Bauchi", "addr:municipality": "Darazo west", "addr:state": "Bauchi", "amenity": "hospital", "health_facility:type": "dispensary", "healthcare": "hospital", "name": "Lugge Health Post", "operator:type": "public", "source": "Bing;ehealthafrica.org", "source:date": "2013"}}, {"type": "node", "id": 7796463585, "lat": 17.9259165, "lon": 19.1037835, "tags": {"amenity": "hospital", "healthcare": "hospital", "name": "\u0645\u0633\u062a\u0634\u0641\u0649 \u0645\u062d\u0627\u0641\u0638\u0629 \u0641\u0627\u064a\u0627", "name:ar": "\u0645\u0633\u062a\u0634\u0641\u0649 \u0645\u062d\u0627\u0641\u0638\u0629 \u0641\u0627\u064a\u0627", "name:en": "Faya Provincial Hospital"}}, {"type": "node", "id": 7815336624, "lat": 11.8852629, "lon": 13.3139852, "tags": {"addr:district": "Mafa", "addr:ward": "Loskuri", "amenity": "hospital", "category": "Primary Health Clinic", "healthcare": "primary", "name": "Gawa Clinic", "operator": "public", "ownership": "public"}}, {"type": "node", "id": 7816210962, "lat": 11.7296466, "lon": 11.9566172, "tags": {"addr:district": "Damaturu", "addr:state": "yobe", "addr:ward": "Nayinawa", "amenity": "hospital", "health_specialty:covid19_isolation_centre": "yes", "name": "State Specialist Hospital", "services": "COVID_19 Isolation centre"}}, {"type": "node", "id": 7816224840, "lat": 10.6188206, "lon": 12.170105, "tags": {"addr:district": "Biu", "addr:state": "Borno", "addr:ward": "Galdimari", "amenity": "hospital", "building": "yes", "health_specialty:covid19_isolation_centre": "yes", "healthcare": "hospital", "name": "Biu Isolation Centre"}}, {"type": "node", "id": 7816233708, "lat": 11.7216103, "lon": 10.9911346, "tags": {"addr:district": "Nangere", "addr:state": "Yobe", "addr:ward": "Dazigau", "amenity": "hospital", "health_specialty:covid19_isolation_centre": "yes", "name": "General Hospital Potiskum"}}, {"type": "node", "id": 7816290026, "lat": 12.6851565, "lon": 13.6061007, "tags": {"addr:district": "Monguno", "addr:state": "Borno", "addr:ward": "Monguno", "amenity": "hospital", "name": "Monguno Isolation Centre", "services": "COVID_19 Isolation centre"}}, {"type": "node", "id": 7817391113, "lat": 10.335898, "lon": 11.7728272, "tags": {"addr:city": "Guburunde", "addr:street": "Gubornde Dispensary, pono, wuyo, borno state", "amenity": "hospital", "emergency": "yes", "healthcare": "hospital", "healthcare:speciality": "community", "name": "Guburnde Dispensary"}}, {"type": "node", "id": 7817400580, "lat": 10.3346562, "lon": 11.8013559, "tags": {"addr:city": "bayo local government area", "addr:street": "tertiary roadkurbu gayi bayo borno", "amenity": "hospital", "emergency": "yes", "healthcare": "hospital", "healthcare:speciality": "community", "name": "Loroh Dispensary,"}}, {"type": "node", "id": 7822932634, "lat": 12.2661595, "lon": 14.4693589, "tags": {"amenity": "hospital", "healthcare": "hospital", "name": "General Hospital Rann"}}, {"type": "node", "id": 7823323379, "lat": 12.4884514, "lon": 13.2125025, "tags": {"LGA": "Nganzai", "amenity": "hospital", "category": "Primary Health Center", "healthcare": "hospital", "name": "Nganzai Family Support Clinic", "ownership": "State Primary HealthCare Development Agency", "type": "Primary", "ward": "Gajiram"}}, {"type": "node", "id": 7823330624, "lat": 11.5319066, "lon": 12.9910232, "tags": {"amenity": "hospital", "healthcare": "hospital", "name": "Mustaphawari Health Clinic"}}, {"type": "node", "id": 7823467002, "lat": 11.6540963, "lon": 13.4212728, "tags": {"amenity": "hospital", "healthcare": "hospital", "name": "Abduri Health Clinic"}}, {"type": "node", "id": 7823766899, "lat": 11.8244883, "lon": 13.1855596, "tags": {"addr:district": "Jere", "addr:ward": "Maimusari", "amenity": "hospital", "description": "teaching Hospital", "healthcare": "hospital", "name": "University of Maiduguri Teaching Hospital UMTH", "ownership": "public"}}, {"type": "node", "id": 7824375934, "lat": 11.1458216, "lon": 13.8564121, "tags": {"amenity": "hospital", "healthcare": "hospital", "healthcare:speciality": "general", "name": "Arboko Health Clinic", "operator": "public", "operator:type": "private"}}, {"type": "node", "id": 7824427771, "lat": 11.1051322, "lon": 13.6910488, "tags": {"amenity": "hospital", "healthcare": "hospital", "healthcare:speciality": "general", "name": "Gava Clinic", "operator": "public", "operator:type": "private"}}, {"type": "node", "id": 7824437417, "lat": 11.1395332, "lon": 13.8694649, "tags": {"amenity": "hospital", "healthcare": "hospital", "healthcare:speciality": "general", "name": "Ashigashiya Primary Health Centre", "operator": "Public", "operator:type": "private"}}, {"type": "node", "id": 7824448100, "lat": 11.070849, "lon": 13.6899862, "tags": {"amenity": "hospital", "healthcare": "hospital", "healthcare:speciality": "general", "name": "Tashan Goigoi Clinic", "operator": "public", "operator:type": "private"}}, {"type": "node", "id": 7824469063, "lat": 11.0879411, "lon": 13.6385851, "tags": {"amenity": "hospital", "healthcare": "hospital", "healthcare:speciality": "general", "name": "Fadagwe Dispensary", "operator": "public", "operator:type": "private"}}, {"type": "node", "id": 7824472422, "lat": 11.0777382, "lon": 13.6910112, "tags": {"amenity": "hospital", "healthcare": "hospital", "healthcare:speciality": "general", "name": "Bokko Dispensary", "operator": "public", "operator:type": "public"}}, {"type": "node", "id": 7824475043, "lat": 11.070903, "lon": 13.6919593, "tags": {"amenity": "hospital", "healthcare": "hospital", "healthcare:speciality": "general", "name": "High Court Clinic", "operator": "primary", "operator:type": "public"}}, {"type": "node", "id": 7824478241, "lat": 11.079465, "lon": 13.6908233, "tags": {"amenity": "hospital", "healthcare": "hospital", "healthcare:speciality": "general", "name": "Gava Missionary Hospital", "operator": "public", "operator:type": "public"}}, {"type": "node", "id": 7824489646, "lat": 11.0862884, "lon": 13.7015008, "tags": {"amenity": "hospital", "healthcare": "hospital", "healthcare:speciality": "general", "name": "Gwoza Town Health Clinic", "operator": "public", "operator:type": "private"}}, {"type": "node", "id": 7824494728, "lat": 11.0741319, "lon": 13.7004301, "tags": {"amenity": "hospital", "healthcare": "hospital", "healthcare:speciality": "general", "name": "Nwoza General Hospital", "operator": "primary", "operator:type": "public"}}, {"type": "node", "id": 7824500390, "lat": 11.0881311, "lon": 13.6867127, "tags": {"amenity": "hospital", "healthcare": "hospital", "healthcare:speciality": "general", "name": "Kundesana Clinic", "operator": "public", "operator:type": "private"}}, {"type": "node", "id": 7824501490, "lat": 11.0536316, "lon": 13.7906266, "tags": {"amenity": "hospital", "healthcare": "hospital", "healthcare:speciality": "general", "name": "Kughum Health Clinic", "operator": "public", "operator:type": "private"}}, {"type": "node", "id": 7824501708, "lat": 11.0698517, "lon": 13.6886603, "tags": {"amenity": "hospital", "healthcare": "hospital", "healthcare:speciality": "general", "name": "Valangide Hospital", "operator": "public"}}, {"type": "node", "id": 7824503177, "lat": 11.1855252, "lon": 13.9105597, "tags": {"amenity": "hospital", "healthcare": "hospital", "healthcare:speciality": "general", "name": "Gava Dispensory", "operator": "primary", "operator:type": "public"}}, {"type": "node", "id": 7824507053, "lat": 11.0538968, "lon": 13.7900656, "tags": {"amenity": "hospital", "healthcare": "hospital", "healthcare:speciality": "general", "name": "Barawa Primary Health Care Centre", "operator": "public", "operator:type": "public"}}, {"type": "node", "id": 7824509456, "lat": 11.1077679, "lon": 13.5072029, "tags": {"amenity": "hospital", "healthcare": "hospital", "healthcare:speciality": "general", "name": "Yamtake Dispensary", "operator": "public", "operator:type": "public"}}, {"type": "node", "id": 7825927884, "lat": 11.1987204, "lon": 13.9030244, "tags": {"amenity": "hospital", "healthcare": "hospital", "healthcare:speciality": "general", "name": "Kirawe General Hospital", "operator": "primary", "operator:type": "public"}}, {"type": "node", "id": 7825939890, "lat": 11.1902706, "lon": 13.910544, "tags": {"amenity": "hospital", "healthcare": "hospital", "healthcare:speciality": "general", "name": "Kirawa Dispensary", "operator": "primary", "operator:type": "public"}}, {"type": "node", "id": 7825948529, "lat": 11.1920788, "lon": 13.8780476, "tags": {"amenity": "hospital", "healthcare": "hospital", "healthcare:speciality": "general", "name": "Hada Kaya Dispensary", "operator": "primary", "operator:type": "public"}}, {"type": "node", "id": 7825960371, "lat": 11.2397819, "lon": 13.9433563, "tags": {"amenity": "hospital", "healthcare": "hospital", "healthcare:speciality": "general", "name": "Ndaba Health Clinic", "operator": "primary", "operator:type": "public"}}, {"type": "node", "id": 7825977527, "lat": 11.2179984, "lon": 13.7852966, "tags": {"amenity": "hospital", "healthcare": "hospital", "healthcare:speciality": "general", "name": "Dure Dispensary", "operator": "primary", "operator:type": "public"}}, {"type": "node", "id": 7825981158, "lat": 11.1291153, "lon": 13.791567, "tags": {"amenity": "hospital", "healthcare": "hospital", "healthcare:speciality": "general", "name": "Hudumcha Dispensary", "operator": "primary", "operator:type": "public"}}, {"type": "node", "id": 7825988093, "lat": 11.2278819, "lon": 13.7770362, "tags": {"amenity": "hospital", "healthcare": "hospital", "healthcare:speciality": "general", "name": "Custom House Idp Clinic", "operator": "primary", "operator:type": "public"}}, {"type": "node", "id": 7826008702, "lat": 11.2286098, "lon": 13.7759488, "tags": {"amenity": "hospital", "healthcare": "hospital", "healthcare:speciality": "general", "name": "Farm Centre Idp Health Centre", "operator": "primary", "operator:type": "public"}}, {"type": "node", "id": 7826056247, "lat": 11.865095, "lon": 13.118738, "tags": {"addr:district": "Maiduguri", "addr:ward": "Bolori I", "amenity": "hospital", "category": "Specialist Hospital", "healthcare": "hospital", "healthcare:speciality": "psychiatry", "name": "Federal Neuro Psychiatric Hospital Maiduguri", "operator": "Public"}}, {"type": "node", "id": 7828479620, "lat": 10.0670403, "lon": 11.9996342, "tags": {"LGA": "Shani", "amenity": "hospital", "category": "Health Post", "healthcare": "hospital", "name": "Jeki Kanakuri Dispensary", "ownership": "public", "type": "Primary", "ward": "Kubo"}}, {"type": "node", "id": 7828507582, "lat": 10.2267491, "lon": 12.0535876, "tags": {"LGA": "Shani", "amenity": "hospital", "category": "General Hospital", "healthcare": "hospital", "healthcare:speciality": "general", "name": "Shani General Hospital", "ownership": "public", "type": "primary", "ward": "shani"}}, {"type": "node", "id": 7828669620, "lat": 12.6829983, "lon": 13.6138614, "tags": {"LGA": "Monguno", "amenity": "hospital", "category": "Health Post", "healthcare": "hospital", "name": "Acf Water Board IDP Camp Clinic", "ownership": "public", "type": "primary", "ward": "Monguno"}}, {"type": "node", "id": 7836841788, "lat": 10.8439564, "lon": 13.143972, "tags": {"amenity": "hospital", "healthcare": "hospital", "name": "Wasada Dispensary Nkurvu"}}, {"type": "node", "id": 7839956934, "lat": 10.8187623, "lon": 13.6387753, "tags": {"amenity": "hospital", "category": "heath post", "healthcare": "hospital", "name": "diriff heath post", "ownership": "state", "type": "primary"}}, {"type": "node", "id": 7839975618, "lat": 10.8804858, "lon": 13.6091511, "tags": {"amenity": "hospital", "category": "heath post", "healthcare": "hospital", "name": "sukur settlement heath post", "ownership": "state", "type": "primary"}}, {"type": "node", "id": 7840009990, "lat": 10.8496758, "lon": 11.6849547, "tags": {"amenity": "hospital", "category": "primary heath clinic", "healthcare": "hospital", "name": "vizik heath clinic", "ownership": "state", "type": "primary"}}, {"type": "node", "id": 7840010513, "lat": 10.7887224, "lon": 13.4408035, "tags": {"amenity": "hospital", "category": "heath post", "healthcare": "hospital", "name": "duhu primary heath center"}}, {"type": "node", "id": 7840016028, "lat": 10.7889742, "lon": 13.4373971, "tags": {"amenity": "hospital", "category": "heath center", "healthcare": "hospital", "name": "duhu heath center", "ownership": "state", "type": "primary"}}, {"type": "node", "id": 7840484892, "lat": 10.6477697, "lon": 13.168243, "tags": {"amenity": "hospital", "healthcare": "hospital", "name": "Ribadu Dispensary"}}, {"type": "node", "id": 7840489623, "lat": 10.60166, "lon": 13.025447, "tags": {"amenity": "hospital", "healthcare": "hospital", "name": "Rumirgo Dispensary"}}, {"type": "node", "id": 7840506843, "lat": 10.4600662, "lon": 13.1630871, "tags": {"amenity": "hospital", "healthcare": "hospital", "name": "Dzakwa Health Post"}}, {"type": "node", "id": 7840527699, "lat": 10.4159907, "lon": 13.1957744, "tags": {"amenity": "hospital", "healthcare": "hospital", "name": "Kuma Dispensary"}}, {"type": "node", "id": 7840556630, "lat": 10.4757226, "lon": 13.1900914, "tags": {"amenity": "hospital", "healthcare": "hospital", "name": "UBA General Hospital"}}, {"type": "node", "id": 7840568290, "lat": 10.45407, "lon": 13.2061737, "tags": {"amenity": "hospital", "healthcare": "hospital", "name": "Health Post Uba Dispensary"}}, {"type": "node", "id": 7840585700, "lat": 10.451392, "lon": 13.2178898, "tags": {"amenity": "hospital", "healthcare": "hospital", "name": "Uba Phc"}}, {"type": "node", "id": 7841174109, "lat": 10.7078821, "lon": 13.4382041, "tags": {"amenity": "hospital", "category": "primary heath clinic", "healthcare": "hospital", "name": "mayo wandu heath clinic", "ownership": "private", "type": "primary"}}, {"type": "node", "id": 7841179263, "lat": 10.8002295, "lon": 13.4481455, "tags": {"amenity": "hospital", "category": "unknown", "country": "NIG", "healthcare": "hospital", "name": "gulak secreteriat", "ownership": "private", "state": "adamawa", "type": "primary"}}, {"type": "node", "id": 7841196801, "lat": 10.8368826, "lon": 13.4518472, "tags": {"amenity": "hospital", "category": "heath post", "country": "NIG", "healthcare": "hospital", "name": "dar dispensary", "ownership": "private", "state": "adamawa", "type": "primary"}}, {"type": "node", "id": 7841262955, "lat": 10.8169219, "lon": 13.4212244, "tags": {"amenity": "hospital", "category": "primary heath post", "country": "NIG", "healthcare": "hospital", "name": "kaya primary heath post", "ownership": "state", "state": "adamawa", "type": "primary"}}, {"type": "node", "id": 7842852257, "lat": 10.8604272, "lon": 13.5066458, "tags": {"amenity": "hospital", "healthcare": "hospital", "name": "lihyambula health clinic", "operator:type": "private", "type": "primary"}}, {"type": "node", "id": 7842873799, "lat": 10.7877406, "lon": 13.4617533, "tags": {"amenity": "hospital", "category": "heath post", "healthcare": "hospital", "name": "dagali heath post", "ownership": "private", "state": "adamawa", "type": "primary"}}, {"type": "node", "id": 7842877059, "lat": 10.7379666, "lon": 13.3383705, "tags": {"amenity": "hospital", "category": "primary heath clinic", "country": "NIG", "healthcare": "hospital", "name": "kopa basic heath clinic", "ownership": "state", "state": "adamawa", "type": "primary"}}, {"type": "node", "id": 7842881077, "lat": 10.7135131, "lon": 13.3894412, "tags": {"amenity": "hospital", "category": "heath post", "country": "NIG", "healthcare": "hospital", "name": "wuro gayadi primary heath post", "ownership": "state", "state": "adamawa", "type": "primary"}}, {"type": "node", "id": 7842909429, "lat": 10.8887611, "lon": 13.6311552, "tags": {"amenity": "hospital", "category": "general hospital", "country": "NIG", "healthcare": "hospital", "name": "gadamahol general hospital", "ownership": "private", "state": "adamawa", "type": "primary"}}, {"type": "node", "id": 7842914120, "lat": 10.9977168, "lon": 13.6322543, "tags": {"amenity": "hospital", "healthcare": "hospital"}}, {"type": "node", "id": 7842925168, "lat": 10.8934752, "lon": 13.6192502, "tags": {"amenity": "hospital", "category": "primary heath center", "country": "NIG", "healthcare": "hospital", "name": "community base bamaco initiative", "ownership": "private", "state": "adamawa", "type": "primary"}}, {"type": "node", "id": 7842947810, "lat": 10.7275941, "lon": 13.5127549, "tags": {"amenity": "hospital", "category": "heath post", "country": "NIG", "healthcare": "hospital", "name": "gazama heath post", "ownership": "private", "state": "adamawa", "type": "primary"}}, {"type": "node", "id": 7842978098, "lat": 10.7596643, "lon": 13.49567, "tags": {"amenity": "hospital", "category": "prmary heath center", "country": "NIG", "healthcare": "hospital", "name": "kofur heath center", "ownership": "private", "state": "adamawa", "type": "primary"}}, {"type": "node", "id": 7843347606, "lat": 10.7127188, "lon": 13.5922645, "tags": {"amenity": "hospital", "category": "heath post", "country": "NIG", "healthcare": "hospital", "name": "kurang heath post", "ownership": "state", "state": "adamawa", "type": "primary"}}, {"type": "node", "id": 7843431685, "lat": 10.2997499, "lon": 11.1366834, "tags": {"addr:street": "Gombe - Potiskum Road; Ashaka Bajago Road", "amenity": "hospital", "name": "Federal Teaching Hospital", "opening_hours": "24/7"}}, {"type": "node", "id": 7843496537, "lat": 10.8366513, "lon": 13.5551356, "tags": {"amenity": "hospital", "category": "general hospital", "country": "NIG", "healthcare": "hospital", "name": "kwakida general hospital", "ownership": "state"}}, {"type": "node", "id": 7843512091, "lat": 10.8150565, "lon": 13.5334713, "tags": {"amenity": "hospital", "category": "heath post", "country": "NIG", "healthcare": "hospital", "name": "dispensary ishishiwa", "ownership": "private", "state": "adamawa", "type": "primary"}}, {"type": "node", "id": 7843550587, "lat": 10.7414731, "lon": 13.5843301, "tags": {"amenity": "hospital", "category": "heath post", "country": "NIG", "healthcare": "hospital", "name": "sukur sama heath post", "ownership": "state", "state": "adamawa", "type": "primary"}}, {"type": "node", "id": 7843561545, "lat": 10.9397081, "lon": 13.6335542, "tags": {"amenity": "hospital", "category": "heath post", "country": "NIG", "healthcare": "hospital", "name": "gori heath post", "ownership": "state", "state": "adamawa", "type": "primary"}}, {"type": "node", "id": 7843573407, "lat": 10.7421779, "lon": 13.6506344, "tags": {"amenity": "hospital", "category": "heath post", "country": "NIG", "healthcare": "hospital", "name": "kana heath post", "ownership": "state", "state": "adamawa", "type": "primary"}}, {"type": "node", "id": 7844383791, "lat": 10.1230637, "lon": 13.1584729, "tags": {"addr:country": "NG", "addr:state": "adamawa", "amenity": "hospital", "healthcare": "hospital", "name": "humbutuidi pbf heath facility", "type": "primary"}}, {"type": "node", "id": 7844385043, "lat": 10.1714974, "lon": 13.1243507, "tags": {"amenity": "hospital", "category": "heath post", "country": "GB", "healthcare": "hospital", "name": "kilange heath post", "ownership": "others"}}, {"type": "node", "id": 7844434638, "lat": 10.1314732, "lon": 13.1690518, "tags": {"amenity": "hospital", "category": "primary heath center", "country": "NG", "healthcare": "hospital", "name": "vokini heath facility", "ownership": "others", "source": "hospital"}}, {"type": "node", "id": 7844450043, "lat": 10.0017741, "lon": 13.2456778, "tags": {"amenity": "hospital", "category": "heath post", "country": "NG", "healthcare": "hospital", "name": "boken dispensary clinic", "ownership": "state"}}, {"type": "node", "id": 7844493541, "lat": 10.0397532, "lon": 13.1574297, "tags": {"amenity": "hospital", "category": "heath post", "country": "NG", "healthcare": "hospital", "name": "jalingo buhu heath post", "ownership": "state", "state": "adamawa", "type": "primary"}}, {"type": "node", "id": 7844516035, "lat": 10.0471384, "lon": 13.0782203, "tags": {"amenity": "hospital", "category": "heath post", "healthcare": "hospital", "name": "bamako clinic kwaboon", "ownership": "others", "type": "primary"}}, {"type": "node", "id": 7844528285, "lat": 10.0910256, "lon": 13.0997862, "tags": {"amenity": "hospital", "category": "primary heath clinic", "country": "NG", "healthcare": "hospital", "name": "hubare heath clinic", "ownership": "others"}}, {"type": "node", "id": 7844558311, "lat": 10.0401126, "lon": 13.1307745, "tags": {"amenity": "hospital", "category": "primary heath center", "country": "NG", "healthcare": "hospital", "name": "manjekin A primary heath center", "ownership": "others", "state": "adamawa", "type": "primary"}}, {"type": "node", "id": 7852332881, "lat": 10.3297358, "lon": 12.9448342, "tags": {"amenity": "hospital", "healthcare": "hospital", "name": "Mbalwaha Health Post", "operator": "other"}}, {"type": "node", "id": 7852356961, "lat": 10.2604944, "lon": 13.0458267, "tags": {"amenity": "hospital", "healthcare": "hospital", "name": "Shiwa Kalaa Health Clinic", "operator": "State Ministry Of Health"}}, {"type": "node", "id": 7852387952, "lat": 10.1418931, "lon": 12.9269965, "tags": {"amenity": "hospital", "healthcare": "hospital", "name": "Daksiri Center", "operator": "State Primary HealthCare Development Agency"}}, {"type": "node", "id": 7852409834, "lat": 10.1436588, "lon": 12.9263738, "tags": {"amenity": "hospital", "healthcare": "hospital", "name": "Daksiri Health Post", "operator": "State Primary HealthCare Development Agency"}}, {"type": "node", "id": 7852417565, "lat": 10.1639533, "lon": 12.9664093, "tags": {"amenity": "hospital", "healthcare": "hospital", "name": "Duchidama Health Clinic", "operator": "State Ministry Of Health"}}, {"type": "node", "id": 7852434262, "lat": 10.1347011, "lon": 12.9646678, "tags": {"amenity": "hospital", "healthcare": "hospital", "name": "Health Post Tasha Tiding", "operator": "OTHERS"}}, {"type": "node", "id": 7852434375, "lat": 10.0848461, "lon": 12.9781312, "tags": {"amenity": "hospital", "healthcare": "hospital", "name": "Duldal Clinic", "operator": "National Primary HealthCare Development Agency"}}, {"type": "node", "id": 7852466270, "lat": 10.1347025, "lon": 12.9321199, "tags": {"amenity": "hospital", "healthcare": "hospital", "name": "Health Post Mothol", "operator": "Others"}}, {"type": "node", "id": 7852467422, "lat": 10.1494561, "lon": 12.9048266, "tags": {"amenity": "hospital", "healthcare": "hospital", "name": "Health Post Zugwagunli Uding", "operator": "OTHERS"}}, {"type": "node", "id": 7852472070, "lat": 10.1533899, "lon": 12.9052985, "tags": {"amenity": "hospital", "healthcare": "hospital", "name": "Uding Maternal And Child Health Clinic", "operator": "Others"}}, {"type": "node", "id": 7852488244, "lat": 10.0964795, "lon": 12.9542746, "tags": {"amenity": "hospital", "healthcare": "hospital", "name": "Mbolinyi Health Post", "operator": "National Primary HealthCare Development Agency"}}, {"type": "node", "id": 7852552575, "lat": 10.4101603, "lon": 12.8481581, "tags": {"amenity": "hospital", "healthcare": "hospital", "name": "Garaha Larh Health Post", "operator": "State Primary HealthCare Development Agency"}}, {"type": "node", "id": 7852571653, "lat": 10.3990086, "lon": 12.8867093, "tags": {"amenity": "hospital", "healthcare": "hospital", "name": "Garaha Dutse Health Post", "operator": "State Primary HealthCare Development Agency"}}, {"type": "node", "id": 7854757937, "lat": 10.3538078, "lon": 10.3538865, "tags": {"amenity": "hospital", "healthcare": "hospital"}}, {"type": "node", "id": 7856123135, "lat": 10.3792555, "lon": 13.039672, "tags": {"amenity": "hospital", "healthcare": "hospital"}}, {"type": "node", "id": 7856166374, "lat": 10.4423983, "lon": 12.9876178, "tags": {"amenity": "hospital", "healthcare": "hospital", "name": "Zhedinyi Health Clinic", "operator": "State Ministry Of Health"}}, {"type": "node", "id": 7893533802, "lat": 11.7996151, "lon": 13.1769394, "tags": {"amenity": "hospital", "healthcare": "hospital", "name": "Fori Primary School IDP Camp"}}, {"type": "node", "id": 7975966887, "lat": 10.2735942, "lon": 15.3799435, "tags": {"amenity": "hospital", "name": "Centre koweitien"}}, {"type": "node", "id": 7988951185, "lat": 13.3650402, "lon": 19.0101814, "tags": {"amenity": "hospital", "name": "Centre de sant\u00e9 de Gafala"}}, {"type": "node", "id": 8305460517, "lat": 13.6928102, "lon": 14.539048, "tags": {"amenity": "hospital", "name": "CS de Ndjoudou"}}, {"type": "node", "id": 8305460818, "lat": 13.5043183, "lon": 14.397742, "tags": {"amenity": "hospital", "name": "Centre de Sant\u00e9 de BIBI (Mackaye)"}}, {"type": "node", "id": 8314905717, "lat": 13.7703423, "lon": 14.4735635, "tags": {"amenity": "hospital", "name": "CS de Trotroye (Mackaye)"}}, {"type": "node", "id": 8321352123, "lat": 13.5121208, "lon": 14.4266055, "tags": {"amenity": "hospital", "name": "CS Tchingam (Mackaye)"}}, {"type": "node", "id": 8363578837, "lat": 13.6403563, "lon": 16.4702967, "tags": {"amenity": "hospital", "name": "HPM2"}}, {"type": "node", "id": 9057046021, "lat": 11.763495, "lon": 11.9559489, "tags": {"amenity": "hospital", "healthcare": "hospital", "name": "family support"}}, {"type": "node", "id": 9103952177, "lat": 12.1775276, "lon": 18.6812038, "tags": {"amenity": "hospital", "healthcare": "hospital", "name": "Hopital Regional de Mongo"}}, {"type": "node", "id": 9315653835, "lat": 12.0969465, "lon": 15.0706458, "tags": {"amenity": "hospital", "healthcare": "hospital", "healthcare:speciality": "cardiology", "name": "Le Maillon - Cabinet Cardiologie", "operator": "Le Maillon", "operator:type": "private"}}, {"type": "node", "id": 9767598198, "lat": 10.2953722, "lon": 11.0967536, "tags": {"addr:city": "Gombe", "addr:street": "Wuro Bondu", "amenity": "hospital", "emergency": "yes", "healthcare": "hospital", "healthcare:speciality": "paediatrics;general;gynaecology;vaccination;surgery", "name": "Madi Memorial Hospital", "operator": "Dr. James Madi", "operator:type": "private"}}, {"type": "node", "id": 9781314517, "lat": 13.4731464, "lon": 14.7584082, "tags": {"amenity": "hospital", "name": "CS SAWA (Mackaye)"}}, {"type": "node", "id": 9808987417, "lat": 13.692768, "lon": 14.5390111, "tags": {"amenity": "hospital", "name": "ZR Ndjoudou (Mackaye)"}}, {"type": "node", "id": 9892878121, "lat": 13.0296246, "lon": 15.2749622, "tags": {"amenity": "hospital", "name:en": "H\u00f4pital de District de Kouloudia"}}, {"type": "node", "id": 10058969217, "lat": 13.5450221, "lon": 14.314383, "tags": {"amenity": "hospital", "name": "Site Centre de sant\u00e9 2"}}, {"type": "node", "id": 10058969317, "lat": 13.5449775, "lon": 14.3143953, "tags": {"amenity": "hospital", "name": "Centre de sant\u00e9 No2 (Mackaye)"}}, {"type": "node", "id": 10218254417, "lat": 13.57679, "lon": 14.4677786, "tags": {"amenity": "hospital", "name": "CS NGUELEA (Mackaye)"}}, {"type": "node", "id": 10247597864, "lat": 11.8578376, "lon": 13.156342, "tags": {"amenity": "hospital", "healthcare": "hospital", "healthcare:speciality": "general;vaccination;maternity", "name": "Abbaganaram  PHC", "operator": "SMOH", "operator:type": "public"}}, {"type": "node", "id": 10296956309, "lat": 12.1072171, "lon": 15.1260356, "tags": {"amenity": "hospital", "name": "Centre de Sant\u00e9 Bethesda"}}, {"type": "node", "id": 10934166805, "lat": 13.5395918, "lon": 14.3087863, "tags": {"amenity": "hospital", "name:en": "Mackaye"}}, {"type": "node", "id": 10934166806, "lat": 13.5575979, "lon": 14.3127998, "tags": {"amenity": "hospital", "name:en": "Logment MCD (Mackaye)"}}, {"type": "node", "id": 10943482405, "lat": 13.4606101, "lon": 14.712163, "tags": {"amenity": "hospital", "name": "Hopital Provincial Lac", "name:en": "Hoital de Bol"}}, {"type": "node", "id": 10943483505, "lat": 13.4605918, "lon": 14.7121641, "tags": {"amenity": "hospital", "name": "Mackaye", "name:en": "HPB"}}, {"type": "node", "id": 11006989306, "lat": 13.4989834, "lon": 14.4638604, "tags": {"amenity": "hospital", "name": "CS KOULKIME (Mackaye)"}}, {"type": "node", "id": 11135875905, "lat": 12.1453616, "lon": 15.0535074, "tags": {"addr:street": "\u062f\u0648\u0627\u0631 \u0633\u064a\u0633 \u0628\u0627\u0646", "amenity": "hospital", "name": "Centre de sant\u00e9 revitalise de Goudji"}}, {"type": "node", "id": 11145510058, "lat": 10.7156286, "lon": 13.5600123, "tags": {"amenity": "hospital", "healthcare": "hospital", "is_in:state": "Adamawa", "name": "tikisu primary heath center", "ownership": "state"}}, {"type": "node", "id": 11151590106, "lat": 10.2929059, "lon": 11.1800984, "tags": {"addr:postcode": "760232", "addr:street": "MARKET WAY", "amenity": "hospital", "email": "muhammadtafidaaliyu70@gmail.com", "name": "hospital small garden", "phone": "08132070371"}}, {"type": "node", "id": 11157838305, "lat": 10.2968833, "lon": 11.1387383, "tags": {"addr:street": "GOMBE - YOLA ROAD", "amenity": "hospital", "name": "Federal Teaching Hospital Mosque"}}, {"type": "node", "id": 11177647237, "lat": 11.0707922, "lon": 10.5706004, "tags": {"addr:postcode": "760222", "amenity": "hospital", "name": "primary health care"}}, {"type": "node", "id": 11203507111, "lat": 12.5479114, "lon": 10.1419806, "tags": {"amenity": "hospital", "healthcare": "hospital", "name": "Teshegwa Health post"}}, {"type": "node", "id": 11203657550, "lat": 12.5508702, "lon": 10.140862, "tags": {"amenity": "hospital", "healthcare": "hospital", "name": "Kiramisau Health Post"}}, {"type": "node", "id": 11291185570, "lat": 13.2066787, "lon": 16.7824238, "tags": {"amenity": "hospital"}}, {"type": "way", "id": 205377169, "center": {"lat": 12.1206254, "lon": 15.0413841}, "nodes": [2153481396, 2162919793, 2162919794, 2153481398, 2153481392, 1650006463, 2162349145, 2153481396], "tags": {"amenity": "hospital", "designation": "Clinique SOS", "emergency": "yes", "name": "Clinique SOS", "source": "bing"}}, {"type": "way", "id": 205377241, "center": {"lat": 12.1200043, "lon": 15.041246}, "nodes": [2153481982, 2153481981, 2153481980, 2153481983, 2153481982], "tags": {"amenity": "hospital", "designation": "Clnique SOS", "emergency": "yes", "name": "Clinique SOS", "source": "bing"}}, {"type": "way", "id": 205643273, "center": {"lat": 10.6101089, "lon": 14.3256067}, "nodes": [2156182120, 2156182122, 2156182115, 2156182100, 2156182120], "tags": {"amenity": "hospital", "building": "hospital", "health_facility_type": "Outpatient_Nutritional_Centre", "name": "Centre Nutritionnel Ambulatoire de Lop\u00e9r\u00e9", "source": "Croix-Rouge Fran\u00e7aise"}}, {"type": "way", "id": 220239803, "center": {"lat": 10.2604974, "lon": 11.1711704}, "nodes": [2293693897, 2293689861, 2293689860, 2293689857, 7646940009, 7646940010, 2293693897], "tags": {"addr:housename": "classes", "addr:street": "ZBA", "amenity": "hospital", "building": "yes", "emergency": "yes", "healthcare": "hospital", "name": "ZUBAIRU BN AUWAM;ZBA clinic"}}, {"type": "way", "id": 226135797, "center": {"lat": 12.114678, "lon": 15.043587}, "nodes": [2349882248, 2349882249, 2349882244, 2349882241, 2349882248], "tags": {"amenity": "hospital", "building": "yes", "healthcare": "hospital", "name": "Centre de sant\u00e9 Bololo", "source": "Bing", "source:date": "02/08/2013"}}, {"type": "way", "id": 226236422, "center": {"lat": 13.312238, "lon": 12.5946147}, "nodes": [2350953238, 2350952759, 4210290627, 2350953125, 2350953124, 2350952769, 2350952739, 2350952779, 2350952747, 4210290670, 2350953639, 2350953546, 4210290599, 2350953238], "tags": {"amenity": "hospital", "barrier": "wall", "name": "Centre m\u00e8re et enfant", "project:pdevii": "yes", "source": "survey"}}, {"type": "way", "id": 228363961, "center": {"lat": 12.1222817, "lon": 15.0475911}, "nodes": [2370475596, 2370475598, 2370475599, 2370475601, 2370475596], "tags": {"addr:city": "\u0627\u0646\u062c\u0645\u064a\u0646\u0627", "amenity": "hospital", "building": "yes", "name": "Clinique Artine \u0639\u064a\u0627\u062f\u0629 \u0623\u0631\u062a\u064a\u0646", "name:ar": "\u0639\u064a\u0627\u062f\u0629 \u0623\u0631\u062a\u064a\u0646", "name:fr": "Clinique Artine"}}, {"type": "way", "id": 228363968, "center": {"lat": 12.1071193, "lon": 15.0788699}, "nodes": [2370475639, 2370475640, 2370475642, 2370475644, 2370475639], "tags": {"addr:city": "\u0627\u0646\u062c\u0645\u064a\u0646\u0627", "amenity": "hospital", "building": "yes", "healthcare": "hospital", "name": "\u0645\u0633\u062a\u0634\u0641\u0649", "name:ar": "\u0645\u0633\u062a\u0634\u0641\u0649"}}, {"type": "way", "id": 231872125, "center": {"lat": 12.9900529, "lon": 15.7381008}, "nodes": [2401971704, 2401971736, 2401971649, 2401971655, 2401971704], "tags": {"amenity": "hospital", "name": "Hospital"}}, {"type": "way", "id": 246189003, "center": {"lat": 13.3138872, "lon": 12.6089107}, "nodes": [2532588105, 2532588108, 5228557612, 3254798222, 2532588110, 3254798221, 5180804231, 2532588112, 2532588114, 2532588116, 2532588105], "tags": {"amenity": "hospital", "barrier": "wall", "name": "Centre Hospitalier Re\u0301gional (CHR)", "name:fr": "Centre Hospitalier Re\u0301gional (CHR)"}}, {"type": "way", "id": 267837016, "center": {"lat": 10.7377259, "lon": 13.8106972}, "nodes": [2732388082, 2732388084, 2732388086, 2732388089, 2732388082], "tags": {"amenity": "hospital", "name": "H\u00f4pital"}}, {"type": "way", "id": 280242261, "center": {"lat": 11.7844678, "lon": 15.8892877}, "nodes": [2843880462, 2843880463, 2843880464, 2843880465, 2843880462], "tags": {"amenity": "hospital"}}, {"type": "way", "id": 280430715, "center": {"lat": 13.6430342, "lon": 15.368611}, "nodes": [2437315577, 2845461188, 2845461189, 2845461190, 2845461191, 2845461192, 2845461193, 2437315524, 2437315577], "tags": {"amenity": "hospital"}}, {"type": "way", "id": 295117870, "center": {"lat": 14.1275293, "lon": 15.3104368}, "nodes": [2987899069, 7651688173, 2987899070, 2987899071, 2987899072, 2987899073, 2987899074, 2987899075, 5239888150, 2987899069], "tags": {"addr:city": "\u0645\u0627\u0648", "amenity": "hospital", "emergency": "yes", "name": "H\u00f4pital de Mao \u0645\u0633\u062a\u0634\u0641\u0649 \u0645\u0627\u0648", "name:ar": "\u0645\u0633\u062a\u0634\u0641\u0649 \u0645\u0627\u0648", "name:fr": "H\u00f4pital de Mao"}}, {"type": "way", "id": 301444099, "center": {"lat": 12.4015362, "lon": 10.2827189}, "nodes": [3057042660, 3054994243, 3054994241, 3054994240, 3057042660], "tags": {"addr:district": "Zaki", "addr:full": "Maiwa, Zaki, Bauchi", "addr:municipality": "Maiwa", "addr:state": "Bauchi", "amenity": "hospital", "building": "hospital", "health_facility:type": "dispensary", "healthcare": "hospital", "name": "Sabon Gari North", "operator:type": "public", "source": "Bing;ehealthafrica.org", "source:date": "2013"}}, {"type": "way", "id": 301444100, "center": {"lat": 12.4367674, "lon": 10.3559797}, "nodes": [3057042659, 3054994247, 3054994245, 3054994244, 3057042659], "tags": {"addr:district": "Zaki", "addr:full": "Mainako North, Zaki, Bauchi", "addr:municipality": "Mainako North", "addr:state": "Bauchi", "amenity": "hospital", "building": "hospital", "health_facility:type": "dispensary", "healthcare": "hospital", "name": "Alganari Health Facility", "operator:type": "public", "source": "Bing;ehealthafrica.org", "source:date": "2013"}}, {"type": "way", "id": 301444531, "center": {"lat": 12.3894363, "lon": 10.387019}, "nodes": [3057060188, 3054997935, 3054997933, 3054997432, 3057060188], "tags": {"addr:district": "Zaki", "addr:full": "Mainako South, Zaki, Bauchi", "addr:municipality": "Mainako South", "addr:state": "Bauchi", "alt_name": "Mainako Rimindi", "amenity": "hospital", "building": "hospital", "health_facility:type": "dispensary", "healthcare": "hospital", "name": "Alganari Dispensary", "operator:type": "public", "source": "Bing;ehealthafrica.org", "source:date": "2013"}}, {"type": "way", "id": 301444532, "center": {"lat": 12.3958053, "lon": 10.4742244}, "nodes": [3057060191, 3054997939, 3054997937, 7861573453, 3057060191], "tags": {"addr:district": "Zaki", "addr:full": "Mainako South, Zaki, Bauchi", "addr:municipality": "Mainako South", "addr:state": "Bauchi", "amenity": "hospital", "building": "hospital", "health_facility:type": "dispensary", "healthcare": "hospital", "name": "Gauya Dispensary", "operator:type": "public", "source": "Bing;ehealthafrica.org", "source:date": "2013"}}, {"type": "way", "id": 301444533, "center": {"lat": 12.4176252, "lon": 10.4110295}, "nodes": [3057060189, 3054997956, 3054997954, 3054997953, 3057060189], "tags": {"addr:district": "Zaki", "addr:full": "Mainako North, Zaki, Bauchi", "addr:municipality": "Mainako North", "addr:state": "Bauchi", "amenity": "hospital", "building": "hospital", "health_facility:type": "dispensary", "healthcare": "hospital", "name": "Ariri Dispensary", "operator:type": "public", "source": "Bing;ehealthafrica.org", "source:date": "2013"}}, {"type": "way", "id": 301445154, "center": {"lat": 12.3911043, "lon": 10.5789575}, "nodes": [3055002221, 3055002219, 7872018757, 3055002218, 3055002221], "tags": {"addr:district": "Zaki", "addr:full": "Lodiyo, Zaki, Bauchi", "addr:municipality": "Lodiyo", "addr:state": "Bauchi", "amenity": "hospital", "building": "hospital", "health_facility:type": "dispensary", "healthcare": "hospital", "name": "Lodiya Dispensary", "operator:type": "public", "source": "Bing;ehealthafrica.org", "source:date": "2013"}}, {"type": "way", "id": 301445156, "center": {"lat": 12.4640911, "lon": 10.6166651}, "nodes": [3057040433, 3055003358, 3055003356, 3055003355, 3057040433], "tags": {"addr:district": "Zaki", "addr:full": "Bursali, Zaki, Bauchi", "addr:municipality": "Bursali", "addr:state": "Bauchi", "alt_name": "Tikirje Dispensary - Ladari Dispensary", "amenity": "hospital", "building": "hospital", "health_facility:type": "dispensary", "healthcare": "hospital", "name": "Jindu Dispensary", "operator:type": "public", "source": "Bing;ehealthafrica.org", "source:date": "2013"}}, {"type": "way", "id": 301445158, "center": {"lat": 12.4367594, "lon": 10.6662376}, "nodes": [3057040437, 3055002225, 3055002223, 3055002222, 3057040437], "tags": {"addr:district": "Zaki", "addr:full": "Bursali, Zaki, Bauchi", "addr:municipality": "Bursali", "addr:state": "Bauchi", "amenity": "hospital", "building": "hospital", "health_facility:type": "dispensary", "healthcare": "hospital", "name": "Masaje Dispensary", "operator:type": "public", "source": "Bing;ehealthafrica.org", "source:date": "2013"}}, {"type": "way", "id": 301445250, "center": {"lat": 12.4016404, "lon": 10.7513628}, "nodes": [3057026475, 3055003883, 3055003881, 3055003880, 3057026475], "tags": {"addr:district": "Zaki", "addr:full": "Bursali, Zaki, Bauchi", "addr:municipality": "Bursali", "addr:state": "Bauchi", "amenity": "hospital", "building": "hospital", "health_facility:type": "dispensary", "healthcare": "hospital", "name": "Jundu Dispensary", "operator:type": "public", "source": "Bing;ehealthafrica.org", "source:date": "2013"}}, {"type": "way", "id": 301447310, "center": {"lat": 12.2237057, "lon": 10.596137}, "nodes": [7716451339, 3055022611, 3055022609, 3055022608, 7716451339], "tags": {"addr:district": "Gamawa", "addr:full": "Jadori, Gamawa, Bauchi", "addr:municipality": "Jadori", "addr:state": "Bauchi", "amenity": "hospital", "building": "hospital", "health_facility:type": "dispensary", "healthcare": "hospital", "name": "Jadori Dispensary", "operator:type": "public", "source": "Bing;ehealthafrica.org", "source:date": "2013"}}, {"type": "way", "id": 301447311, "center": {"lat": 12.3719236, "lon": 10.5523118}, "nodes": [3057004030, 3055027952, 3055027950, 3055027949, 3057004030], "tags": {"addr:district": "Zaki", "addr:full": "Lodiyo, Zaki, Bauchi", "addr:municipality": "Lodiyo", "addr:state": "Bauchi", "amenity": "hospital", "building": "hospital", "health_facility:type": "dispensary", "healthcare": "hospital", "name": "Bagam Dispensary", "operator:type": "public", "source": "Bing;ehealthafrica.org", "source:date": "2013"}}, {"type": "way", "id": 301449076, "center": {"lat": 12.2482422, "lon": 10.24105}, "nodes": [3057010927, 3055051916, 3055051914, 3055051913, 3057010927], "tags": {"addr:district": "Zaki", "addr:full": "Gadai, Zaki, Bauchi", "addr:municipality": "Gadai", "addr:state": "Bauchi", "amenity": "hospital", "building": "hospital", "health_facility:type": "dispensary", "healthcare": "hospital", "name": "Maikore Dispensary", "operator:type": "public", "source": "Bing;ehealthafrica.org", "source:date": "2013"}}, {"type": "way", "id": 301449082, "center": {"lat": 12.2707354, "lon": 10.3065346}, "nodes": [3057010926, 3055051918, 3055051917, 3055051919, 3057010926], "tags": {"addr:district": "Zaki", "addr:full": "Gadai, Zaki, Bauchi", "addr:municipality": "Gadai", "addr:state": "Bauchi", "amenity": "hospital", "building": "hospital", "health_facility:type": "dispensary", "healthcare": "hospital", "name": "Kirchibuwa Dispensary", "operator:type": "public", "source": "Bing;ehealthafrica.org", "source:date": "2014"}}, {"type": "way", "id": 301449084, "center": {"lat": 12.3775512, "lon": 10.3636458}, "nodes": [3057010932, 3055053038, 3055053037, 3055053039, 3057010932], "tags": {"addr:district": "Zaki", "addr:full": "Mainako South, Zaki, Bauchi", "addr:municipality": "Mainako South", "addr:state": "Bauchi", "amenity": "hospital", "building": "hospital", "health_facility:type": "dispensary", "healthcare": "hospital", "name": "Sabakuwa Yamma", "operator:type": "public", "source": "Bing;ehealthafrica.org", "source:date": "2013"}}, {"type": "way", "id": 301449087, "center": {"lat": 12.2845735, "lon": 10.3454603}, "nodes": [3057010929, 3055051922, 3055051921, 3055051923, 3057010929], "tags": {"addr:district": "Zaki", "addr:full": "Katagum, Zaki, Bauchi", "addr:municipality": "Katagum", "addr:state": "Bauchi", "alt_name": "Town Maternity", "amenity": "hospital", "building": "hospital", "healthcare": "hospital", "name": "National Polio Immunization Office", "operator:type": "public", "source": "Bing;ehealthafrica.org", "source:date": "2013"}}, {"type": "way", "id": 301449089, "center": {"lat": 12.3051343, "lon": 10.2880321}, "nodes": [3055052878, 3055052879, 3057010931, 3055052876, 3055052878], "tags": {"addr:district": "Zaki", "addr:full": "Gadai, Zaki, Bauchi", "addr:municipality": "Gadai", "addr:state": "Bauchi", "amenity": "hospital", "building": "hospital", "health_facility:type": "dispensary", "healthcare": "hospital", "name": "Sabakuwa Dispensary", "operator:type": "public", "source": "Bing;ehealthafrica.org", "source:date": "2013"}}, {"type": "way", "id": 301449090, "center": {"lat": 12.3717751, "lon": 10.2749031}, "nodes": [3057010928, 3055053036, 3055053034, 3055053033, 3057010928], "tags": {"addr:district": "Zaki", "addr:full": "Maiwa, Zaki, Bauchi", "addr:municipality": "Maiwa", "addr:state": "Bauchi", "amenity": "hospital", "building": "hospital", "health_facility:type": "dispensary", "healthcare": "hospital", "name": "Maiwa Dispensary", "operator:type": "public", "source": "Bing;ehealthafrica.org", "source:date": "2014"}}, {"type": "way", "id": 301449093, "center": {"lat": 12.3320345, "lon": 10.3485098}, "nodes": [3057010930, 3055052902, 3055052905, 3055052906, 3055052907, 3055052910, 3057010930], "tags": {"addr:district": "Zaki", "addr:full": "Gadai, Zaki, Bauchi", "addr:municipality": "Gadai", "addr:state": "Bauchi", "amenity": "hospital", "building": "hospital", "health_facility:type": "health_centre", "healthcare": "hospital", "name": "Primary Health Center Barnesu", "operator:type": "public", "source": "Bing;ehealthafrica.org", "source:date": "2013"}}, {"type": "way", "id": 301449372, "center": {"lat": 12.2567874, "lon": 10.1753807}, "nodes": [3057015885, 3055054685, 3055054683, 3055054682, 3057015885], "tags": {"addr:district": "Zaki", "addr:full": "Gadai, Zaki, Bauchi", "addr:municipality": "Gadai", "addr:state": "Bauchi", "amenity": "hospital", "building": "hospital", "health_facility:type": "dispensary", "healthcare": "hospital", "name": "Gadai Dispensary", "operator:type": "public", "source": "Bing;ehealthafrica.org", "source:date": "2013"}}, {"type": "way", "id": 301452392, "center": {"lat": 12.1243659, "lon": 10.2910999}, "nodes": [7716335231, 3055090456, 3055090454, 3055090453, 7716335231], "tags": {"addr:district": "Zaki", "addr:full": "Sakwa, Zaki, Bauchi", "addr:municipality": "Sakwa", "addr:state": "Bauchi", "amenity": "hospital", "building": "hospital", "health_facility:type": "dispensary", "healthcare": "hospital", "name": "Sakwa Dispensary", "operator:type": "public", "source": "Bing;ehealthafrica.org", "source:date": "2014"}}, {"type": "way", "id": 301452400, "center": {"lat": 12.1915493, "lon": 10.2837543}, "nodes": [3056994469, 3055090493, 3055090491, 3055090490, 3056994469], "tags": {"addr:district": "Zaki", "addr:full": "Makawa, Zaki, Bauchi", "addr:municipality": "Makawa", "addr:state": "Bauchi", "amenity": "hospital", "health_facility:type": "dispensary", "healthcare": "hospital", "name": "Malawasai Dispensary", "operator:type": "public", "source": "Bing;ehealthafrica.org", "source:date": "2014"}}, {"type": "way", "id": 301639269, "center": {"lat": 11.8345639, "lon": 10.0468698}, "nodes": [3057181170, 3057182998, 3057182996, 3057182995, 3057181170], "tags": {"addr:district": "Itas/Gadau", "addr:full": "Zubiki, Itas/Gadau, Bauchi", "addr:municipality": "Zubiki", "addr:state": "Bauchi", "amenity": "hospital", "building": "hospital", "health_facility:type": "dispensary", "healthcare": "hospital", "name": "Zubuki Health Post", "operator:type": "public", "source": "Bing;ehealthafrica.org", "source:date": "2013"}}, {"type": "way", "id": 301639270, "center": {"lat": 11.8006408, "lon": 10.1685019}, "nodes": [3057181167, 3057182971, 3057182969, 3057182968, 3057181167], "tags": {"addr:district": "Itas/Gadau", "addr:full": "Kashuri, Itas/Gadau, Bauchi", "addr:municipality": "Kashuri", "addr:state": "Bauchi", "amenity": "hospital", "building": "hospital", "health_facility:type": "dispensary", "healthcare": "hospital", "name": "Katsinawa Dispensary", "operator:type": "public", "source": "Bing;ehealthafrica.org", "source:date": "2013"}}, {"type": "way", "id": 301639271, "center": {"lat": 11.858545, "lon": 10.0395722}, "nodes": [3057181168, 3057183002, 3057183000, 3057182999, 3057181168], "tags": {"addr:district": "Itas/Gadau", "addr:full": "Zubiki, Itas/Gadau, Bauchi", "addr:municipality": "Zubiki", "addr:state": "Bauchi", "amenity": "hospital", "building": "hospital", "health_facility:type": "dispensary", "healthcare": "hospital", "name": "Mazai Dispensary", "operator:type": "public", "source": "Bing;ehealthafrica.org", "source:date": "2013"}}, {"type": "way", "id": 301639272, "center": {"lat": 11.7000617, "lon": 10.0417958}, "nodes": [3057181163, 3057182942, 3057182940, 3057182939, 3057181163], "tags": {"addr:district": "Jama'Are", "addr:full": "Galdimari, Jama'Are, Bauchi", "addr:municipality": "Galdimari", "addr:state": "Bauchi", "amenity": "hospital", "building": "hospital", "health_facility:type": "dispensary", "healthcare": "hospital", "name": "Baburti Dispensary", "operator:type": "public", "source": "Bing;ehealthafrica.org", "source:date": "2013"}}, {"type": "way", "id": 301639273, "center": {"lat": 11.7031244, "lon": 10.1735125}, "nodes": [3057181164, 3057182944, 3057182943, 3057182946, 3057182945, 3057182947, 3057181164], "tags": {"addr:district": "Katagum", "addr:full": "Madangala, Katagum, Bauchi", "addr:municipality": "Madangala", "addr:state": "Bauchi", "amenity": "hospital", "building": "hospital", "health_facility:type": "dispensary", "healthcare": "hospital", "name": "Chara Chara Dispensary", "operator:type": "public", "source": "Bing;ehealthafrica.org", "source:date": "2013"}}, {"type": "way", "id": 301639274, "center": {"lat": 11.7442847, "lon": 10.10611}, "nodes": [3057181169, 3057182952, 3057182954, 3057182951, 9814553575, 3057182953, 3057182950, 3057181169], "tags": {"addr:district": "Katagum", "addr:full": "Magwanshi, Katagum, Bauchi", "addr:municipality": "Magwanshi", "addr:state": "Bauchi", "amenity": "hospital", "building": "hospital", "health_facility:type": "dispensary", "healthcare": "hospital", "name": "Ragwan Health Clinic", "operator:type": "public", "source": "Bing;ehealthafrica.org", "source:date": "2014"}}, {"type": "way", "id": 301639418, "center": {"lat": 12.334659, "lon": 10.3517222}, "nodes": [3057011134, 9751374657, 9751385381, 9751385379, 9751385378, 9751385380, 9751374656, 3057190034, 3057011134], "tags": {"addr:district": "Zaki", "addr:full": "Gadai, Zaki, Bauchi", "addr:municipality": "Gadai", "addr:state": "Bauchi", "alt_name": "Sansan Dispensary", "amenity": "hospital", "building": "yes", "health_facility:type": "dispensary", "healthcare": "hospital", "name": "Tarbuwa Dispensary", "operator:type": "public", "source": "Bing;ehealthafrica.org;microsoft/BuildingFootprints", "source:date": "2014"}}, {"type": "way", "id": 301639450, "center": {"lat": 11.9536211, "lon": 10.00558}, "nodes": [3057067402, 3057189829, 3057189828, 3057189830, 3057189831, 3057189832, 3057067402], "tags": {"addr:district": "Itas/Gadau", "addr:full": "Itas, Itas/Gadau, Bauchi", "addr:municipality": "Itas", "addr:state": "Bauchi", "amenity": "hospital", "building": "hospital", "health_facility:type": "dispensary", "healthcare": "hospital", "name": "Babu Gudu Maternity", "operator:type": "public", "source": "Bing;ehealthafrica.org", "source:date": "2013"}}, {"type": "way", "id": 301670189, "center": {"lat": 11.5554561, "lon": 10.2539671}, "nodes": [3057611093, 3057611106, 3057611104, 3057611103, 3057611093], "tags": {"addr:district": "Giade", "addr:full": "Isawa, Giade, Bauchi", "addr:municipality": "Isawa", "addr:state": "Bauchi", "amenity": "hospital", "building": "hospital", "health_facility:type": "dispensary", "healthcare": "hospital", "name": "Jawo Dispensary", "operator:type": "public", "source": "Bing;ehealthafrica.org", "source:date": "2013"}}, {"type": "way", "id": 301670239, "center": {"lat": 11.6248373, "lon": 10.2005703}, "nodes": [3057611085, 3057611689, 3057611687, 3057611688, 3057611685, 3057611684, 3057611682, 3057611680, 3057611683, 3057611681, 3057611085], "tags": {"addr:district": "Katagum", "addr:full": "Bidir, Katagum, Bauchi", "addr:municipality": "Bidir", "addr:state": "Bauchi", "amenity": "hospital", "building": "hospital", "health_facility:type": "dispensary", "healthcare": "hospital", "name": "Bidir Maternity", "operator:type": "public", "source": "Bing;ehealthafrica.org", "source:date": "2014"}}, {"type": "way", "id": 301670240, "center": {"lat": 11.666652, "lon": 10.1995053}, "nodes": [3057611099, 3057611712, 3057611709, 3057611711, 3057611708, 3057611707, 3057611702, 3057611701, 3057611704, 3057611703, 3057611705, 3057611706, 3057611099], "tags": {"addr:district": "Katagum", "addr:full": "Bakin Kasuwa, Katagum, Bauchi", "addr:municipality": "Bakin Kasuwa", "addr:state": "Bauchi", "amenity": "hospital", "building": "hospital", "health_facility:type": "dispensary", "healthcare": "hospital", "name": "Thinade Maternity", "operator:type": "public", "source": "Bing;ehealthafrica.org", "source:date": "2014"}}, {"type": "way", "id": 301670243, "center": {"lat": 11.5443275, "lon": 10.3204878}, "nodes": [3057611092, 9717708223, 3057609497, 3057609496, 3057609494, 9717708221, 9717708222, 3057611092], "tags": {"addr:district": "Giade", "addr:full": "Zirami, Giade, Bauchi", "addr:municipality": "Zirami", "addr:state": "Bauchi", "amenity": "hospital", "building": "hospital", "health_facility:type": "dispensary", "healthcare": "hospital", "name": "Jarmawo Maternal And Child Health Clinic", "operator:type": "public", "source": "Bing;ehealthafrica.org", "source:date": "2013"}}, {"type": "way", "id": 301670245, "center": {"lat": 11.5965994, "lon": 10.2437268}, "nodes": [3057611090, 3057611671, 3057611669, 3057611668, 3057611090], "tags": {"addr:district": "Giade", "addr:full": "Isawa, Giade, Bauchi", "addr:municipality": "Isawa", "addr:state": "Bauchi", "amenity": "hospital", "building": "hospital", "health_facility:type": "dispensary", "healthcare": "hospital", "name": "Ganduha Dispensary", "operator:type": "public", "source": "Bing;ehealthafrica.org", "source:date": "2013"}}, {"type": "way", "id": 301670246, "center": {"lat": 11.5618012, "lon": 10.3526298}, "nodes": [3057611101, 3057611638, 3057611636, 3057611635, 3057611101], "tags": {"addr:district": "Giade", "addr:full": "Zirami, Giade, Bauchi", "addr:municipality": "Zirami", "addr:state": "Bauchi", "amenity": "hospital", "building": "hospital", "health_facility:type": "dispensary", "healthcare": "hospital", "name": "Zirami Dispensary", "operator:type": "public", "source": "Bing;ehealthafrica.org", "source:date": "2013"}}, {"type": "way", "id": 301670248, "center": {"lat": 11.624146, "lon": 10.2015683}, "nodes": [3057611084, 3057611678, 3057611676, 3057611677, 3057611084], "tags": {"addr:district": "Katagum", "addr:full": "Bidir, Katagum, Bauchi", "addr:municipality": "Bidir", "addr:state": "Bauchi", "amenity": "hospital", "building": "hospital", "health_facility:type": "dispensary", "healthcare": "hospital", "name": "Bidir Dipensary", "operator:type": "public", "source": "Bing;ehealthafrica.org", "source:date": "2013"}}, {"type": "way", "id": 301670249, "center": {"lat": 11.5390573, "lon": 10.2884325}, "nodes": [3057611087, 3057609493, 3057609491, 3057609490, 3057611087], "tags": {"addr:district": "Giade", "addr:full": "Faguji, Giade, Bauchi", "addr:municipality": "Faguji", "addr:state": "Bauchi", "amenity": "hospital", "building": "hospital", "health_facility:type": "dispensary", "healthcare": "hospital", "name": "Dingashi Dispensary", "operator:type": "public", "source": "Bing;ehealthafrica.org", "source:date": "2013"}}, {"type": "way", "id": 301670250, "center": {"lat": 11.6730211, "lon": 10.198779}, "nodes": [3057611088, 3057611715, 3057611716, 3057611714, 3057611088], "tags": {"addr:district": "Katagum", "addr:full": "Bakin Kasuwa, Katagum, Bauchi", "addr:municipality": "Bakin Kasuwa", "addr:state": "Bauchi", "amenity": "hospital", "building": "hospital", "health_facility:type": "health_centre", "healthcare": "hospital", "name": "Fed. Medical Center Azare", "operator:type": "public", "source": "Bing;ehealthafrica.org", "source:date": "2013"}}, {"type": "way", "id": 301670251, "center": {"lat": 11.575681, "lon": 10.2017969}, "nodes": [3057611100, 3057611652, 3057611650, 3057611649, 3057611100], "tags": {"addr:district": "Giade", "addr:full": "Isawa, Giade, Bauchi", "addr:municipality": "Isawa", "addr:state": "Bauchi", "amenity": "hospital", "building": "hospital", "health_facility:type": "dispensary", "healthcare": "hospital", "name": "Yarimari Dispensary", "operator:type": "public", "source": "Bing;ehealthafrica.org", "source:date": "2013"}}, {"type": "way", "id": 301670252, "center": {"lat": 11.6484873, "lon": 10.3222221}, "nodes": [3057611086, 3057611693, 3057611691, 3057611690, 3057611086], "tags": {"addr:district": "Katagum", "addr:full": "Buskuri, Katagum, Bauchi", "addr:municipality": "Buskuri", "addr:state": "Bauchi", "amenity": "hospital", "building": "hospital", "health_facility:type": "dispensary", "healthcare": "hospital", "name": "Buskuri Dispensary", "operator:type": "public", "source": "Bing;ehealthafrica.org", "source:date": "2013"}}, {"type": "way", "id": 301670253, "center": {"lat": 11.6622522, "lon": 10.2322749}, "nodes": [3057611091, 9814777282, 9814777281, 9814777280, 9814777279, 3057611698, 3057611696, 3057611697, 3057611694, 3057611695, 3057611091], "tags": {"addr:district": "Katagum", "addr:full": "Matsango, Katagum, Bauchi", "addr:municipality": "Matsango", "addr:state": "Bauchi", "amenity": "hospital", "building": "hospital", "health_facility:type": "dispensary", "healthcare": "hospital", "name": "Gursoli Maternity", "operator:type": "public", "source": "Bing;ehealthafrica.org", "source:date": "2014"}}, {"type": "way", "id": 301670266, "center": {"lat": 11.6045784, "lon": 10.8655829}, "nodes": [3057528225, 3057612419, 3057612417, 3057612416, 3057528225], "tags": {"addr:district": "Damban", "addr:full": "Minchika, Damban, Bauchi", "addr:municipality": "Minchika", "addr:state": "Bauchi", "amenity": "hospital", "building": "hospital", "health_facility:type": "dispensary", "healthcare": "hospital", "name": "Tale Dispensary", "operator:type": "public", "source": "Bing;ehealthafrica.org", "source:date": "2013"}}, {"type": "way", "id": 301670267, "center": {"lat": 11.7563095, "lon": 10.8300991}, "nodes": [3057442239, 3057612864, 3057612863, 3057612861, 3057442239], "tags": {"addr:district": "Damban", "addr:full": "Gargawa, Damban, Bauchi", "addr:municipality": "Gargawa", "addr:state": "Bauchi", "amenity": "hospital", "building": "hospital", "health_facility:type": "dispensary", "healthcare": "hospital", "name": "Luchambi Dispensary", "operator:type": "public", "source": "Bing;ehealthafrica.org", "source:date": "2013"}}, {"type": "way", "id": 301670268, "center": {"lat": 11.8169876, "lon": 10.4061171}, "nodes": [3057336170, 3057613157, 3057613155, 3057613154, 3057336170], "tags": {"addr:district": "Katagum", "addr:full": "Madara, Katagum, Bauchi", "addr:municipality": "Madara", "addr:state": "Bauchi", "amenity": "hospital", "building": "hospital", "health_facility:type": "dispensary", "healthcare": "hospital", "name": "Jumberi Dispensary", "operator:type": "public", "source": "Bing;ehealthafrica.org", "source:date": "2013"}}, {"type": "way", "id": 301670269, "center": {"lat": 11.5565731, "lon": 10.4132556}, "nodes": [3057568434, 3057612341, 3057612343, 3057612339, 3057568434], "tags": {"addr:district": "Katagum", "addr:full": "Chinade, Katagum, Bauchi", "addr:municipality": "Chinade", "addr:state": "Bauchi", "amenity": "hospital", "building": "hospital", "health_facility:type": "dispensary", "healthcare": "hospital", "name": "Badderi Dispensary", "operator:type": "public", "source": "Bing;ehealthafrica.org", "source:date": "2014"}}, {"type": "way", "id": 301670271, "center": {"lat": 11.6560831, "lon": 10.6018673}, "nodes": [3057558470, 3057612491, 3057612490, 3057612492, 3057558470], "tags": {"addr:district": "Damban", "addr:full": "Fagam, Damban, Bauchi", "addr:municipality": "Fagam", "addr:state": "Bauchi", "amenity": "hospital", "building": "hospital", "health_facility:type": "dispensary", "healthcare": "hospital", "name": "Birniwa Dispensary", "operator:type": "public", "source": "Bing;ehealthafrica.org", "source:date": "2013"}}, {"type": "way", "id": 301670272, "center": {"lat": 11.6489171, "lon": 10.8833933}, "nodes": [3057528218, 3057612489, 3057612487, 3057612486, 3057528218], "tags": {"addr:district": "Damban", "addr:full": "Yayari, Damban, Bauchi", "addr:municipality": "Yayari", "addr:state": "Bauchi", "amenity": "hospital", "building": "hospital", "health_facility:type": "dispensary", "healthcare": "hospital", "name": "Gaina Dispensary", "operator:type": "public", "source": "Bing;ehealthafrica.org", "source:date": "2013"}}, {"type": "way", "id": 301670273, "center": {"lat": 11.7932675, "lon": 10.2113286}, "nodes": [3057194885, 3057613148, 3057613149, 3057613147, 3057194885], "tags": {"addr:district": "Itas/Gadau", "addr:full": "Kashuri, Itas/Gadau, Bauchi", "addr:municipality": "Kashuri", "addr:state": "Bauchi", "amenity": "hospital", "building": "hospital", "health_facility:type": "dispensary", "healthcare": "hospital", "name": "Kashuri Dispensary", "operator:type": "public", "source": "Bing;ehealthafrica.org", "source:date": "2013"}}, {"type": "way", "id": 301670274, "center": {"lat": 11.7747394, "lon": 10.892721}, "nodes": [3057442241, 3057612893, 3057612891, 3057612890, 3057442241], "tags": {"addr:district": "Damban", "addr:full": "Zaura, Damban, Bauchi", "addr:municipality": "Zaura", "addr:state": "Bauchi", "amenity": "hospital", "building": "hospital", "health_facility:type": "dispensary", "healthcare": "hospital", "name": "Ngaima Health Center", "operator:type": "public", "source": "Bing;ehealthafrica.org", "source:date": "2014"}}, {"type": "way", "id": 301670275, "center": {"lat": 11.6828179, "lon": 10.7658151}, "nodes": [3057528221, 3057612784, 3057612782, 3057612781, 3057528221], "tags": {"addr:district": "Damban", "addr:full": "Muzuwa, Damban, Bauchi", "addr:municipality": "Muzuwa", "addr:state": "Bauchi", "amenity": "hospital", "building": "hospital", "health_facility:type": "dispensary", "healthcare": "hospital", "name": "Madawa Dispensary", "operator:type": "public", "source": "Bing;ehealthafrica.org", "source:date": "2013"}}, {"type": "way", "id": 301670276, "center": {"lat": 11.8259157, "lon": 10.7915821}, "nodes": [3057442242, 3057613165, 3057613164, 3057613162, 3057442242], "tags": {"addr:district": "Gamawa", "addr:full": "Tarmasuwa, Gamawa, Bauchi", "addr:municipality": "Tarmasuwa", "addr:state": "Bauchi", "amenity": "hospital", "building": "hospital", "health_facility:type": "dispensary", "healthcare": "hospital", "name": "Tarmasuwa Maternity", "operator:type": "public", "source": "Bing;ehealthafrica.org", "source:date": "2013"}}, {"type": "way", "id": 301670277, "center": {"lat": 11.8250169, "lon": 10.8337652}, "nodes": [3057442238, 3057613161, 3057613159, 3057613158, 3057442238], "tags": {"addr:district": "Gamawa", "addr:full": "Zindiwa, Gamawa, Bauchi", "addr:municipality": "Zindiwa", "addr:state": "Bauchi", "amenity": "hospital", "building": "hospital", "health_facility:type": "dispensary", "healthcare": "hospital", "name": "Garin Kure Yamma Dispensary", "operator:type": "public", "source": "Bing;ehealthafrica.org", "source:date": "2013"}}, {"type": "way", "id": 301670278, "center": {"lat": 11.6699042, "lon": 10.9052675}, "nodes": [3057450369, 3057612501, 3057612499, 3057612498, 3057450369], "tags": {"addr:district": "Damban", "addr:full": "Yayari, Damban, Bauchi", "addr:municipality": "Yayari", "addr:state": "Bauchi", "amenity": "hospital", "building": "hospital", "health_facility:type": "dispensary", "healthcare": "hospital", "name": "G/Jalo Dispensary", "operator:type": "public", "source": "Bing;ehealthafrica.org", "source:date": "2013"}}, {"type": "way", "id": 301670279, "center": {"lat": 11.6815669, "lon": 10.4835491}, "nodes": [3057568437, 3057612779, 3057612780, 3057612778, 3057568437], "tags": {"addr:district": "Katagum", "addr:full": "Madara, Katagum, Bauchi", "addr:municipality": "Madara", "addr:state": "Bauchi", "amenity": "hospital", "building": "hospital", "health_facility:type": "dispensary", "healthcare": "hospital", "name": "Lariski Dispensary", "operator:type": "public", "source": "Bing;ehealthafrica.org", "source:date": "2013"}}, {"type": "way", "id": 301670280, "center": {"lat": 11.6166013, "lon": 10.6752786}, "nodes": [3057558472, 3057612433, 3057612431, 3057612430, 3057558472], "tags": {"addr:district": "Damban", "addr:full": "Garuza, Damban, Bauchi", "addr:municipality": "Garuza", "addr:state": "Bauchi", "amenity": "hospital", "building": "hospital", "health_facility:type": "dispensary", "healthcare": "hospital", "name": "Chadi Dispensary", "operator:type": "public", "source": "Bing;ehealthafrica.org", "source:date": "2013"}}, {"type": "way", "id": 301670281, "center": {"lat": 11.7520624, "lon": 10.63136}, "nodes": [3057367771, 3057612860, 3057612858, 3057612857, 3057367771], "tags": {"addr:district": "Gamawa", "addr:full": "Taranka, Gamawa, Bauchi", "addr:municipality": "Taranka", "addr:state": "Bauchi", "amenity": "hospital", "building": "hospital", "health_facility:type": "dispensary", "healthcare": "hospital", "name": "Taranka Dispensary", "operator:type": "public", "source": "Bing;ehealthafrica.org", "source:date": "2013"}}, {"type": "way", "id": 301670282, "center": {"lat": 11.5875641, "lon": 10.7949745}, "nodes": [3057528217, 3057612384, 3057612383, 3057612381, 3057528217], "tags": {"addr:district": "Damban", "addr:full": "Fagarau, Damban, Bauchi", "addr:municipality": "Fagarau", "addr:state": "Bauchi", "amenity": "hospital", "building": "hospital", "health_facility:type": "dispensary", "healthcare": "hospital", "name": "Fagarau Dispensary", "operator:type": "public", "source": "Bing;ehealthafrica.org", "source:date": "2013"}}, {"type": "way", "id": 301670283, "center": {"lat": 11.7841651, "lon": 10.3016536}, "nodes": [3057194886, 3057613140, 3057613141, 3057613139, 3057194886], "tags": {"addr:district": "Itas/Gadau", "addr:full": "Kashuri, Itas/Gadau, Bauchi", "addr:municipality": "Kashuri", "addr:state": "Bauchi", "amenity": "hospital", "building": "hospital", "health_facility:type": "dispensary", "healthcare": "hospital", "name": "Lizai Dispensary", "operator:type": "public", "source": "Bing;ehealthafrica.org", "source:date": "2013"}}, {"type": "way", "id": 301670284, "center": {"lat": 11.699585, "lon": 10.778321},