{"version": 0.6, "generator": "Overpass API 0.7.61.5 4133829e", "osm3s": {"timestamp_osm_base": "2023-10-31T20:52:36Z", "copyright": "The data included in this document is from www.openstreetmap.org. The data is made available under ODbL."}, "elements": [{"type": "node", "id": 294933619, "lat": 14.722861, "lon": -90.643176, "tags": {"amenity": "hospital", "emergency": "yes", "name": "Unidad Asistencial"}}, {"type": "node", "id": 307148439, "lat": 16.7329086, "lon": -92.6368794, "tags": {"addr:city": "San Crist\u00f3bal de Las Casas", "addr:housenumber": "24", "addr:postcode": "29250", "addr:street": "Insurgentes", "amenity": "hospital", "healthcare": "hospital", "name": "Hospital de la Mujer", "phone": "019676783834", "website": "http://hdelamujer.salud.gob.mx"}}, {"type": "node", "id": 319436637, "lat": 19.3403526, "lon": -99.199841, "tags": {"amenity": "hospital", "created_by": "Potlatch 0.10f", "name": "Hospital San Angel Inn"}}, {"type": "node", "id": 323247345, "lat": 18.9198439, "lon": -99.2371835, "tags": {"amenity": "hospital", "building": "office", "name": "Servicios de Salud de Morelos"}}, {"type": "node", "id": 331600009, "lat": 19.4223048, "lon": -99.2063529, "tags": {"addr:city": "Cd de M\u00e9xico", "addr:country": "MX", "addr:housenumber": "26", "addr:postcode": "11000", "addr:street": "Calle Acueducto R\u00edo Hondo", "amenity": "hospital", "name": "Santa Teresita"}}, {"type": "node", "id": 346299634, "lat": 18.9557282, "lon": -99.2418536, "tags": {"amenity": "hospital", "healthcare": "hospital", "name": "Bellavista"}}, {"type": "node", "id": 350462105, "lat": 18.9401427, "lon": -99.2369661, "tags": {"amenity": "hospital", "name": "Inovamed"}}, {"type": "node", "id": 356158382, "lat": 19.2932675, "lon": -98.2467002, "tags": {"amenity": "hospital", "name": "Centro de Salud"}}, {"type": "node", "id": 441391126, "lat": 14.9198181, "lon": -92.2656712, "tags": {"amenity": "hospital", "emergency": "yes", "healthcare": "hospital", "name": "IMSS", "operator": "Instituto Mexicano del Seguro Social", "operator:short": "IMSS", "operator:wikidata": "Q904999"}}, {"type": "node", "id": 441399126, "lat": 14.8862674, "lon": -92.2903475, "tags": {"addr:city": "Tapachula", "amenity": "hospital", "emergency": "yes", "name": "Hospital Regional Tapachula", "operator": "Hospital"}}, {"type": "node", "id": 460432058, "lat": 19.1982585, "lon": -96.1581578, "tags": {"amenity": "hospital", "healthcare": "hospital", "name": "Hospital Regional (PEMEX)"}}, {"type": "node", "id": 496687174, "lat": 19.3078278, "lon": -98.9203085, "tags": {"amenity": "hospital"}}, {"type": "node", "id": 599906811, "lat": 17.9944131, "lon": -92.9360686, "tags": {"amenity": "hospital", "healthcare": "hospital", "name": "Cl\u00ednica Air"}}, {"type": "node", "id": 613379529, "lat": 14.6017913, "lon": -90.5626886, "tags": {"addr:housenumber": "17 avenida 28-01 zona 11", "amenity": "hospital", "name": "Hospital Novicentro"}}, {"type": "node", "id": 648638165, "lat": 19.421712, "lon": -99.172982, "tags": {"amenity": "hospital", "healthcare": "hospital", "name": "Hospital San \u00c1ngel Inn Chapultepec"}}, {"type": "node", "id": 739035810, "lat": 19.3366121, "lon": -99.2009685, "tags": {"amenity": "hospital", "healthcare": "hospital", "name": "Cl\u00ednica Hospital 8 IMSS", "operator": "IMSS"}}, {"type": "node", "id": 739036171, "lat": 19.30613, "lon": -99.1851961, "tags": {"amenity": "hospital", "name": "Instituto Nacional de Pediatria", "old_name": "Hospital Infantil de la Instituci\u00f3n Mexicana de Asistencia a la Ni\u00f1ez (IMAN)", "website": "https://www.pediatria.gob.mx/", "wikidata": "Q5917569", "wikimedia_commons": "Category:Instituto Nacional de Pediatr\u00eda", "wikipedia": "es:Instituto Nacional de Pediatr\u00eda"}}, {"type": "node", "id": 767323891, "lat": 19.4064813, "lon": -99.1495056, "tags": {"amenity": "hospital", "healthcare": "hospital", "healthcare:speciality": "dermatology", "name": "Hospital Dermatol\u00f3gico Ladislao Pascua", "operator": "Gobierno del Distrito Federal"}}, {"type": "node", "id": 775889012, "lat": 14.572446, "lon": -90.5260848, "tags": {"addr:full": "24 calle 15-75 zona 13", "amenity": "hospital", "name": "Sanatorio los Pinos"}}, {"type": "node", "id": 837167439, "lat": 19.3673609, "lon": -99.1803765, "tags": {"addr:housenumber": "1", "addr:postcode": "03940", "addr:street": "Av R\u00edo Mixcoac", "amenity": "hospital", "name": "Dentix", "phone": "+52 55 56623593;+52 55 56623597"}}, {"type": "node", "id": 855761356, "lat": 19.367824, "lon": -99.1865152, "tags": {"amenity": "hospital", "healthcare": "hospital", "name": "Santa Coleta"}}, {"type": "node", "id": 901848837, "lat": 19.4275314, "lon": -99.159244, "tags": {"amenity": "hospital", "healthcare": "hospital", "name": "M\u00e9dica Londres"}}, {"type": "node", "id": 922956616, "lat": 14.6105273, "lon": -90.5055045, "tags": {"addr:housenumber": "3\u00aa. Calle final 10-70 zona 10", "amenity": "hospital", "healthcare": "hospital", "name": "Hospital Ciudad Vieja", "source": "KG Ground Survey 2015"}}, {"type": "node", "id": 922963937, "lat": 14.6460491, "lon": -90.5111504, "tags": {"addr:housenumber": "8\u00aa. Avenida 2-48 zona 1", "amenity": "hospital", "name": "Hospital Los Cedros", "wheelchair": "yes"}}, {"type": "node", "id": 922998738, "lat": 14.5741238, "lon": -90.4831138, "tags": {"addr:housenumber": "25-19, 5to Nivel, zona 15, VHI,", "addr:street": "Bulevar Vista Hermosa", "amenity": "hospital", "description": "Consulta Externa", "name": "Cl\u00ednicas Multim\u00e9dica", "opening_hours": "08:00-18:00"}}, {"type": "node", "id": 923010292, "lat": 14.6384785, "lon": -90.5168824, "tags": {"addr:housenumber": "11 calle 3-52 Zona 1", "amenity": "hospital", "name": "Hospital Santa Margarita"}}, {"type": "node", "id": 923432057, "lat": 14.6241309, "lon": -90.5035369, "tags": {"addr:housenumber": "25 Av 23-98 Zona 5", "amenity": "hospital", "name": "Hospital Privado La Asuncion"}}, {"type": "node", "id": 923463129, "lat": 14.602297, "lon": -90.5424728, "tags": {"addr:housenumber": "10 Avenida 14-77 Zona 12", "amenity": "hospital", "name": "Sanatorio Nuestra Senora de Fatima"}}, {"type": "node", "id": 934478214, "lat": 19.615743, "lon": -99.1986815, "tags": {"amenity": "hospital", "name": "Clinica IMSS 184"}}, {"type": "node", "id": 958694701, "lat": 19.4547365, "lon": -99.1809227, "tags": {"amenity": "hospital", "healthcare": "hospital", "name": "Instituto Nacional de Higiene"}}, {"type": "node", "id": 995703365, "lat": 19.2821821, "lon": -98.4377662, "tags": {"amenity": "hospital", "emergency": "ambulance_station", "name": "Cruz Roja Mexicana"}}, {"type": "node", "id": 995703393, "lat": 19.2822587, "lon": -98.4371138, "tags": {"amenity": "hospital", "name": "Dr Francisco Mac\u00edas Alonso"}}, {"type": "node", "id": 1015230879, "lat": 19.2683926, "lon": -99.1392026, "tags": {"amenity": "hospital", "name": "santa maria tepepan"}}, {"type": "node", "id": 1098516117, "lat": 15.3057572, "lon": -90.2345674, "tags": {"amenity": "hospital"}}, {"type": "node", "id": 1098525865, "lat": 15.2933182, "lon": -90.1133517, "tags": {"amenity": "hospital"}}, {"type": "node", "id": 1102733086, "lat": 15.7644746, "lon": -96.1344972, "tags": {"amenity": "hospital"}}, {"type": "node", "id": 1102735470, "lat": 15.7635106, "lon": -96.1326527, "tags": {"amenity": "hospital"}}, {"type": "node", "id": 1102735476, "lat": 15.7636835, "lon": -96.1329981, "tags": {"amenity": "hospital"}}, {"type": "node", "id": 1102737189, "lat": 15.7617422, "lon": -96.1294543, "tags": {"amenity": "hospital"}}, {"type": "node", "id": 1134652912, "lat": 19.4952306, "lon": -98.4708429, "tags": {"amenity": "hospital"}}, {"type": "node", "id": 1138307469, "lat": 18.9201276, "lon": -99.1635834, "tags": {"amenity": "hospital", "healthcare": "hospital", "name": "Unidad Medica Familiar 23 IMSS"}}, {"type": "node", "id": 1254733776, "lat": 16.3364465, "lon": -96.5979398, "tags": {"amenity": "hospital"}}, {"type": "node", "id": 1337154829, "lat": 16.7570851, "lon": -93.1054511, "tags": {"amenity": "hospital"}}, {"type": "node", "id": 1382469311, "lat": 14.6781553, "lon": -92.1418627, "tags": {"amenity": "hospital", "emergency": "no", "name": "Centro Medico"}}, {"type": "node", "id": 1382469391, "lat": 14.6778076, "lon": -92.1419406, "tags": {"amenity": "hospital", "emergency": "no", "name": "Cruz Roja Guatemala"}}, {"type": "node", "id": 1466215604, "lat": 14.6478838, "lon": -90.5146857, "tags": {"amenity": "hospital", "emergency": "no", "name": "Fundaci\u00f3n Pedi\u00e1trica Guatemalteca", "wheelchair": "yes"}}, {"type": "node", "id": 1466294105, "lat": 19.4442171, "lon": -99.1354083, "tags": {"addr:housenumber": "34", "addr:street": "Comonfort", "amenity": "hospital", "healthcare": "hospital", "name": "Centro de Salud Dr. D. Orva\u00f1anos"}}, {"type": "node", "id": 1478201548, "lat": 19.3985249, "lon": -99.1187686, "tags": {"amenity": "hospital", "healthcare": "hospital", "name": "Centro de Salud Jos\u00e9 Zozaya"}}, {"type": "node", "id": 1514442618, "lat": 19.5143881, "lon": -99.2614959, "tags": {"addr:housenumber": "88", "addr:street": "Calle Paseo Alexander von Humboldt", "amenity": "hospital", "emergency": "yes", "name": "Dr. Rio de la Loza (Ginecolog\u00eda)"}}, {"type": "node", "id": 1562224683, "lat": 19.3251863, "lon": -98.2551413, "tags": {"amenity": "hospital", "name": "Centro de Salud"}}, {"type": "node", "id": 1562224687, "lat": 19.3325135, "lon": -98.1940512, "tags": {"amenity": "hospital", "name": "IMSS Unidad M\u00e9dico Familiar No. 10"}}, {"type": "node", "id": 1563326546, "lat": 19.2965545, "lon": -98.153311, "tags": {"amenity": "hospital", "name": "Centro de Salud"}}, {"type": "node", "id": 1563350474, "lat": 19.3196482, "lon": -98.1939607, "tags": {"amenity": "hospital", "name": "IMSS Unidad M\u00e9dico Familiar No. 9"}}, {"type": "node", "id": 1563352102, "lat": 19.3259335, "lon": -98.1860702, "tags": {"amenity": "hospital", "name": "Centro de Salud"}}, {"type": "node", "id": 1570740175, "lat": 19.20008, "lon": -98.2379982, "tags": {"amenity": "hospital", "emergency": "ambulance_station", "name": "Cruz Roja Mexicana Delegaci\u00f3n Zacatelco"}}, {"type": "node", "id": 1570740183, "lat": 19.2149086, "lon": -98.2413386, "tags": {"amenity": "hospital", "name": "IMSS Unidad M\u00e9dico Familiar No. 7"}}, {"type": "node", "id": 1570740184, "lat": 19.2060755, "lon": -98.2492165, "tags": {"amenity": "hospital", "name": "ISSSTE Unidad de Medicina Familiar"}}, {"type": "node", "id": 1571942285, "lat": 19.2063953, "lon": -98.2487395, "tags": {"amenity": "hospital", "name": "Centro de Bienestar IMSS Solidaridad"}}, {"type": "node", "id": 1575988799, "lat": 19.2673322, "lon": -98.2132581, "tags": {"amenity": "hospital", "name": "Centro de Salud de Santa Isabel Xiloxoxtla"}}, {"type": "node", "id": 1584170120, "lat": 19.6154705, "lon": -98.1224065, "tags": {"amenity": "hospital", "name": "Hospital Comunitario de Tlaxco"}}, {"type": "node", "id": 1638018970, "lat": 19.5078478, "lon": -98.8841555, "tags": {"amenity": "hospital", "emergency": "yes", "name": "Hospital Regional Texcoco"}}, {"type": "node", "id": 1668236317, "lat": 19.0338821, "lon": -98.1907632, "tags": {"amenity": "hospital", "emergency": "yes", "name": "Hospital Guadalupe"}}, {"type": "node", "id": 1677011351, "lat": 17.0745168, "lon": -96.7260115, "tags": {"amenity": "hospital", "designation": "Centro Oncologico", "emergency": "no", "name": "Centro de Oncologia y Radioterapia", "source": "Secretaria de Salud"}}, {"type": "node", "id": 1677030562, "lat": 17.0741578, "lon": -96.7260651, "tags": {"amenity": "hospital", "emergency": "no", "name": "Centro de Salud Urbano N\u00b0 2", "source": "Secretaria de Salud"}}, {"type": "node", "id": 1712847466, "lat": 19.612625, "lon": -98.9517111, "tags": {"amenity": "hospital", "emergency": "yes", "name": "Hospital Psiqui\u00e1trico"}}, {"type": "node", "id": 1727298677, "lat": 15.0309585, "lon": -91.1476985, "tags": {"amenity": "hospital", "emergency": "yes", "name": "Cl\u00ednica M\u00e9dica Dr. Henry Hall"}}, {"type": "node", "id": 1727301410, "lat": 15.0314533, "lon": -91.1500804, "tags": {"amenity": "hospital", "emergency": "no", "name": "Laboratorio \"Santa Elena\""}}, {"type": "node", "id": 1727301619, "lat": 15.0320076, "lon": -91.150134, "tags": {"amenity": "hospital", "emergency": "no", "name": "Ultra Diagnosis"}}, {"type": "node", "id": 1728148642, "lat": 19.4602181, "lon": -96.9644515, "tags": {"amenity": "hospital", "healthcare": "hospital"}}, {"type": "node", "id": 1739477425, "lat": 19.3202604, "lon": -98.3086195, "tags": {"amenity": "hospital", "name": "Centro de Salud"}}, {"type": "node", "id": 1739477426, "lat": 19.3284383, "lon": -98.3269227, "tags": {"amenity": "hospital", "name": "Centro de Salud"}}, {"type": "node", "id": 1739477427, "lat": 19.329184, "lon": -98.3049988, "tags": {"amenity": "hospital", "name": "Centro de Salud"}}, {"type": "node", "id": 1739477428, "lat": 19.3309726, "lon": -98.3467894, "tags": {"amenity": "hospital", "name": "Centro de Salud"}}, {"type": "node", "id": 1739477429, "lat": 19.3338914, "lon": -98.3357481, "tags": {"amenity": "hospital", "name": "Centro de Salud"}}, {"type": "node", "id": 1739477430, "lat": 19.33406, "lon": -98.3151329, "tags": {"amenity": "hospital", "name": "Centro de Salud"}}, {"type": "node", "id": 1740845460, "lat": 19.5053772, "lon": -98.3933296, "tags": {"amenity": "hospital"}}, {"type": "node", "id": 1740845532, "lat": 19.5695317, "lon": -98.3779224, "tags": {"amenity": "hospital"}}, {"type": "node", "id": 1740845563, "lat": 19.584352, "lon": -98.4622239, "tags": {"amenity": "hospital"}}, {"type": "node", "id": 1740845625, "lat": 19.5863988, "lon": -98.4289496, "tags": {"amenity": "hospital"}}, {"type": "node", "id": 1740855489, "lat": 19.6024637, "lon": -98.6486083, "tags": {"amenity": "hospital"}}, {"type": "node", "id": 1748758067, "lat": 18.8387149, "lon": -99.5814371, "tags": {"amenity": "hospital", "name": "CAEPS Zumpahuacan"}}, {"type": "node", "id": 1786332727, "lat": 16.7235822, "lon": -92.6521652, "tags": {"amenity": "hospital", "emergency": "yes", "healthcare": "hospital", "name": "Hospital de Las Culturas"}}, {"type": "node", "id": 1788003875, "lat": 14.2809232, "lon": -90.2998989, "tags": {"amenity": "hospital", "name": "Hospital de Cuilapa"}}, {"type": "node", "id": 1837957700, "lat": 16.4457998, "lon": -98.6447321, "tags": {"amenity": "hospital", "name": "centro de salud"}}, {"type": "node", "id": 1865860578, "lat": 18.887124, "lon": -99.0635708, "tags": {"amenity": "hospital", "emergency": "yes", "name": "IMSS Yautepec", "operator": "Instituto Mexicano del Seguro Social"}}, {"type": "node", "id": 1866530591, "lat": 19.0431225, "lon": -98.0464448, "tags": {"amenity": "hospital", "emergency": "yes", "name": "SSA"}}, {"type": "node", "id": 1923843527, "lat": 14.9456449, "lon": -92.2530167, "tags": {"amenity": "hospital", "emergency": "no", "name": "Hospital COFAT"}}, {"type": "node", "id": 1928447541, "lat": 19.0686241, "lon": -98.3192393, "tags": {"amenity": "hospital", "name": "Centro de salud"}}, {"type": "node", "id": 1942354106, "lat": 16.8629326, "lon": -99.9185118, "tags": {"amenity": "hospital", "emergency": "yes", "name": "Sanatorio Sagrado Coraz\u00f3n"}}, {"type": "node", "id": 1942383678, "lat": 16.872983, "lon": -99.8874491, "tags": {"amenity": "hospital", "emergency": "yes", "healthcare": "hospital", "name": "ISSSTE", "operator": "Instituto de Seguridad y Servicios Sociales de los Trabajadores del Estado", "operator:short": "ISSSTE", "operator:wikidata": "Q954557"}}, {"type": "node", "id": 1942384132, "lat": 16.8735118, "lon": -99.8863145, "tags": {"amenity": "hospital", "healthcare": "hospital", "name": "Instituto Estatal de Cancerolog\u00eda \"Dr. Arturo Beltr\u00e1n Ortega\""}}, {"type": "node", "id": 1942385322, "lat": 16.8733347, "lon": -99.8867409, "tags": {"amenity": "hospital", "brand": "Cruz Roja Mexicana", "brand:wikidata": "Q5792387", "emergency": "ambulance_station", "healthcare": "hospital", "name": "Cruz Roja Mexicana"}}, {"type": "node", "id": 1942385361, "lat": 16.8737556, "lon": -99.8855943, "tags": {"amenity": "hospital", "emergency": "yes", "healthcare": "hospital", "name": "Hospital General de Acapulco"}}, {"type": "node", "id": 1945494832, "lat": 16.8623061, "lon": -99.8829001, "tags": {"amenity": "hospital", "emergency": "yes", "healthcare": "hospital", "name": "Hospital Magallanes"}}, {"type": "node", "id": 1946042149, "lat": 17.5566131, "lon": -99.5039614, "tags": {"amenity": "hospital"}}, {"type": "node", "id": 1953814393, "lat": 19.5319045, "lon": -96.9174736, "tags": {"amenity": "hospital", "healthcare": "hospital", "name": "Sanatorio San Francisco"}}, {"type": "node", "id": 1999152313, "lat": 14.6082726, "lon": -90.5323381, "tags": {"amenity": "hospital", "emergency": "yes", "name": "IGSS"}}, {"type": "node", "id": 2005357867, "lat": 19.4520667, "lon": -99.1130365, "tags": {"addr:city": "Distrito Federal", "addr:housenumber": "307", "addr:postcode": "15300", "addr:street": "Esta\u00f1o Col.Felipe Angeles", "amenity": "hospital", "emergency": "yes", "healthcare": "hospital", "healthcare:speciality": "gynaecology;paediatrics", "name": "Hospital Materno Infantil Inguar\u00e1n", "phone": "5795 4261, 5795 6764", "wheelchair": "yes"}}, {"type": "node", "id": 2068304307, "lat": 16.20227, "lon": -95.201607, "tags": {"amenity": "hospital", "emergency": "yes", "name": "Instituto Mexicano del Seguro Social (IMSS)"}}, {"type": "node", "id": 2125888877, "lat": 14.6647937, "lon": -90.5687574, "tags": {"amenity": "hospital", "name": "Cl\u00ednicas"}}, {"type": "node", "id": 2126808179, "lat": 19.5208892, "lon": -99.1093908, "tags": {"amenity": "hospital", "emergency": "no", "healthcare": "hospital"}}, {"type": "node", "id": 2147082051, "lat": 14.6641215, "lon": -90.4782652, "tags": {"amenity": "hospital", "healthcare": "hospital", "name": "Hospital Nacional de Salud Mental Federico Mora", "source": "KG Ground Survey 2015"}}, {"type": "node", "id": 2149593547, "lat": 19.2671356, "lon": -99.6615046, "tags": {"amenity": "hospital", "healthcare": "hospital", "name": "Hospital de Ginecobstetricia"}}, {"type": "node", "id": 2149593552, "lat": 19.2716475, "lon": -99.6603566, "tags": {"amenity": "hospital"}}, {"type": "node", "id": 2149593554, "lat": 19.2708271, "lon": -99.6606034, "tags": {"amenity": "hospital"}}, {"type": "node", "id": 2163199994, "lat": 19.3537646, "lon": -98.1921943, "tags": {"amenity": "hospital", "name": "Centro de Salud"}}, {"type": "node", "id": 2189091048, "lat": 14.5389876, "lon": -91.6797896, "tags": {"amenity": "hospital", "name": "Farmacia y Cl\u00ednica de Prevencion del Cancer Club Los Once"}}, {"type": "node", "id": 2189091282, "lat": 14.5386863, "lon": -91.6796662, "tags": {"amenity": "hospital", "name": "Direccion de Area de Salud "}}, {"type": "node", "id": 2189091375, "lat": 14.5387461, "lon": -91.6794061, "tags": {"amenity": "hospital", "name": "Centro de Salud "}}, {"type": "node", "id": 2209325858, "lat": 16.7532702, "lon": -93.1289787, "tags": {"amenity": "hospital", "name": "Sanatorio Rojas"}}, {"type": "node", "id": 2258947177, "lat": 18.6495229, "lon": -91.8351001, "tags": {"addr:city": "CARMEN", "addr:housenumber": "240B", "addr:postcode": "24120", "addr:street": "38", "amenity": "hospital", "emergency": "no", "name": "SIEMSO", "operator": "TERCERO AUTORIZADO SCT"}}, {"type": "node", "id": 2262812811, "lat": 14.9423462, "lon": -91.1103425, "tags": {"amenity": "hospital", "name": "Hospital"}}, {"type": "node", "id": 2276233797, "lat": 17.909578, "lon": -92.9859325, "tags": {"amenity": "hospital", "name": "CS Boqueron 3ra"}}, {"type": "node", "id": 2277281681, "lat": 14.5007451, "lon": -90.9540637, "tags": {"amenity": "hospital", "name": "Centro de Salud"}}, {"type": "node", "id": 2278973453, "lat": 19.4153725, "lon": -99.1550669, "tags": {"amenity": "hospital", "healthcare": "hospital", "name": "Hospital Punto M\u00e9dico"}}, {"type": "node", "id": 2278973467, "lat": 19.4155616, "lon": -99.1570999, "tags": {"amenity": "hospital", "healthcare": "hospital", "name": "Hospital Consultores Ambientales, S.A. De C.V."}}, {"type": "node", "id": 2278973470, "lat": 19.415301, "lon": -99.1570758, "tags": {"amenity": "hospital", "emergency": "yes", "healthcare": "hospital", "name": "Hospital Santa Elena, Angeles Roma"}}, {"type": "node", "id": 2324499329, "lat": 19.3603343, "lon": -99.1624076, "tags": {"amenity": "hospital", "emergency": "yes", "healthcare": "hospital", "name": "Hospital General Xoco", "note": "Ha tenido quejas por negligencia medica, desabasto de medicinas, material quirurgico y personal especializado", "phone": "5688 9178, 5688 9138, 5688 9045", "wheelchair": "yes"}}, {"type": "node", "id": 2324519237, "lat": 19.3615894, "lon": -99.2243126, "tags": {"addr:city": "Distrito Federal", "addr:postcode": "11800", "addr:street": "5 de Mayo esq Centenario Col.Ex Hacienda de Tarango", "amenity": "hospital", "emergency": "yes", "name": "Hospital General Enrique Cabrera", "note": "Negligencia medica de los doctores y de las enfermeras", "phone": "1285 7104, 1285 7108", "wheelchair": "yes"}}, {"type": "node", "id": 2324530337, "lat": 19.437644, "lon": -99.1294928, "tags": {"addr:city": "Distrito Federal", "addr:housenumber": "41", "addr:postcode": "06020", "addr:street": "Del Carmen, Col. Centro", "amenity": "hospital", "emergency": "yes", "healthcare": "hospital", "name": "Hospital General Dr. Gregorio Salas Flores", "phone": "5702 0372"}}, {"type": "node", "id": 2324549710, "lat": 19.5145772, "lon": -99.1380497, "tags": {"addr:city": "Distrito Federal", "addr:postcode": "07330", "addr:street": "Plan de San Luis esq. Bandera Col.Ticoman", "amenity": "hospital", "emergency": "yes", "healthcare": "hospital", "name": "Hospital General Ticoman", "note": "Negligencia medica", "phone": "5754 3979, 5754 3344, 5119 4474", "wheelchair": "yes"}}, {"type": "node", "id": 2324568180, "lat": 19.4513407, "lon": -99.1694061, "tags": {"addr:city": "Distrito Federal", "addr:postcode": "11340", "addr:street": "Plan de San Luis esq. Prolongaci\u00f3n Salvador D\u00edaz Mir\u00f3n Col.Santo Tomas", "amenity": "hospital", "emergency": "yes", "healthcare": "hospital", "name": "Hospital General Rub\u00e9n Le\u00f1ero", "note": "Mala atenci\u00f3n de parte de las enfermeras y negligencia medica.", "phone": "5341 1793, 5341 1919, 5341 7941", "wheelchair": "yes"}}, {"type": "node", "id": 2324609833, "lat": 19.4971714, "lon": -99.2035124, "tags": {"addr:city": "Distrito Federal", "addr:postcode": "02000", "addr:street": "Gustavo Garmendia esq. V\u00edctor Hern\u00e1ndez Col.Unidad Francisco Villa.", "amenity": "hospital", "emergency": "yes", "name": "Hospital Materno Infantil Dr. Nicolas M. Cedillo", "note": "Negligencia medica, falta de material adecuado", "phone": "5394 0575, 5382 3629, 5394 0565", "wheelchair": "yes"}}, {"type": "node", "id": 2324619418, "lat": 19.4841167, "lon": -99.1856214, "tags": {"addr:city": "Distrito Federal", "addr:housenumber": "731", "addr:postcode": "02000", "addr:street": "Avenida Azcapotzalco", "amenity": "hospital", "emergency": "yes", "healthcare": "hospital", "name": "Hospital Pediatrico Azcapotzalco", "phone": "5561 2854, 5561 7904, 5347 1490", "wheelchair": "yes"}}, {"type": "node", "id": 2324630718, "lat": 19.3454707, "lon": -99.1678551, "tags": {"addr:city": "Distrito Federal", "addr:housenumber": "18", "addr:postcode": "04000", "addr:street": "Calle Moctezuma", "amenity": "hospital", "emergency": "yes", "healthcare": "hospital", "name": "Hospital Pedi\u00e1trico Coyoac\u00e1n", "note": "Negligencia medica, falta de material adecuado.", "phone": "5554 2858, 5554 2861, 5554 2860", "wheelchair": "no"}}, {"type": "node", "id": 2324650221, "lat": 19.4598832, "lon": -99.1412798, "tags": {"addr:city": "Distrito Federal", "addr:housenumber": "14", "addr:postcode": "06920", "addr:street": "Toln\u00e1huac", "amenity": "hospital", "emergency": "yes", "healthcare": "hospital", "healthcare:speciality": "paediatrics", "name": "Hospital Pedi\u00e1trico Peralvillo", "phone": "5583 4180", "wheelchair": "yes"}}, {"type": "node", "id": 2324666055, "lat": 19.4872044, "lon": -99.1141898, "tags": {"addr:city": "Distrito Federal", "addr:postcode": "05070", "addr:street": "Avenida Cantera, Esq. Hidalgo S/n, Col. Estanzuela", "amenity": "hospital", "emergency": "yes", "healthcare": "hospital", "name": "Hospital Pediatrico la Villa", "phone": "5781 4098, 5781 2024, 5781 2069", "wheelchair": "yes"}}, {"type": "node", "id": 2324694558, "lat": 19.5397608, "lon": -99.1408013, "tags": {"addr:city": "Distrito Federal", "addr:postcode": "07210", "addr:street": "Emiliano Zapata Col. Cuautepec Barrio Bajo", "amenity": "hospital", "emergency": "yes", "name": "Hospital Materno Infantil Cuautepec", "note": "Negligencia medica, falta de material adecuado.", "phone": "5306 0622, 5306 2190", "wheelchair": "yes"}}, {"type": "node", "id": 2324739301, "lat": 19.4025983, "lon": -99.1177983, "tags": {"addr:city": "Distrito Federal", "addr:postcode": "08310", "addr:street": "Avenida Coyuya y Terrapl\u00e9n de R\u00edo Fr\u00edo S/n, Col. La Cruz", "amenity": "hospital", "emergency": "yes", "healthcare": "hospital", "name": "Hospital Pedi\u00e1trico Iztacalco", "phone": "5650 2402, 5657 9375", "wheelchair": "yes"}}, {"type": "node", "id": 2324754213, "lat": 19.3565253, "lon": -99.1076907, "tags": {"addr:city": "Distrito Federal", "addr:housenumber": "780", "addr:postcode": "09070", "addr:street": "Calz. Ermita Iztapalapa, Col. Granjas San Antonio", "amenity": "hospital", "emergency": "yes", "healthcare": "hospital", "name": "Hospital Pedi\u00e1trico Iztapalapa", "phone": "5685 3677, 5685 2156, 5685 4123", "wheelchair": "yes"}}, {"type": "node", "id": 2324761563, "lat": 19.3194192, "lon": -99.2390186, "tags": {"addr:city": "Distrito Federal", "addr:housenumber": "619", "addr:postcode": "10200", "addr:street": "Avenida Lu\u00eds Cabrera, Col. San Jer\u00f3nimo L\u00eddice", "amenity": "hospital", "emergency": "yes", "name": "Hospital Materno Infantil Magdalena Contreras", "phone": "5683 5094, 5683 5108, 5683 5048", "wheelchair": "yes"}}, {"type": "node", "id": 2324804235, "lat": 19.4506799, "lon": -99.2032965, "tags": {"addr:city": "Distrito Federal", "addr:housenumber": "371", "addr:postcode": "11260", "addr:street": "Calzada Legaria", "amenity": "hospital", "emergency": "yes", "healthcare": "hospital", "healthcare:speciality": "paediatrics", "name": "Hospital Pediatrico Legaria", "phone": "5386 1773, 5399 4941, 5527 1447", "wheelchair": "yes"}}, {"type": "node", "id": 2324849071, "lat": 19.4327232, "lon": -99.0981339, "tags": {"addr:city": "Distrito Federal", "addr:housenumber": "189", "addr:postcode": "15530", "addr:street": "Oriente 158 Col. Moctezuma 2a Seccion", "amenity": "hospital", "emergency": "yes", "healthcare": "hospital", "healthcare:speciality": "paediatrics", "name": "Hospital Pediatrico Moctezuma", "note": "Prepotencia de las enfermeras, falta de material adecuado", "phone": "5571 1737, 5571 8864, 5571 4057", "wheelchair": "yes"}}, {"type": "node", "id": 2324866576, "lat": 19.2542119, "lon": -99.1047945, "tags": {"addr:city": "Distrito Federal", "addr:housenumber": "S/N", "addr:postcode": "16090", "addr:street": "Calz Nativitasy 16 de Septiembre Col. Barrio Xaltocan", "amenity": "hospital", "emergency": "yes", "name": "Hospital Materno Infantil Xochimilco", "phone": "5676 4993, 5653 9104, 5555 8612", "wheelchair": "yes"}}, {"type": "node", "id": 2324874934, "lat": 19.2008455, "lon": -99.0110247, "tags": {"addr:city": "Distrito Federal", "addr:postcode": "12000", "addr:street": "Carretera Milpa Alta Chalco Km. 2.5, Col.Villa Milpa Alta", "amenity": "hospital", "emergency": "yes", "healthcare": "hospital", "healthcare:speciality": "general", "name": "Hospital General Milpa Alta", "phone": "5844 0649, 2211 5837, 5844 0649, 2211 5839", "wheelchair": "yes"}}, {"type": "node", "id": 2326389007, "lat": 19.2279969, "lon": -99.1194109, "tags": {"amenity": "hospital", "emergency": "no", "name": "Centro de Salud"}}, {"type": "node", "id": 2332256517, "lat": 18.6459877, "lon": -91.8196464, "tags": {"amenity": "hospital", "emergency": "yes", "healthcare": "hospital", "name": "Hospital Regional"}}, {"type": "node", "id": 2348245380, "lat": 19.4647983, "lon": -96.8380527, "tags": {"amenity": "hospital", "emergency": "no", "name": "Centro de salud"}}, {"type": "node", "id": 2361019867, "lat": 18.7316409, "lon": -99.3891281, "tags": {"amenity": "hospital", "emergency": "yes", "name": "Rodolfo Becerril de la Paz"}}, {"type": "node", "id": 2402097198, "lat": 18.4511686, "lon": -97.832892, "tags": {"addr:city": "San Juan Ixcaquixtla", "addr:postcode": "74900", "amenity": "hospital", "emergency": "yes", "name": "Hospital Comunitario de San Juan Ixcaquixtla", "website": "http://www.sanjuanixcaquixtla.com"}}, {"type": "node", "id": 2410124789, "lat": 14.6258701, "lon": -90.4511113, "tags": {"amenity": "hospital", "name": "Centro de Salud"}}, {"type": "node", "id": 2419017003, "lat": 19.5255299, "lon": -98.8188185, "tags": {"amenity": "hospital"}}, {"type": "node", "id": 2424556275, "lat": 19.4723376, "lon": -98.8812742, "tags": {"amenity": "hospital", "name": "Clinica Publica Municipal"}}, {"type": "node", "id": 2426011906, "lat": 19.4180305, "lon": -99.1704412, "tags": {"amenity": "hospital", "designation": "Hospital", "emergency": "yes", "healthcare": "hospital", "name": "Hospital Mar\u00eda Jos\u00e9"}}, {"type": "node", "id": 2426031581, "lat": 19.2567655, "lon": -99.1082426, "tags": {"amenity": "hospital", "emergency": "yes", "name": "Issste Clinica Medico Familiar Xochimilco"}}, {"type": "node", "id": 2426920239, "lat": 19.532345, "lon": -99.0480861, "tags": {"amenity": "hospital", "name": "Clinica Samano"}}, {"type": "node", "id": 2426950372, "lat": 19.5324011, "lon": -99.0476158, "tags": {"amenity": "hospital", "name": "clinica samano"}}, {"type": "node", "id": 2482978381, "lat": 19.3455142, "lon": -99.1451247, "tags": {"addr:city": "Ciudad de M\u00e9xico", "addr:housenumber": "1983", "addr:postcode": "04040", "addr:street": "Calzada de Tlalpan", "amenity": "hospital", "healthcare": "hospital", "name": "Cl\u00ednica de Especialidades \"Churubusco\"", "operator": "Instituto de Seguridad y Servicios Sociales para los Trabajadores del Estado", "operator:short": "ISSSTE", "operator:type": "government", "operator:wikidata": "Q954557", "operator:wikipedia": "es:Instituto de Seguridad y Servicios Sociales de los Trabajadores del Estado"}}, {"type": "node", "id": 2485420767, "lat": 16.7314862, "lon": -92.6356779, "tags": {"amenity": "hospital", "emergency": "yes", "healthcare": "hospital", "name": "Sanatorio Dr. Bonilla"}}, {"type": "node", "id": 2503401676, "lat": 19.6547733, "lon": -98.2804456, "tags": {"amenity": "hospital", "emergency": "no", "name": "CENTRO DE SALUD"}}, {"type": "node", "id": 2511696401, "lat": 19.5341374, "lon": -96.9005831, "tags": {"amenity": "hospital", "healthcare": "hospital", "name": "Cl\u00ednica Los \u00c1ngeles"}}, {"type": "node", "id": 2521303877, "lat": 14.4802018, "lon": -90.5334879, "tags": {"amenity": "hospital", "name": "Centro Medico"}}, {"type": "node", "id": 2523453845, "lat": 15.4789008, "lon": -90.3723999, "tags": {"amenity": "hospital", "name": "Hospital General Hellen Lossi"}}, {"type": "node", "id": 2539073662, "lat": 19.5335349, "lon": -99.0270306, "tags": {"addr:city": "Ecatepec de Morelos", "addr:housenumber": "50, 3a secci\u00f3n", "addr:postcode": "55120", "addr:street": "Av. Profesor Carlos Hank Gonz\u00e1lez", "amenity": "hospital", "emergency": "yes", "healthcare": "hospital", "name": "Hospital Vivo Ciudad Azteca", "operator": "Star M\u00e9dica", "wheelchair": "yes"}}, {"type": "node", "id": 2546380838, "lat": 16.3508074, "lon": -93.3153224, "tags": {"amenity": "hospital", "emergency": "no", "name": "U.M.R. Ejidal"}}, {"type": "node", "id": 2574809545, "lat": 18.4861278, "lon": -98.1839993, "tags": {"amenity": "hospital", "name": "CENTRO DE ASISTENCIA M\u00c9DICA"}}, {"type": "node", "id": 2575296335, "lat": 19.0536606, "lon": -98.4125236, "tags": {"amenity": "hospital", "emergency": "yes", "name": "Centro de Salud"}}, {"type": "node", "id": 2582673777, "lat": 15.4261021, "lon": -90.3335855, "tags": {"amenity": "hospital", "name": "Centro de Salud tipo \"B\""}}, {"type": "node", "id": 2582974271, "lat": 14.789558, "lon": -90.1978812, "tags": {"amenity": "hospital", "name": "IGSS"}}, {"type": "node", "id": 2587526190, "lat": 19.0378225, "lon": -98.1874226, "tags": {"amenity": "hospital", "emergency": "yes", "name": "Cl\u00ednica de la Policia Municipal Auxiliar"}}, {"type": "node", "id": 2632891959, "lat": 14.7445989, "lon": -91.1543024, "tags": {"addr:city": "Panajachel", "amenity": "hospital", "name": "Centro de Salud", "source": "www.facebook.com/educadores.panajachel"}}, {"type": "node", "id": 2637600159, "lat": 19.8398216, "lon": -90.5368427, "tags": {"amenity": "hospital", "name": "Hospital Gral de Zona 1 IMSS"}}, {"type": "node", "id": 2637600416, "lat": 19.8401159, "lon": -90.5359274, "tags": {"amenity": "hospital"}}, {"type": "node", "id": 2662877411, "lat": 17.8810571, "lon": -92.4684664, "tags": {"amenity": "hospital"}}, {"type": "node", "id": 2707383089, "lat": 19.5951617, "lon": -96.6344313, "tags": {"amenity": "hospital"}}, {"type": "node", "id": 2713286245, "lat": 19.5631396, "lon": -96.9146373, "tags": {"amenity": "hospital", "healthcare": "hospital", "name": "FARMACIAS PREMIER"}}, {"type": "node", "id": 2713286259, "lat": 19.5597047, "lon": -96.9156566, "tags": {"amenity": "hospital", "healthcare": "hospital", "name": "HOSPITAL ARCANGELES"}}, {"type": "node", "id": 2717566231, "lat": 18.3409571, "lon": -99.5277146, "tags": {"amenity": "hospital", "name": "Issste"}}, {"type": "node", "id": 2727444943, "lat": 19.5041365, "lon": -99.0172826, "tags": {"amenity": "hospital", "name": "Centro de salud \"Nueva aragon\""}}, {"type": "node", "id": 2741489805, "lat": 18.5905795, "lon": -98.451005, "tags": {"amenity": "hospital", "emergency": "yes", "name": "Hospital General de Iz\u00facar de Matamoros"}}, {"type": "node", "id": 2758912501, "lat": 16.2585539, "lon": -93.2655374, "tags": {"amenity": "hospital", "name": "Hospital General Bicentenario De Villa Flores"}}, {"type": "node", "id": 2758944412, "lat": 16.2257258, "lon": -93.2769207, "tags": {"amenity": "hospital", "name": "Viejo Hospital"}}, {"type": "node", "id": 2876965818, "lat": 17.5566902, "lon": -99.5046713, "tags": {"amenity": "hospital", "healthcare": "hospital", "name": "Cruz Roja Mexicana Del. Chilpancingo", "operator": "Cruz Roja", "operator:wikidata": "Q7178"}}, {"type": "node", "id": 2911341620, "lat": 19.107011, "lon": -99.5874706, "tags": {"amenity": "hospital", "name": "Unidad Medica Familiar 242 Tenango"}}, {"type": "node", "id": 2938027324, "lat": 19.481014, "lon": -99.184899, "tags": {"amenity": "hospital", "name": "Hospital de la Divina Providencia"}}, {"type": "node", "id": 2938027325, "lat": 19.4806822, "lon": -99.18446, "tags": {"amenity": "hospital", "name": "Ampl. Hospital de la Divina Providencia"}}, {"type": "node", "id": 2938268495, "lat": 19.4826851, "lon": -99.1880483, "tags": {"amenity": "hospital", "healthcare": "hospital", "name": "ISSSTE Clinica de Medicina Familiar"}}, {"type": "node", "id": 2939774393, "lat": 19.4718047, "lon": -99.1658196, "tags": {"amenity": "hospital", "name": "ISSSTE Cl\u00ednica Cuitlahuac"}}, {"type": "node", "id": 2972085296, "lat": 19.0437598, "lon": -98.2093591, "tags": {"addr:city": "Puebla", "addr:housenumber": "1305", "addr:postcode": "72410", "addr:street": "Avenida 11 Sur", "amenity": "hospital", "healthcare": "hospital", "name": "UMF 571 IMSS (Cl\u00ednica 1)"}}, {"type": "node", "id": 2983675258, "lat": 19.0086014, "lon": -98.1825999, "tags": {"amenity": "hospital", "name": "Hospital IMSS La Margarita", "wheelchair": "yes"}}, {"type": "node", "id": 3031658790, "lat": 18.9769202, "lon": -98.2141845, "tags": {"addr:city": "Puebla", "addr:housenumber": "1614", "addr:postcode": "72520", "addr:street": "113 a oriente", "amenity": "hospital", "emergency": "no", "name": "Ayuda Psicol\u00f3gica en L\u00ednea", "phone": "+52 22 245 9593", "website": "https://ayuda-psicologica-en-linea.com/2038752_Psicologos-en-Puebla.html", "wheelchair": "limited"}}, {"type": "node", "id": 3173177760, "lat": 19.4679572, "lon": -97.6846283, "tags": {"amenity": "hospital", "name": "Clinica IMSS", "operator": "IMSS", "wheelchair": "yes"}}, {"type": "node", "id": 3173408928, "lat": 19.4616794, "lon": -97.6852047, "tags": {"amenity": "hospital", "name": "Laboratorio Clinico Family Labs"}}, {"type": "node", "id": 3187316332, "lat": 18.9868436, "lon": -98.2418754, "tags": {"amenity": "hospital", "emergency": "yes", "name": "Hospital de la Mujer"}}, {"type": "node", "id": 3187316333, "lat": 18.9866381, "lon": -98.2419586, "tags": {"amenity": "hospital", "emergency": "yes", "name": "Hospital General de Puebla"}}, {"type": "node", "id": 3187316334, "lat": 18.9857783, "lon": -98.2424601, "tags": {"amenity": "hospital", "name": "Laboratorio Estatal de Sangre"}}, {"type": "node", "id": 3209780122, "lat": 19.0321664, "lon": -98.2154317, "tags": {"amenity": "hospital", "healthcare": "hospital", "name": "Hospital Angelopolitano"}}, {"type": "node", "id": 3230211671, "lat": 19.3262578, "lon": -97.6473211, "tags": {"amenity": "hospital", "name": "Hospital Integral El Carmen"}}, {"type": "node", "id": 3230455545, "lat": 19.4139487, "lon": -98.1392873, "tags": {"amenity": "hospital", "name": "Hospital Angeles", "name:it": "Angeles"}}, {"type": "node", "id": 3248556803, "lat": 19.3166025, "lon": -97.921466, "tags": {"amenity": "hospital", "emergency": "yes", "healthcare": "hospital", "name": "Unidad Medica Quirurgica"}}, {"type": "node", "id": 3248556838, "lat": 19.2480793, "lon": -97.756627, "tags": {"amenity": "hospital", "name": "Hospital Integral San J\u00f3se Chiapas"}}, {"type": "node", "id": 3248623833, "lat": 19.111934, "lon": -97.9493253, "tags": {"amenity": "hospital", "name": "Hospital Integral Acajete"}}, {"type": "node", "id": 3299762876, "lat": 19.0170964, "lon": -98.2655239, "tags": {"amenity": "hospital", "name": "Hospital General de San Andr\u00e9s Cholula"}}, {"type": "node", "id": 3303156577, "lat": 19.4101017, "lon": -98.1396399, "tags": {"amenity": "hospital"}}, {"type": "node", "id": 3331252732, "lat": 19.2512423, "lon": -99.169635, "tags": {"addr:street": "Palma", "amenity": "hospital", "emergency": "yes", "name": "Cl\u00ednica de Dios"}}, {"type": "node", "id": 3347091691, "lat": 19.8428812, "lon": -97.4984566, "tags": {"amenity": "hospital", "emergency": "yes", "healthcare": "hospital", "name": "Cruz Roja", "operator": "Cruz Roja", "operator:wikidata": "Q7178"}}, {"type": "node", "id": 3349094814, "lat": 19.836967, "lon": -98.0315933, "tags": {"amenity": "hospital", "name": "ISSSTE"}}, {"type": "node", "id": 3354597890, "lat": 19.2547974, "lon": -98.8924805, "tags": {"addr:city": "Chalco", "addr:postcode": "56600", "addr:street": "San Isidro", "amenity": "hospital", "name": "Clinica de Maternidad Dr. Arenas", "phone": "+52 55 59750152"}}, {"type": "node", "id": 3409724794, "lat": 17.0643186, "lon": -96.7213363, "tags": {"addr:housenumber": "215", "addr:street": "Calle de Mariano Abasolo", "amenity": "hospital", "emergency": "yes", "name": "Hospital Carmen"}}, {"type": "node", "id": 3415012738, "lat": 19.4708769, "lon": -97.6863752, "tags": {"amenity": "hospital", "emergency": "yes", "name": "Cl\u00ednica Britania"}}, {"type": "node", "id": 3415029117, "lat": 19.4679335, "lon": -97.6932879, "tags": {"amenity": "hospital", "emergency": "yes", "name": "Policl\u00ednica (cl\u00ednica)"}}, {"type": "node", "id": 3435135699, "lat": 17.064783, "lon": -96.7250569, "tags": {"amenity": "hospital", "emergency": "yes", "name": "Hospital Molina"}}, {"type": "node", "id": 3438494593, "lat": 17.0632402, "lon": -96.7269443, "tags": {"amenity": "hospital", "emergency": "yes", "name": "\u00c1ngel Vasconcelos"}}, {"type": "node", "id": 3471907927, "lat": 19.471718, "lon": -97.6823463, "tags": {"amenity": "hospital", "emergency": "no", "name": "Centro de Rehabilitaci\u00f3n Integral Libres"}}, {"type": "node", "id": 3471935397, "lat": 19.4796883, "lon": -97.6762388, "tags": {"amenity": "hospital", "emergency": "yes", "name": "Centro de Salud Libres Puebla"}}, {"type": "node", "id": 3518461993, "lat": 17.070584, "lon": -96.7162579, "tags": {"amenity": "hospital", "emergency": "yes", "healthcare": "hospital", "name": "C\u00ednica Hospital M\u00e9dico Quir\u00fargica de Antequera"}}, {"type": "node", "id": 3597653923, "lat": 19.3125188, "lon": -97.9202318, "tags": {"amenity": "hospital", "healthcare": "hospital", "name": "Cruz Roja", "operator": "Cruz Roja", "operator:wikidata": "Q7178"}}, {"type": "node", "id": 3610090088, "lat": 14.6371583, "lon": -90.5219174, "tags": {"amenity": "hospital", "name": "Hospital de Rehabilitaci\u00f3n Jorge von Ahn"}}, {"type": "node", "id": 3610144954, "lat": 14.6235456, "lon": -90.5028557, "tags": {"amenity": "hospital", "name": "APROFAM, zona 5"}}, {"type": "node", "id": 3613023198, "lat": 19.5109992, "lon": -99.1639864, "tags": {"addr:city": "Tlalnepantla", "addr:housenumber": "140", "addr:postcode": "54170", "addr:street": "Calle Isla Margarita", "amenity": "hospital", "name": "M\u00e9dica Prado Vallejo"}}, {"type": "node", "id": 3615198346, "lat": 19.3068182, "lon": -98.1371509, "tags": {"amenity": "hospital", "name": "centro de salud San Pedro Xcohiteotla", "operator": "Secretaria de Salud Tlaxcala"}}, {"type": "node", "id": 3690558073, "lat": 17.1880001, "lon": -94.821091, "tags": {"amenity": "hospital", "emergency": "yes", "name": "Cl\u00ednica de Emergencias Juan de la Luz", "operator": "Sofia"}}, {"type": "node", "id": 3707166273, "lat": 14.6236932, "lon": -90.55095, "tags": {"addr:city": "Guatemala", "addr:housenumber": "14-82", "addr:postcode": "01007", "addr:street": "Calzada Roosevelt", "amenity": "hospital", "name": "Centro Cl\u00ednico Urgencias M\u00e9dicas", "phone": "+502 24748644", "source": "KG Ground Survey 2015"}}, {"type": "node", "id": 3725557192, "lat": 19.6576147, "lon": -99.2101544, "tags": {"addr:city": "Cuautitlan Izcalli", "addr:housenumber": "Lote 23, Mz. C-34-C", "addr:postcode": "54700", "addr:street": "Av. 1ro de Mayo", "amenity": "hospital", "healthcare": "hospital", "name": "Hospital Star M\u00e9dica Luna Parc"}}, {"type": "node", "id": 3734691129, "lat": 19.4593695, "lon": -97.6803591, "tags": {"addr:postcode": "73780", "addr:street": "14 Sur", "amenity": "hospital", "emergency": "yes", "name": "Laboratorio Cl\u00ednico Family Labs"}}, {"type": "node", "id": 3751118667, "lat": 18.8358051, "lon": -96.395595, "tags": {"amenity": "hospital", "name": "SSA Cotaxtla"}}, {"type": "node", "id": 3751133362, "lat": 18.8366938, "lon": -96.3990816, "tags": {"amenity": "hospital", "emergency": "yes", "name": "Hospital Pemex"}}, {"type": "node", "id": 3772280299, "lat": 19.3616126, "lon": -99.1213644, "tags": {"amenity": "hospital", "name": "Hospital Churubusco"}}, {"type": "node", "id": 3779138322, "lat": 19.4007961, "lon": -99.1497404, "tags": {"amenity": "hospital"}}, {"type": "node", "id": 3779151826, "lat": 19.3930861, "lon": -99.1777866, "tags": {"amenity": "hospital"}}, {"type": "node", "id": 3779257093, "lat": 19.4018662, "lon": -99.1502893, "tags": {"amenity": "hospital", "name": "Podologia"}}, {"type": "node", "id": 3779387424, "lat": 19.3997787, "lon": -99.1491481, "tags": {"amenity": "hospital", "healthcare": "hospital", "name": "Ortopedia Flores"}}, {"type": "node", "id": 3779388862, "lat": 19.3997233, "lon": -99.1491788, "tags": {"amenity": "hospital", "healthcare": "hospital", "name": "Ortopedia Mitla 4"}}, {"type": "node", "id": 3779577788, "lat": 19.3996861, "lon": -99.1476341, "tags": {"amenity": "hospital", "healthcare": "hospital"}}, {"type": "node", "id": 3802810510, "lat": 19.0534251, "lon": -98.157104, "tags": {"amenity": "hospital", "name": "ABC Colombres"}}, {"type": "node", "id": 3808371597, "lat": 14.8994026, "lon": -92.2496815, "tags": {"addr:city": "Tapachula", "amenity": "hospital", "healthcare": "hospital", "name": "ISSSTE", "operator": "Instituto de Seguridad y Servicios Sociales de los Trabajadores del Estado", "operator:short": "ISSSTE", "operator:wikidata": "Q954557"}}, {"type": "node", "id": 3809214146, "lat": 14.5532589, "lon": -90.4544657, "tags": {"addr:city": "Piedra Parada", "addr:housenumber": "Km. 15.5", "addr:street": "Carretera a El Salvador", "amenity": "hospital", "emergency": "no", "name": "Centro M\u00e9dico - Centro de Diagn\u00f3sticos de Urgencias", "phone": "6634 5490"}}, {"type": "node", "id": 3816406342, "lat": 16.9482071, "lon": -96.7122087, "tags": {"addr:housenumber": "109", "addr:street": "Aldama", "amenity": "hospital", "name": "INSTITUTO DE SERVICIOS PERICIALES Y CIENCIAS FORENSES"}}, {"type": "node", "id": 3911845144, "lat": 18.9678039, "lon": -97.9004374, "tags": {"amenity": "hospital", "name": "Puebla Secretaria De Salud"}}, {"type": "node", "id": 3928663855, "lat": 14.6501354, "lon": -91.2249347, "tags": {"amenity": "hospital", "emergency": "yes", "is_in": "Santiago Atitlan, Solola", "name": "Hospitalito Atitl\u00e1n", "phone": "7721-7683"}}, {"type": "node", "id": 3936168377, "lat": 14.5645445, "lon": -90.7349909, "tags": {"amenity": "hospital", "name": "IGSS"}}, {"type": "node", "id": 3942112560, "lat": 19.8386205, "lon": -97.4549349, "tags": {"amenity": "hospital"}}, {"type": "node", "id": 3969011978, "lat": 19.5832899, "lon": -99.9624652, "tags": {"amenity": "hospital", "name": "Hospital Mazahua", "operator": "SEcretaria de Salud del Estado de M\u00e9xico"}}, {"type": "node", "id": 3977351148, "lat": 19.3290459, "lon": -99.2726709, "tags": {"amenity": "hospital"}}, {"type": "node", "id": 3986834693, "lat": 14.6163569, "lon": -90.5410404, "tags": {"amenity": "hospital", "source": "KG Ground Survey 2015"}}, {"type": "node", "id": 3988101595, "lat": 19.544829, "lon": -96.9428226, "tags": {"amenity": "hospital", "healthcare": "hospital", "name": "DIF Municipal Xalapa"}}, {"type": "node", "id": 3992433576, "lat": 19.2652777, "lon": -99.1608719, "tags": {"amenity": "hospital", "name": "Centro de Salud T-III Dr. David Fragoso"}}, {"type": "node", "id": 4000002457, "lat": 19.2285946, "lon": -99.6731747, "tags": {"amenity": "hospital", "name": "Centro de Salud", "operator": "Gobierno"}}, {"type": "node", "id": 4011220247, "lat": 19.4987981, "lon": -99.7142594, "tags": {"amenity": "hospital", "name": "Clinica Rural"}}, {"type": "node", "id": 4029174711, "lat": 19.4914838, "lon": -99.5968879, "tags": {"addr:postcode": "50850", "addr:street": "Carretera Temoaya-Jiquipilco el Viejo", "amenity": "hospital", "name": "Centro de salud (Casa de salud)", "note": "Centro de salud sin servicio"}}, {"type": "node", "id": 4029350556, "lat": 19.2873205, "lon": -99.6837483, "tags": {"amenity": "hospital", "healthcare": "hospital", "name": "Sanatorio Tollocan"}}, {"type": "node", "id": 4030222890, "lat": 19.28831, "lon": -99.6748505, "tags": {"addr:housenumber": "1234", "addr:street": "Calle Miguel Hidalgo y Costilla", "amenity": "hospital", "ele": "2600", "emergency": "yes", "healthcare": "hospital", "name": "Los \u00c1ngeles", "operator": "IMSS"}}, {"type": "node", "id": 4076052533, "lat": 14.6266883, "lon": -91.1451109, "tags": {"amenity": "hospital", "name": "IGSS", "source": "Reconocimiento cartogr\u00e1fico por KG 2016."}}, {"type": "node", "id": 4076052539, "lat": 14.6371266, "lon": -91.1489876, "tags": {"amenity": "hospital", "name": "Monse\u00f1or Gregorio Schaffer", "source": "Reconocimiento cartogr\u00e1fico por KG 2016."}}, {"type": "node", "id": 4111774490, "lat": 18.3805847, "lon": -97.2661685, "tags": {"amenity": "hospital", "name": "Hospital Integral de Ajalpan"}}, {"type": "node", "id": 4111777892, "lat": 18.4648535, "lon": -97.3874716, "tags": {"addr:street": "Calle 2 Oriente", "amenity": "hospital", "healthcare": "hospital", "name": "Hospital Municipal de Tehuac\u00e1n"}}, {"type": "node", "id": 4141865079, "lat": 18.1929613, "lon": -98.052863, "tags": {"amenity": "hospital", "description": "http://www.ss.puebla.gob.mx/index.php/directorio-de-hospitales/item/147-hospital-general-acatlan-de-osorio\nSERVICIOS, INSTALACIONES Y EQUIPO\n\nUrgencias\n45\nCamas\n\nEspecialidades\nGinecolog\u00eda\nPediatr\u00eda\nTrauma y Ortopedia\n\nHospitalizaci\u00f3n\n\nToma de muestras\n\n", "name": "HOSPITAL GENERAL ACATL\u00c1N", "operator": "SERVICIOS DE SALUD"}}, {"type": "node", "id": 4158373689, "lat": 19.7025889, "lon": -98.7637262, "tags": {"amenity": "hospital", "name": "Hospital Municipal de Otumba"}}, {"type": "node", "id": 4168566090, "lat": 19.4139311, "lon": -99.1612587, "tags": {"addr:city": "Ciudad de M\u00e9xico", "addr:housenumber": "143", "addr:postcode": "06700", "addr:street": "San Luis Potos\u00ed", "amenity": "hospital", "emergency": "yes", "healthcare": "hospital", "name": "Hospital Star M\u00e9dica Roma", "wheelchair": "yes"}}, {"type": "node", "id": 4189572023, "lat": 19.3569724, "lon": -98.9998255, "tags": {"amenity": "hospital", "healthcare": "hospital"}}, {"type": "node", "id": 4196383189, "lat": 19.4050112, "lon": -99.1625655, "tags": {"addr:housenumber": "139", "addr:street": "Tehuantepec", "amenity": "hospital", "healthcare": "hospital", "name": "Hospital Tehuantepec", "opening_hours": "24/7"}}, {"type": "node", "id": 4206935593, "lat": 18.986551, "lon": -98.2421216, "tags": {"amenity": "hospital", "name": "Hospital Agua Santa", "opening_hours": "24/7"}}, {"type": "node", "id": 4253773190, "lat": 19.4565444, "lon": -97.6858723, "tags": {"addr:postcode": "73780", "addr:street": "Av. Avila Camacho 4 Sur", "amenity": "hospital", "name": "Ambulancia Briasa (Base)", "opening_hours": "24/7", "phone": "012764730436"}}, {"type": "node", "id": 4264093291, "lat": 14.5307635, "lon": -91.502528, "tags": {"addr:street": "Avenida La Libertad", "amenity": "hospital", "email": "ingdigital@gmail.com", "name": "IGSS - Oficinas - Suchitep\u00e9quez", "name:en": "IGSS Ofice Suchitep\u00e9quez", "website": "http://www.mazatecos.com/gobierno/IGSS-Oficinas"}}, {"type": "node", "id": 4271001389, "lat": 19.3873904, "lon": -98.9896243, "tags": {"addr:city": "Nezahualcoyotl", "addr:housenumber": "S/N", "addr:postcode": "57820", "addr:street": "Calle Escondida", "amenity": "hospital", "emergency": "yes", "healthcare:speciality": "general", "name": "Hospital General La Perla Nezahualcoyotl"}}, {"type": "node", "id": 4298911160, "lat": 14.7643386, "lon": -91.1766182, "tags": {"amenity": "hospital", "is_in": "Solola, Solola", "name": "Hospital Nacional de Solola Juan de Dios Rodas", "website": "http://hospitalsolola.gob.gt"}}, {"type": "node", "id": 4309601661, "lat": 14.7530531, "lon": -91.1438823, "tags": {"amenity": "hospital", "is_in": "Panajachel, Solola", "name": "Centro Clinico Panajachel Hospitalito", "phone": "57132639"}}, {"type": "node", "id": 4324630648, "lat": 14.7370804, "lon": -91.1494885, "tags": {"amenity": "hospital", "name": "Cl\u00ednica"}}, {"type": "node", "id": 4334394300, "lat": 14.6065977, "lon": -90.523812, "tags": {"amenity": "hospital", "is_in": "Guatemala City, Guatemala", "name": "Visi\u00f3n Integral", "website": "https://www.visionintegral.com.gt/"}}, {"type": "node", "id": 4334398324, "lat": 14.6118249, "lon": -90.543872, "tags": {"amenity": "hospital", "is_in": "Guatemala City, Guatemala", "name": "Unidad Nacional De Oncologia Pediatrica", "website": "https://www.icpcn.org/members-directory/2390/unidad-nacional-de-oncologia-pediatrica/"}}, {"type": "node", "id": 4334412726, "lat": 14.612693, "lon": -90.5428727, "tags": {"amenity": "hospital", "is_in": "Guatemala City, Guatemala", "name": "Hospital Roosevelt", "website": "https://www.hospitalroosevelt.gob.gt/"}}, {"type": "node", "id": 4338682390, "lat": 19.5136584, "lon": -99.2373862, "tags": {"amenity": "hospital", "name": "Hospital Ciudad Satelite", "name:es": "hospital satelite", "wheelchair": "yes"}}, {"type": "node", "id": 4346701991, "lat": 19.0453198, "lon": -98.1790152, "tags": {"addr:housenumber": "2015", "addr:street": "Privada 28 Norte", "amenity": "hospital", "healthcare": "hospital", "internet_access": "wlan", "name": "Sanatorio Humboldt", "opening_hours": "24/7", "phone": "012222133514"}}, {"type": "node", "id": 4356073537, "lat": 19.3123584, "lon": -99.0820964, "tags": {"amenity": "hospital", "name": "Hospital Militar de Zona", "operator": "SEDENA"}}, {"type": "node", "id": 4358137990, "lat": 19.3823815, "lon": -97.6193387, "tags": {"amenity": "hospital", "name": "Centro de Salud Oriental (CESSA)", "name:es": "Centro de Salud Oriental (CESSA)"}}, {"type": "node", "id": 4378215157, "lat": 18.1478341, "lon": -91.0274741, "tags": {"amenity": "hospital", "name": "Centro de Salud"}}, {"type": "node", "id": 4403446355, "lat": 19.3396442, "lon": -99.1998232, "tags": {"addr:housenumber": "117", "addr:street": "Calle Yucat\u00e1n", "amenity": "hospital", "name": "Hospital vicentino y casa hogar", "phone": "+525555504637"}}, {"type": "node", "id": 4406206292, "lat": 15.4729708, "lon": -90.3675832, "tags": {"amenity": "hospital", "name": "HOSPITAL DEL IGSS", "name:es": "IGSS"}}, {"type": "node", "id": 4407581030, "lat": 19.574714, "lon": -99.2436724, "tags": {"amenity": "hospital", "name": "SSA"}}, {"type": "node", "id": 4415923862, "lat": 19.3859363, "lon": -99.0954454, "tags": {"amenity": "hospital", "healthcare": "hospital", "name": "Centro de Salud T-II Ramos Millan"}}, {"type": "node", "id": 4423012290, "lat": 14.62572, "lon": -90.5283731, "tags": {"amenity": "hospital", "name": "Centro de Salud, zona 3", "name:es": "Centro de Salud, zona 3"}}, {"type": "node", "id": 4425468090, "lat": 19.4225708, "lon": -99.1418319, "tags": {"amenity": "hospital", "name": "Instituto Oftalmologia", "name:es": "Instituto Oftalmologia"}}, {"type": "node", "id": 4430080489, "lat": 19.4737787, "lon": -99.2399516, "tags": {"amenity": "hospital", "name": "Cruz Roja Naucalpan", "name:es": "Cruz Roja Naucalpan"}}, {"type": "node", "id": 4441994789, "lat": 19.3594389, "lon": -99.1400167, "tags": {"amenity": "hospital", "healthcare": "hospital", "name": "Cl\u00ednica ISSSTE", "operator": "Instituto de Seguridad y Servicios Sociales de los Trabajadores del Estado", "operator:short": "ISSSTE", "operator:wikidata": "Q954557"}}, {"type": "node", "id": 4456709975, "lat": 14.9238519, "lon": -91.6132411, "tags": {"amenity": "hospital", "name": "PUESTO DE SALUD DE CAJOLA"}}, {"type": "node", "id": 4457188377, "lat": 14.5422104, "lon": -91.4581309, "tags": {"amenity": "hospital", "name": "Centro de Salud"}}, {"type": "node", "id": 4458147890, "lat": 14.697916, "lon": -91.8459961, "tags": {"amenity": "hospital", "name": "Fundabiem Coatepeque"}}, {"type": "node", "id": 4458154151, "lat": 14.6988851, "lon": -91.8695064, "tags": {"amenity": "hospital", "name": "Hospital"}}, {"type": "node", "id": 4512745790, "lat": 17.0755019, "lon": -96.7182349, "tags": {"amenity": "hospital", "healthcare": "hospital", "name": "San Lucas"}}, {"type": "node", "id": 4529431489, "lat": 14.5629931, "lon": -90.6394908, "tags": {"amenity": "hospital", "name": "Hospicio", "name:es": "Hospicio"}}, {"type": "node", "id": 4538333499, "lat": 19.3864154, "lon": -99.0956199, "tags": {"amenity": "hospital", "healthcare": "hospital", "name": "Centro de salud Ramos Millan", "name:es": "Centro de salud Ramos Millan", "name:zh": "Centro de salud Ramos Millan"}}, {"type": "node", "id": 4547209790, "lat": 15.4754162, "lon": -90.3692766, "tags": {"amenity": "hospital", "name": "Oficinas Administrativas del IGSS", "name:es": "Oficinas Administrativas del IGSS"}}, {"type": "node", "id": 4553135692, "lat": 14.9142791, "lon": -91.3801011, "tags": {"amenity": "hospital", "name": "Hospital Nacional. Dr Jose Felipe Flores :'(", "name:es": "Hospital Nacional. Dr Jose Felipe Flores :'("}}, {"type": "node", "id": 4565558490, "lat": 19.103158, "lon": -96.1085668, "tags": {"amenity": "hospital", "name": "Hospital boca del rio", "name:es": "Hospital boca del rio"}}, {"type": "node", "id": 4568873049, "lat": 19.9912513, "lon": -99.3228083, "tags": {"addr:city": "San Miguel Vindho", "addr:housenumber": "sn", "addr:street": "Zimapan", "amenity": "hospital", "healthcare": "hospital", "name": "Cl\u00ednica Juarez", "operator": "Cooperativa Juarez"}}, {"type": "node", "id": 4576177270, "lat": 19.6875269, "lon": -99.0529217, "tags": {"amenity": "hospital", "name": "Clinica Tonanitla"}}, {"type": "node", "id": 4587671691, "lat": 14.4790969, "lon": -90.5362249, "tags": {"amenity": "hospital", "name": "IGSS", "name:es": "IGSS"}}, {"type": "node", "id": 4594732292, "lat": 19.4556994, "lon": -99.2026588, "tags": {"amenity": "hospital", "healthcare": "hospital", "name": "Centro de Salud Cardiel", "name:es": "Centro de Salud Cardiel"}}, {"type": "node", "id": 4599095989, "lat": 18.8439523, "lon": -99.2018115, "tags": {"addr:street": "avenida de la salud", "amenity": "hospital"}}, {"type": "node", "id": 4602998225, "lat": 19.2944627, "lon": -99.1303368, "tags": {"amenity": "hospital", "name": "M\u00e9dica Coapa"}}, {"type": "node", "id": 4611223731, "lat": 15.3146359, "lon": -90.3492439, "tags": {"amenity": "hospital"}}, {"type": "node", "id": 4613354092, "lat": 18.8439513, "lon": -99.2018482, "tags": {"amenity": "hospital"}}, {"type": "node", "id": 4618467317, "lat": 19.7329581, "lon": -98.7700952, "tags": {"amenity": "hospital", "emergency": "yes", "name": "Hospital General de Axapusco"}}, {"type": "node", "id": 4621589794, "lat": 16.7591748, "lon": -93.1311455, "tags": {"amenity": "hospital", "name": "Hospital Arboledas", "name:es": "Hospital Arboledas"}}, {"type": "node", "id": 4621593589, "lat": 16.7603139, "lon": -93.1295131, "tags": {"amenity": "hospital", "name": "Multiservicios Medicos", "name:es": "Multiservicios Medicos"}}, {"type": "node", "id": 4630224372, "lat": 15.0304064, "lon": -91.1522135, "tags": {"addr:city": "Santa Cruz del Quiche", "addr:housenumber": "3 calle", "addr:street": "6-65 zona 1", "amenity": "hospital", "emergency": "no", "name": "Farmacia de Mi Tierra"}}, {"type": "node", "id": 4630224373, "lat": 15.0301042, "lon": -91.1494008, "tags": {"amenity": "hospital", "name": "Farmacia Similar"}}, {"type": "node", "id": 4630325095, "lat": 14.966932, "lon": -91.8061716, "tags": {"amenity": "hospital", "name": "Hospital San Francisco"}}, {"type": "node", "id": 4636295590, "lat": 15.3366616, "lon": -91.023505, "tags": {"amenity": "hospital"}}, {"type": "node", "id": 4661316597, "lat": 15.3226439, "lon": -91.4744806, "tags": {"amenity": "hospital", "name": "San Martin Hospital", "name:es": "San Martin Hospital"}}, {"type": "node", "id": 4661378089, "lat": 15.3112991, "lon": -91.4844431, "tags": {"amenity": "hospital", "name": "Hospital Altuve", "name:es": "Hospital Altuve"}}, {"type": "node", "id": 4662286489, "lat": 19.5696651, "lon": -99.7560945, "tags": {"addr:postcode": "50740", "addr:street": "Calle Saitama", "amenity": "hospital", "name": "Hospital General de Ixtlahuaca"}}, {"type": "node", "id": 4695658147, "lat": 19.2910358, "lon": -99.661382, "tags": {"addr:city": "Toluca de Lerdo", "addr:housenumber": "100", "addr:postcode": "50080", "addr:street": "Ezequiel Ordo\u00f1ez", "amenity": "hospital", "healthcare": "hospital", "name": "ISSEMyM Hospital de concentracion"}}, {"type": "node", "id": 4699223089, "lat": 19.769839, "lon": -97.2479715, "tags": {"addr:postcode": "93700", "amenity": "hospital", "healthcare": "hospital", "name": "Hospital Eufrosina Camacho.", "name:es": "Hospital Manuel \u00c1vila Camacho"}}, {"type": "node", "id": 4724288962, "lat": 19.2902327, "lon": -99.6628423, "tags": {"addr:city": "Toluca de Lerdo", "addr:housenumber": "600", "addr:postcode": "50080", "addr:street": "Miguel Hidalgo y Costilla", "amenity": "hospital", "name": "ISSEMYM", "phone": "01 722 226 1957", "website": "https://www.issemym.gob.mx"}}, {"type": "node", "id": 4749209739, "lat": 19.2924157, "lon": -99.6424007, "tags": {"addr:city": "Toluca de Lerdo", "addr:housenumber": "1009", "addr:postcode": "50070", "addr:street": "Avenida Independencia", "amenity": "hospital", "email": "webmasterisem@salud.gob.mx", "name": "ISEM: Secretaria e Instituto de Salud del Estado de M\u00e9xico", "phone": "7222262500", "website": "https://salud.edomexico.gob.mx/"}}, {"type": "node", "id": 4749362779, "lat": 19.2923179, "lon": -99.6720996, "tags": {"addr:city": "Toluca de Lerdo", "addr:housenumber": "305", "addr:postcode": "50040", "addr:street": "Tianguistenco", "amenity": "hospital", "name": "Cl\u00ednica Santa Teresa"}}, {"type": "node", "id": 4754069876, "lat": 18.9173832, "lon": -99.2107749, "tags": {"amenity": "hospital", "name": "Hospital Morelos"}}, {"type": "node", "id": 4768064956, "lat": 19.1264856, "lon": -98.1999203, "tags": {"addr:city": "Villa Vicente Guerrero", "addr:housenumber": "1", "addr:street": "Bicentenario", "amenity": "hospital", "name": "Hospital San Pablo", "operator": "Salud de Tlaxcala"}}, {"type": "node", "id": 4768079563, "lat": 19.0228952, "lon": -98.2020773, "tags": {"amenity": "hospital", "healthcare": "hospital", "name": "ISSSTEP"}}, {"type": "node", "id": 4793330422, "lat": 19.2869541, "lon": -99.2361104, "tags": {"addr:housenumber": "mz141 lt13", "addr:postcode": "14100", "addr:street": "Kantunil", "amenity": "hospital", "email": "ambulancias.sumedic@live.com", "name": "SUMEDIC ambulancias", "opening_hours": "24/7", "phone": "(55) 49912958", "website": "https://sumedicambulancias.com/"}}, {"type": "node", "id": 4799063705, "lat": 19.2937371, "lon": -99.6653112, "tags": {"addr:city": "Toluca de Lerdo", "addr:housenumber": "305", "addr:postcode": "50040", "addr:street": "Calle Toluca", "amenity": "hospital", "name": "Clinica De Especialidades Medicas Emmanuel"}}, {"type": "node", "id": 4802570588, "lat": 15.4506415, "lon": -92.8892095, "tags": {"amenity": "hospital", "name": "IMSS 29"}}, {"type": "node", "id": 4808955398, "lat": 14.9015388, "lon": -92.257076, "tags": {"addr:street": "calle central oriente", "amenity": "hospital", "healthcare": "hospital", "name": "Hospital Metropolitano del Sur"}}, {"type": "node", "id": 4825552248, "lat": 19.1980968, "lon": -98.4877751, "tags": {"amenity": "hospital"}}, {"type": "node", "id": 4831765750, "lat": 19.4463572, "lon": -99.1555081, "tags": {"amenity": "hospital", "emergency": "no", "name": "Laboratorio M\u00e9dico del Chopo"}}, {"type": "node", "id": 4831766821, "lat": 19.5494621, "lon": -99.2375285, "tags": {"amenity": "hospital", "name": "Laboratorios m\u00e9dicos Chopo", "wheelchair": "yes"}}, {"type": "node", "id": 4835772863, "lat": 19.4474277, "lon": -99.1551947, "tags": {"amenity": "hospital", "healthcare": "hospital", "name": "Centro Comunitario de Salud Mental Cuauht\u00e9moc"}}, {"type": "node", "id": 4839850322, "lat": 14.8867801, "lon": -92.2906029, "tags": {"amenity": "hospital", "name": "Hospital General"}}, {"type": "node", "id": 4846674224, "lat": 19.3369993, "lon": -99.1995858, "tags": {"amenity": "hospital", "healthcare": "hospital", "healthcare:speciality": "Ginecolog\u00eda_y_Obstetricia", "name": "Cl\u00ednica 4 IMSS - Ginecolog\u00eda y Obstetricia", "name:es": "Ginecolog\u00eda y Obstetricia", "operator": "IMSS"}}, {"type": "node", "id": 4860498121, "lat": 14.6089411, "lon": -90.5331623, "tags": {"addr:street": "Calle Interna IGSS", "amenity": "hospital", "name": "IGSS De Jubilados", "name:es": "IGSS De Jubilados"}}, {"type": "node", "id": 4860498122, "lat": 14.6069785, "lon": -90.5322731, "tags": {"addr:street": "Calle Interna IGSS", "amenity": "hospital", "name": "IGSS De Rehabilitaci\u00f3n", "name:es": "IGSS De Rehabilitaci\u00f3n"}}, {"type": "node", "id": 4886245715, "lat": 19.8409198, "lon": -97.498234, "tags": {"amenity": "hospital", "name": "Centro de Salud CESSA"}}, {"type": "node", "id": 4886317427, "lat": 19.8065242, "lon": -97.3668528, "tags": {"addr:housenumber": "6", "addr:postcode": "73800", "addr:street": "La Mesilla", "amenity": "hospital", "emergency": "yes", "healthcare": "hospital", "name": "OPTIMA POLICL\u00cdNICA", "phone": "01 231 313 8202", "website": "http://www.policlinicateziutlan.com/", "wheelchair": "yes"}}, {"type": "node", "id": 4917829093, "lat": 18.9891817, "lon": -98.235995, "tags": {"amenity": "hospital"}}, {"type": "node", "id": 4923344722, "lat": 14.471791, "lon": -90.6387603, "tags": {"amenity": "hospital"}}, {"type": "node", "id": 4945112222, "lat": 14.6114055, "lon": -90.5434654, "tags": {"amenity": "hospital", "name": "UNICAR", "name:es": "UNICAR"}}, {"type": "node", "id": 4949202821, "lat": 19.3096299, "lon": -99.1284724, "tags": {"addr:postcode": "04890", "addr:street": "Calzada de las Bombas", "amenity": "hospital", "healthcare": "hospital", "name": "Hospital de traumatolog\u00eda y ortopedia No 2 \"villa coapa\""}}, {"type": "node", "id": 4952957718, "lat": 16.2795116, "lon": -93.4167109, "tags": {"amenity": "hospital", "emergency": "no", "name": "U.M.R. Ejidal"}}, {"type": "node", "id": 4969186621, "lat": 19.6655146, "lon": -99.1813908, "tags": {"amenity": "hospital"}}, {"type": "node", "id": 4973093621, "lat": 16.738428, "lon": -92.6424609, "tags": {"addr:city": "san cristobal de las casas", "addr:housenumber": "61", "addr:postcode": "29240", "addr:street": "Calle 1 de Marzo", "amenity": "hospital", "emergency": "yes", "healthcare": "hospital", "healthcare:speciality": "emergency", "name": "Sanatorio Ornelas", "opening_hours": "24/7"}}, {"type": "node", "id": 4987377846, "lat": 19.4835319, "lon": -99.1342805, "tags": {"addr:street": "Avenida Instituto Polit\u00e9cnico Nacional", "amenity": "hospital", "healthcare": "hospital", "name": "Unidad de medicina f\u00edsica y rehabilitaci\u00f3n norte"}}, {"type": "node", "id": 4992679021, "lat": 16.3395853, "lon": -95.2255154, "tags": {"amenity": "hospital", "name": "Centro de Salud SS", "name:es": "Centro de Salud SS"}}, {"type": "node", "id": 4992716431, "lat": 16.1984279, "lon": -95.2015663, "tags": {"amenity": "hospital", "name": "Cruz Roja Mexicana Del. Salina Cruz"}}, {"type": "node", "id": 5026745283, "lat": 19.2525667, "lon": -99.6053074, "tags": {"amenity": "hospital", "name": "Farmacias Similares"}}, {"type": "node", "id": 5043096421, "lat": 19.3411542, "lon": -90.7332471, "tags": {"amenity": "hospital", "name": "Hospital general de Champoton", "name:es": "Hospital general de Champoton"}}, {"type": "node", "id": 5045648976, "lat": 14.634017, "lon": -90.5107544, "tags": {"addr:city": "Ciudad de Guatemala", "addr:street": "14 Calle", "amenity": "hospital", "name": "Centro de Salud Zona 1"}}, {"type": "node", "id": 5087557122, "lat": 19.4160151, "lon": -99.1623423, "tags": {"amenity": "hospital", "healthcare": "hospital", "name": "Hospital De Cos", "name:es": "Hospital De Cos"}}, {"type": "node", "id": 5091696657, "lat": 16.4327285, "lon": -95.0195868, "tags": {"amenity": "hospital", "name": "Cl\u00ednica Catalina"}}, {"type": "node", "id": 5091696658, "lat": 16.4315759, "lon": -95.0190504, "tags": {"amenity": "hospital", "name": "Guendanabani"}}, {"type": "node", "id": 5097495975, "lat": 16.4985384, "lon": -95.0520475, "tags": {"amenity": "hospital", "name": "Mexfam"}}, {"type": "node", "id": 5117146858, "lat": 19.3084815, "lon": -99.1295811, "tags": {"amenity": "hospital", "healthcare": "hospital", "name": "Hospital General IMSS Coyoac\u00e1n"}}, {"type": "node", "id": 5120993682, "lat": 18.9066113, "lon": -98.4401536, "tags": {"amenity": "hospital", "name": "IMSS Cl\u00ednica N\u00famero 34", "operator": "Gobierno"}}, {"type": "node", "id": 5123550769, "lat": 19.0365109, "lon": -98.2022369, "tags": {"amenity": "hospital", "healthcare": "hospital"}}, {"type": "node", "id": 5125680079, "lat": 18.8737932, "lon": -98.7115006, "tags": {"amenity": "hospital"}}, {"type": "node", "id": 5135444041, "lat": 19.4418532, "lon": -99.1716072, "tags": {"amenity": "hospital"}}, {"type": "node", "id": 5138747122, "lat": 19.4844305, "lon": -99.1140285, "tags": {"amenity": "hospital", "healthcare": "hospital", "name": "Hospital Guadalupe"}}, {"type": "node", "id": 5145714223, "lat": 19.5377792, "lon": -99.2276918, "tags": {"amenity": "hospital", "name": "Torre m\u00e9dica", "name:es": "Torre m\u00e9dica"}}, {"type": "node", "id": 5146092255, "lat": 19.9973641, "lon": -99.3294468, "tags": {"amenity": "hospital", "name": "Hospital Guillermo Alvarez Mac\u00edas"}}, {"type": "node", "id": 5150942550, "lat": 14.2054376, "lon": -90.846464, "tags": {"amenity": "hospital", "name": "Centro de Salud, Masagua", "operator": "MOH-Guatemala"}}, {"type": "node", "id": 5157283322, "lat": 19.494916, "lon": -99.1234808, "tags": {"addr:street": "Rio Bamba", "amenity": "hospital", "healthcare": "hospital", "name": "Hospital Boutique"}}, {"type": "node", "id": 5159116987, "lat": 14.1141533, "lon": -91.1514708, "tags": {"amenity": "hospital", "healthcare": "hospital", "name": "Puesto de Salud de la Cruces", "operator": "Ministerio de Salud"}}, {"type": "node", "id": 5163934722, "lat": 18.5323547, "lon": -92.6425863, "tags": {"addr:postcode": "86750", "addr:street": "Zaragoza", "amenity": "hospital", "name": "Sanatorio Naval De Frontera"}}, {"type": "node", "id": 5190989121, "lat": 19.4358437, "lon": -99.1634237, "tags": {"addr:city": "Ciudad de M\u00e9xico", "addr:housenumber": "115", "addr:postcode": "06470", "addr:street": "Ignacio Altamirano", "amenity": "hospital", "healthcare": "hospital", "name": "ISSSTE Unidad Especial Centro de Apoyo Diagn\u00f3stico \"San Rafael\"", "opening_hours": "Mo-Fr 07:00-18:00", "operator": "Instituto de Seguridad y Servicios Sociales de los Trabajadores del Estado", "operator:short": "ISSSTE", "operator:wikidata": "Q954557", "phone": "55462298"}}, {"type": "node", "id": 5201376921, "lat": 19.1693763, "lon": -96.1622962, "tags": {"amenity": "hospital", "healthcare": "hospital", "name": "ISSSTE Coyol", "operator": "Instituto de Seguridad y Servicios Sociales de los Trabajadores del Estado", "operator:short": "ISSSTE", "operator:wikidata": "Q954557"}}, {"type": "node", "id": 5203520921, "lat": 19.0453004, "lon": -98.2049457, "tags": {"addr:housenumber": "715", "addr:street": "Avenida 5 Poniente", "amenity": "hospital", "healthcare": "hospital", "internet_access": "wlan", "name": "Hospital Christus Muguerza Upaep", "opening_hours": "24/7", "phone": "012222298100", "website": "https://www.christusmuguerza.com.mx/"}}, {"type": "node", "id": 5220678721, "lat": 16.7601679, "lon": -93.3780587, "tags": {"amenity": "hospital", "name": "Cruz roja", "name:en": "Red cross", "opening_hours": "24/7"}}, {"type": "node", "id": 5220678924, "lat": 16.3195975, "lon": -95.2398348, "tags": {"amenity": "hospital", "name": "Cruz roja", "name:en": "Red cross", "opening_hours": "24/7"}}, {"type": "node", "id": 5235121223, "lat": 18.1936057, "lon": -98.0529107, "tags": {"amenity": "hospital", "name": "Cruz roja mexicana", "name:en": "Red Cross"}}, {"type": "node", "id": 5242014321, "lat": 15.4712114, "lon": -90.3785245, "tags": {"amenity": "hospital", "name": "Hospital Privado Maria Nazareth"}}, {"type": "node", "id": 5262091728, "lat": 19.6801859, "lon": -99.0114598, "tags": {"addr:city": "Tecamac", "addr:postcode": "55770", "addr:street": "Insurgentes", "addr:unit": "San Pedro Atzompa", "amenity": "hospital", "healthcare": "hospital", "name": "Centro Salud San Pedro"}}, {"type": "node", "id": 5277965494, "lat": 19.2906706, "lon": -98.4465049, "tags": {"amenity": "hospital", "healthcare": "hospital", "healthcare:speciality": "general;urgencias", "name": "Unidad Medicina Familiar  11"}}, {"type": "node", "id": 5278697940, "lat": 16.8771561, "lon": -95.0341976, "tags": {"amenity": "hospital", "healthcare": "hospital", "name": "Hospital Rural No. 37"}}, {"type": "node", "id": 5280393723, "lat": 19.4183686, "lon": -99.1716807, "tags": {"addr:street": "Avenida Sonora", "amenity": "hospital", "healthcare": "hospital", "name": "Centro Hospitalario Sanatorio Durango", "operator": "Sanatorio Durango"}}, {"type": "node", "id": 5306935622, "lat": 19.5357995, "lon": -99.1968054, "tags": {"amenity": "hospital"}}, {"type": "node", "id": 5319396570, "lat": 19.9638332, "lon": -97.218919, "tags": {"amenity": "hospital", "healthcare": "hospital", "name": "Hospital tlapacoyan"}}, {"type": "node", "id": 5320636874, "lat": 18.4513197, "lon": -95.2177777, "tags": {"amenity": "hospital", "healthcare": "hospital", "name": "Sanatorio Ju\u00e1rez"}}, {"type": "node", "id": 5320636875, "lat": 18.4510195, "lon": -95.2171796, "tags": {"amenity": "hospital", "healthcare": "hospital", "name": "Cl\u00ednica de Especialidades"}}, {"type": "node", "id": 5320726798, "lat": 18.353369, "lon": -96.0390575, "tags": {"amenity": "hospital", "healthcare": "hospital", "name": "Clinica"}}, {"type": "node", "id": 5321054150, "lat": 14.0867365, "lon": -91.0506137, "tags": {"amenity": "hospital", "healthcare": "hospital", "name": "Centro de Salud", "operator": "Ministerio de Salud P\u00fablica"}}, {"type": "node", "id": 5321054156, "lat": 14.0836101, "lon": -91.0511537, "tags": {"amenity": "hospital", "healthcare": "hospital", "name": "IGSS La Gomera"}}, {"type": "node", "id": 5324581122, "lat": 16.9146298, "lon": -99.8210781, "tags": {"amenity": "hospital", "healthcare": "hospital", "healthcare:speciality": "clinic", "name": "\u00b4centro de salud"}}, {"type": "node", "id": 5327834300, "lat": 18.5782031, "lon": -99.1782906, "tags": {"amenity": "hospital", "healthcare": "hospital", "healthcare:speciality": "general", "name": "Centro M\u00e9dico"}}, {"type": "node", "id": 5342042671, "lat": 19.2011898, "lon": -99.5018823, "tags": {"addr:postcode": "52640", "amenity": "hospital", "healthcare": "hospital", "name": "Centro de Salud San Pedro Tlaltizapan"}}, {"type": "node", "id": 5347850112, "lat": 18.4432522, "lon": -95.2086648, "tags": {"amenity": "hospital", "healthcare": "hospital", "healthcare:speciality": "general", "name": "Hospital General Bernardo Pe\u00f1a"}}, {"type": "node", "id": 5349376717, "lat": 18.7304005, "lon": -99.3925094, "tags": {"addr:city": "Tetecala", "addr:housenumber": "633", "addr:street": "Francisco I. Madero", "amenity": "hospital", "healthcare": "hospital", "name": "ISSSTE UMF Tetecala", "operator": "ISSSTE"}}, {"type": "node", "id": 5349400445, "lat": 18.7677614, "lon": -99.3586114, "tags": {"addr:city": "Miacatl\u00e1n", "addr:housenumber": "28", "addr:postcode": "62600", "addr:street": "Miguel Hidalgo", "amenity": "hospital", "healthcare": "hospital", "name": "IMSS Miacatl\u00e1n"}}, {"type": "node", "id": 5368779798, "lat": 19.3813291, "lon": -99.1249754, "tags": {"amenity": "hospital", "healthcare": "hospital", "name": "Cl\u00ednica m\u00e9dica."}}, {"type": "node", "id": 5369204576, "lat": 19.3545158, "lon": -99.3191599, "tags": {"amenity": "hospital", "healthcare": "hospital", "name": "Centro de"}}, {"type": "node", "id": 5391473427, "lat": 18.2920151, "lon": -98.5957044, "tags": {"amenity": "hospital", "healthcare": "hospital", "name": "Centro de Rehabilitaci\u00f3n de Chiautla de Tapia"}}, {"type": "node", "id": 5406348784, "lat": 19.8036109, "lon": -97.3684448, "tags": {"amenity": "hospital", "healthcare": "hospital", "name": "911 Teziutl\u00e1n"}}, {"type": "node", "id": 5438697770, "lat": 19.3788067, "lon": -99.1911714, "tags": {"addr:city": "Ciudad de Mexico", "addr:housenumber": "66", "addr:postcode": "03700", "addr:street": "Van Dick", "amenity": "hospital", "emergency": "no", "healthcare": "hospital", "healthcare:speciality": "autism", "name": "Cl\u00ednica Mexicana de Autismo y Alteraciones del Desarrollo", "phone": "5256118541", "website": "https://www.clima.org.mx/"}}, {"type": "node", "id": 5441375038, "lat": 19.4161532, "lon": -99.1588141, "tags": {"addr:city": "Ciudad de M\u00e9xico", "addr:postcode": "06700", "amenity": "hospital", "emergency": "yes", "healthcare": "hospital", "name": "Hospital Medex"}}, {"type": "node", "id": 5453458751, "lat": 17.9829258, "lon": -92.9186125, "tags": {"addr:city": "villahermosa", "addr:housenumber": "s/n", "addr:postcode": "86090", "addr:street": "Choc\u00f3 Tabasque\u00f1o", "amenity": "hospital", "healthcare": "hospital", "name": "Centro de Salud de Servicios Ampliados"}}, {"type": "node", "id": 5460589125, "lat": 19.3828691, "lon": -99.2552566, "tags": {"amenity": "hospital", "healthcare": "hospital", "name": "Centro de salud Palo Alto"}}, {"type": "node", "id": 5468094521, "lat": 14.6421189, "lon": -90.5205337, "tags": {"amenity": "hospital", "name": "APROFAN"}}, {"type": "node", "id": 5473384498, "lat": 18.9602774, "lon": -99.5847437, "tags": {"amenity": "hospital", "government": "public_safety", "healthcare": "hospital", "name": "Enfermer\u00eda y Protecci\u00f3n Civil", "office": "government"}}, {"type": "node", "id": 5478466522, "lat": 19.4066692, "lon": -99.1667714, "tags": {"addr:street": "Tlacotalpan", "amenity": "hospital", "healthcare": "hospital", "name": "Hospital Los Angeles Metropolitano"}}, {"type": "node", "id": 5483786323, "lat": 19.8148867, "lon": -90.5242728, "tags": {"amenity": "hospital", "healthcare": "hospital", "name": "Hospital de Especialidades del Estado de Campeche"}}, {"type": "node", "id": 5487866312, "lat": 17.9911494, "lon": -95.4041821, "tags": {"addr:city": "Juan Rodr\u00edguez Clara", "addr:housenumber": "717", "addr:postcode": "95670", "addr:street": "Jose Maria Morelos y Pav\u00f3n", "amenity": "hospital", "healthcare": "hospital", "healthcare:speciality": "internal", "name": "Hospital del Carmen", "operator": "Dr. Benito Navarrete Espinosa"}}, {"type": "node", "id": 5487871723, "lat": 17.9911954, "lon": -95.4042894, "tags": {"addr:housenumber": "717", "addr:street": "Jose Maria Morelos y Pav\u00f3n", "amenity": "hospital", "emergency": "no", "healthcare": "hospital", "healthcare:speciality": "internal", "name": "Fundaci\u00f3n Dr. Salvador Navarrete Gomez", "operator": "DR Benito Navarrete Espinosa"}}, {"type": "node", "id": 5495038042, "lat": 17.9977591, "lon": -95.3990869, "tags": {"amenity": "hospital", "healthcare": "hospital", "name": "Centro de Salud SESVER"}}, {"type": "node", "id": 5499467595, "lat": 19.2634387, "lon": -99.531192, "tags": {"amenity": "hospital", "healthcare": "hospital", "name": "SEAPS San Mateo Atenco"}}, {"type": "node", "id": 5499467697, "lat": 19.2495642, "lon": -99.5340547, "tags": {"amenity": "hospital", "healthcare": "hospital", "name": "Unidad de Medicina Familiar N. 248"}}, {"type": "node", "id": 5531233652, "lat": 19.8380774, "lon": -90.534878, "tags": {"amenity": "hospital", "healthcare": "hospital", "name": "Cl\u00ednica Campeche"}}, {"type": "node", "id": 5531233659, "lat": 19.8447482, "lon": -90.5322226, "tags": {"amenity": "hospital", "healthcare": "hospital", "name": "Hospital \"Dr. Manuel Campos\""}}, {"type": "node", "id": 5531233697, "lat": 19.8259416, "lon": -90.5642371, "tags": {"amenity": "hospital", "healthcare": "hospital", "name": "Cl\u00ednica Hospital Dr. Patricio Trueba de Regil", "operator": "Instituto de Seguridad y Servicios Sociales de los Trabajadores del Estado", "operator:short": "ISSSTE", "operator:wikidata": "Q954557"}}, {"type": "node", "id": 5539517222, "lat": 18.8849757, "lon": -98.6907623, "tags": {"amenity": "hospital", "healthcare": "hospital", "name": "CENTRO DE SALUD"}}, {"type": "node", "id": 5579177571, "lat": 18.3448773, "lon": -99.5234183, "tags": {"amenity": "hospital", "healthcare": "hospital", "name": "Hospital General Dr. Jorge Sober\u00f3n Acevedo"}}, {"type": "node", "id": 5580558722, "lat": 19.4395299, "lon": -99.1381773, "tags": {"addr:street": "Calle Rep\u00fablica de Per\u00fa", "amenity": "hospital", "healthcare": "hospital", "name": "ISSSTE C.M.F. Per\u00fa", "operator": "Instituto de Seguridad y Servicios Sociales de los Trabajadores del Estado", "operator:short": "ISSSTE", "operator:wikidata": "Q954557"}}, {"type": "node", "id": 5581796777, "lat": 18.3460979, "lon": -99.540019, "tags": {"amenity": "hospital", "healthcare": "hospital", "healthcare:speciality": "internal", "name": "UCI ALMATER"}}, {"type": "node", "id": 5581807127, "lat": 18.3454723, "lon": -99.5395572, "tags": {"amenity": "hospital", "healthcare": "hospital", "healthcare:speciality": "gynaecology;orthopaedics", "name": "San Francisco"}}, {"type": "node", "id": 5584953139, "lat": 19.3087697, "lon": -99.1296862, "tags": {"amenity": "hospital", "healthcare": "hospital", "name": "Hospital General Regional 2 IMSS", "name:es": "Hospital General Regional 2 IMSS"}}, {"type": "node", "id": 5584953140, "lat": 19.3096388, "lon": -99.129175, "tags": {"amenity": "hospital", "healthcare": "hospital", "name": "IMSS HGR 2/URGENCIAS", "name:es": "IMSS HGR 2/URGENCIAS", "operator": "Instituto Mexicano del Seguro Social", "operator:short": "IMSS", "operator:wikidata": "Q904999"}}, {"type": "node", "id": 5594982824, "lat": 19.5356059, "lon": -99.1965193, "tags": {"amenity": "hospital", "name": "Hospital Elizur", "name:es": "Hospital Elizur"}}, {"type": "node", "id": 5609773641, "lat": 14.6872284, "lon": -90.6469171, "tags": {"amenity": "hospital", "healthcare": "hospital", "name": "Centro de Salud San Pedro Sacatep\u00e9quez"}}, {"type": "node", "id": 5617539022, "lat": 19.728464, "lon": -99.4799059, "tags": {"amenity": "hospital", "name": "Hospital Villa del Carbon"}}, {"type": "node", "id": 5618754624, "lat": 19.7204226, "lon": -99.4593774, "tags": {"amenity": "hospital", "name": "Cruz Roja Mexicana, Delegaci\u00f3n Villa del Carb\u00f3n"}}, {"type": "node", "id": 5663837922, "lat": 19.3324942, "lon": -99.5710122, "tags": {"addr:street": "Boulevard Miguel Aleman Valdez", "amenity": "hospital", "name": "Cruz Roja Mexicana CENCAD"}}, {"type": "node", "id": 5670548827, "lat": 19.4097555, "lon": -99.9686571, "tags": {"amenity": "hospital", "name": "Unidad M\u00e9dica Rural IMSS"}}, {"type": "node", "id": 5737827228, "lat": 18.3344234, "lon": -99.1881571, "tags": {"addr:city": "Quetzalapa", "amenity": "hospital", "healthcare": "clinic", "healthcare:speciality": "general", "name": "Centro de salud de Quetzalapa"}}, {"type": "node", "id": 5738159606, "lat": 18.6844889, "lon": -99.1165072, "tags": {"amenity": "hospital", "healthcare": "hospital"}}, {"type": "node", "id": 5738275888, "lat": 18.2966841, "lon": -99.3304254, "tags": {"amenity": "hospital", "healthcare": "hospital"}}, {"type": "node", "id": 5738512858, "lat": 18.6843784, "lon": -99.1165935, "tags": {"amenity": "hospital", "healthcare": "hospital"}}, {"type": "node", "id": 5750644300, "lat": 18.1427618, "lon": -94.1426836, "tags": {"amenity": "hospital", "healthcare": "hospital"}}, {"type": "node", "id": 5763229275, "lat": 19.4190963, "lon": -99.0864419, "tags": {"addr:city": "Ciudad de M\u00e9xico", "amenity": "hospital", "healthcare": "hospital", "name": "Viejo Hospital Medicina familiar"}}, {"type": "node", "id": 5800001053, "lat": 14.8996503, "lon": -92.2497069, "tags": {"amenity": "hospital", "healthcare": "hospital", "name": "Urgencias Issste", "name:en": "Urgencias"}}, {"type": "node", "id": 5800001858, "lat": 18.7676164, "lon": -98.7792671, "tags": {"amenity": "hospital", "healthcare": "hospital", "name": "centro de salud temoac"}}, {"type": "node", "id": 5828290072, "lat": 16.4337331, "lon": -95.0180142, "tags": {"amenity": "hospital", "healthcare": "hospital"}}, {"type": "node", "id": 5856974863, "lat": 19.2092428, "lon": -96.1660402, "tags": {"amenity": "hospital", "healthcare": "hospital", "name": "Dif municipal"}}, {"type": "node", "id": 5859879662, "lat": 16.367336, "lon": -94.1915957, "tags": {"amenity": "hospital", "healthcare": "hospital"}}, {"type": "node", "id": 5859884832, "lat": 16.3384414, "lon": -94.5125575, "tags": {"amenity": "hospital", "healthcare": "hospital"}}, {"type": "node", "id": 5869745413, "lat": 17.336503, "lon": -96.257543, "tags": {"amenity": "hospital", "healthcare": "hospital", "healthcare:speciality": "general", "name": "Centro de Salud"}}, {"type": "node", "id": 5900012685, "lat": 19.2895487, "lon": -99.1549306, "tags": {"amenity": "hospital", "healthcare": "hospital", "name": "Instituto Nacional de Psiquiatr\u00eda"}}, {"type": "node", "id": 5917510539, "lat": 18.5336535, "lon": -92.6456965, "tags": {"amenity": "hospital", "healthcare": "hospital", "name": "S E P"}}, {"type": "node", "id": 5917510541, "lat": 18.5361372, "lon": -92.6433093, "tags": {"amenity": "hospital", "healthcare": "hospital", "name": "IMSS"}}, {"type": "node", "id": 5940093071, "lat": 16.6216089, "lon": -93.1045478, "tags": {"addr:city": "Suchiapa", "addr:postcode": "29150", "amenity": "hospital", "description": "Centro de Salud Municipal", "healthcare": "hospital", "name": "Centro de Salud"}}, {"type": "node", "id": 5960380385, "lat": 14.9120306, "lon": -92.2624171, "tags": {"addr:street": "11a Calle Poniente", "amenity": "hospital", "healthcare": "hospital", "name": "Fundaci\u00f3n M\u00e9dica", "phone": "9626285165"}}, {"type": "node", "id": 5988087085, "lat": 14.537497, "lon": -91.5029774, "tags": {"addr:housenumber": "4-26", "addr:postcode": "10001", "addr:street": "2a Calle Zona 1", "amenity": "hospital", "name": "Sanatorio Nuestra. Sra. De Guadaluoe", "name:en": "Espa\u00f1ol", "opening_hours": "24/7", "phone": "78722021"}}, {"type": "node", "id": 6016836125, "lat": 19.8700752, "lon": -97.5880463, "tags": {"amenity": "hospital", "emergency": "yes", "healthcare": "hospital", "healthcare:speciality": "general;gynaecology;internal;paediatrics;surgery", "name": "Hospital San Pedro", "operator": "Independiente"}}, {"type": "node", "id": 6042993413, "lat": 18.8824111, "lon": -99.1771246, "tags": {"amenity": "hospital", "healthcare": "hospital", "name": "Unidad de Medicina Familiar No.3"}}, {"type": "node", "id": 6047850590, "lat": 19.5703159, "lon": -99.0459807, "tags": {"amenity": "hospital", "healthcare": "hospital", "name": "ISSEMYM"}}, {"type": "node", "id": 6051620426, "lat": 19.5811947, "lon": -99.0168387, "tags": {"amenity": "hospital", "healthcare": "hospital", "name": "Issemym"}}, {"type": "node", "id": 6081141105, "lat": 19.4377149, "lon": -99.1295475, "tags": {"amenity": "hospital", "healthcare": "hospital", "name": "Hospital General"}}, {"type": "node", "id": 6201250085, "lat": 19.464502, "lon": -97.6876924, "tags": {"addr:street": "5 de Mayo", "amenity": "hospital", "name": "Ambulancia SUMA (Base)", "name:es": "Ambulancia SUMA (Base) 911", "opening_hours": "24/7"}}, {"type": "node", "id": 6217826649, "lat": 18.935901, "lon": -99.2330742, "tags": {"amenity": "hospital", "emergency": "yes", "healthcare": "hospital", "name": "Hospital General de Cuernavaca \"Dr. Jos\u00e9 G. Parres\""}}, {"type": "node", "id": 6223359252, "lat": 19.5501232, "lon": -99.0517137, "tags": {"amenity": "hospital", "healthcare": "hospital", "name": "Unidad de Medicina Familiar 93"}}, {"type": "node", "id": 6262455285, "lat": 19.554395, "lon": -97.6439568, "tags": {"amenity": "hospital", "name": "Hospital general de Ocotepec"}}, {"type": "node", "id": 6335992963, "lat": 19.838023, "lon": -99.9840859, "tags": {"alt_name": "Instituto de Salud del Estado de M\u00e9xico", "amenity": "hospital", "name": "ISEM, Unidad de Consulta Externa San Francisco Teopelulco, Atlacomulco"}}, {"type": "node", "id": 6336666467, "lat": 19.6093786, "lon": -99.0504374, "tags": {"amenity": "hospital", "healthcare": "hospital", "name": "ISSEMYM Ecatepec"}}, {"type": "node", "id": 6364019425, "lat": 18.1498484, "lon": -94.4199421, "tags": {"amenity": "hospital", "healthcare": "hospital", "name": "Semedis"}}, {"type": "node", "id": 6376974827, "lat": 16.8561794, "lon": -99.902285, "tags": {"amenity": "hospital", "healthcare": "hospital", "name": "Oficinas Delegacionales IMSS"}}, {"type": "node", "id": 6388008703, "lat": 18.9617695, "lon": -99.2389608, "tags": {"addr:city": "Cuernavaca", "addr:postcode": "62250", "addr:street": "Avenida Domingo Diez", "amenity": "hospital", "healthcare": "hospital", "name": "Hospital Militar de Zona"}}, {"type": "node", "id": 6389734742, "lat": 19.550623, "lon": -99.0515915, "tags": {"addr:street": "Calle V\u00eda Jos\u00e9 Mar\u00eda Morelos", "amenity": "hospital", "healthcare": "hospital", "name": "ISSSTE Cl\u00ednica de Medicina Familitar Xalostoc", "operator": "Instituto de Seguridad y Servicios Sociales de los Trabajadores del Estado", "operator:short": "ISSSTE", "operator:wikidata": "Q954557"}}, {"type": "node", "id": 6394674309, "lat": 19.3666033, "lon": -99.1113957, "tags": {"addr:city": "CDMX", "addr:housenumber": "1759", "addr:postcode": "09060", "addr:street": "Calle Alfonso Toro", "amenity": "hospital", "healthcare": "hospital", "healthcare:speciality": "Diabetes", "name": "Clinica Especializada en el Manejo Integral de la Diabetes Iztapalapa"}}, {"type": "node", "id": 6405459709, "lat": 16.7099435, "lon": -93.1227578, "tags": {"amenity": "hospital", "healthcare": "hospital", "name": "Centro de Salud Copoya"}}, {"type": "node", "id": 6418719585, "lat": 14.8436694, "lon": -91.5280804, "tags": {"addr:housenumber": "2 - 22", "addr:street": "2a Calle", "amenity": "hospital", "name": "Centro Quiropractico y Terapia Fisica"}}, {"type": "node", "id": 6426403894, "lat": 19.3591659, "lon": -99.353201, "tags": {"amenity": "hospital", "healthcare": "hospital", "name": "Hospital Municipal Huixquilucan"}}, {"type": "node", "id": 6426403897, "lat": 19.3615562, "lon": -99.3493092, "tags": {"amenity": "hospital", "healthcare": "hospital", "name": "Centro Medico Huixquilucan"}}, {"type": "node", "id": 6426682600, "lat": 19.5925946, "lon": -99.1916659, "tags": {"addr:city": "Cuautitl\u00e1n Izcalli", "addr:housenumber": "S/N", "addr:postcode": "54764", "addr:street": "Rosal", "amenity": "hospital", "healthcare": "hospital", "name": "Centro de Salud Santa Mar\u00eda de Guadalupe"}}, {"type": "node", "id": 6431952620, "lat": 19.3986431, "lon": -99.3290624, "tags": {"amenity": "hospital", "healthcare": "hospital", "name": "Hospital Campos Castellanos Jorge"}}, {"type": "node", "id": 6466683705, "lat": 19.4005799, "lon": -99.31183, "tags": {"amenity": "hospital", "healthcare": "hospital", "name": "Efra\u00edn D\u00edaz Jouanen"}}, {"type": "node", "id": 6469723686, "lat": 14.7029627, "lon": -91.8538003, "tags": {"addr:street": "6 calle", "amenity": "hospital", "name": "IGSS Coatepeque", "opening_hours": "24/7", "phone": "7775 1674"}}, {"type": "node", "id": 6479600260, "lat": 19.1970224, "lon": -96.1326927, "tags": {"amenity": "hospital", "healthcare": "hospital", "name": "Sanatorio de la Luz"}}, {"type": "node", "id": 6486850543, "lat": 14.5093654, "lon": -90.6180504, "tags": {"amenity": "hospital", "healthcare": "hospital", "name": "Hospital Nacional Especializado de Villa Nueva", "wikidata": "Q87686881", "wikipedia": "es:Hospital Nacional Especializado de Villa Nueva"}}, {"type": "node", "id": 6486906139, "lat": 19.1727108, "lon": -96.1330006, "tags": {"amenity": "hospital", "healthcare": "hospital", "name": "Centro Medico Medicenter"}}, {"type": "node", "id": 6504533892, "lat": 19.1218077, "lon": -96.1254851, "tags": {"amenity": "hospital", "healthcare": "hospital", "name": "Centro de Salud Venustiano Carranza"}}, {"type": "node", "id": 6504533902, "lat": 19.121933, "lon": -96.1289289, "tags": {"amenity": "hospital", "healthcare": "hospital", "name": "Unidad Medica Urbana de Boca del Rio"}}, {"type": "node", "id": 6654012248, "lat": 15.6649549, "lon": -91.7048034, "tags": {"amenity": "hospital", "healthcare": "hospital", "name": "Centro de Salud"}}, {"type": "node", "id": 6704578085, "lat": 14.63467, "lon": -90.5182023, "tags": {"amenity": "hospital", "healthcare": "hospital", "name": "Liga Guatemalteca del Coraz\u00f3n"}}, {"type": "node", "id": 6704578185, "lat": 14.6350431, "lon": -90.5185171, "tags": {"amenity": "hospital", "name": "Liga Guatemalteca del Coraz\u00f3n - Central."}}, {"type": "node", "id": 6720453187, "lat": 19.4053846, "lon": -99.1681599, "tags": {"amenity": "hospital", "healthcare": "hospital", "name": "Hospital \u00c1ngeles Dalinde"}}, {"type": "node", "id": 6720453188, "lat": 19.4842608, "lon": -99.1852226, "tags": {"amenity": "hospital", "healthcare": "hospital", "name": "Hospital Pediatrico de Azcapotzalco", "phone": "5561 2854, 5561 7904, 5347 1490"}}, {"type": "node", "id": 6737769585, "lat": 19.3198842, "lon": -98.8519805, "tags": {"amenity": "hospital", "name": "Hospital General Ixtapaluca Dr Pedro L\u00f3pez", "opening_hours": "24/7"}}, {"type": "node", "id": 6754113874, "lat": 17.4138572, "lon": -99.2455578, "tags": {"amenity": "hospital", "healthcare": "hospital", "name": "Hospital de Quechultenango"}}, {"type": "node", "id": 6915950869, "lat": 19.2858166, "lon": -99.4787636, "tags": {"amenity": "hospital", "healthcare": "hospital", "name": "Cruz Roja, Delegaci\u00f3n Lerma", "operator": "Cruz Roja Mexicana", "operator:type": "public"}}, {"type": "node", "id": 6929263172, "lat": 19.1830741, "lon": -96.1380655, "tags": {"amenity": "hospital", "healthcare": "hospital", "name": "Maternidad Villa Rica"}}, {"type": "node", "id": 6942900385, "lat": 18.0136483, "lon": -92.9271801, "tags": {"amenity": "hospital", "healthcare": "hospital", "name": "Hospital Rovirosa"}}, {"type": "node", "id": 7048209303, "lat": 16.131223, "lon": -92.0520966, "tags": {"amenity": "hospital", "name": "Centro de Salud La Trinitaria"}}, {"type": "node", "id": 7048209306, "lat": 16.2075278, "lon": -92.1075018, "tags": {"amenity": "hospital", "name": "Hospital de La Mujer Comit\u00e1n de Dom\u00ednguez", "name:es": "Hospital de La Mujer Belisario Dom\u00ednguez"}}, {"type": "node", "id": 7058767486, "lat": 14.5268209, "lon": -90.5884624, "tags": {"amenity": "hospital", "healthcare": "hospital", "name": "Hospital Villa San Francisco"}}, {"type": "node", "id": 7058767491, "lat": 14.52101, "lon": -90.5747999, "tags": {"amenity": "hospital", "healthcare": "hospital", "name": "Hospital"}}, {"type": "node", "id": 7058767497, "lat": 14.5257077, "lon": -90.5875738, "tags": {"amenity": "hospital", "healthcare": "hospital", "name": "Centro de Salud"}}, {"type": "node", "id": 7058767510, "lat": 14.5206332, "lon": -90.5645703, "tags": {"amenity": "hospital", "healthcare": "hospital", "name": "Blue Medical"}}, {"type": "node", "id": 7064022087, "lat": 14.9687007, "lon": -91.7757627, "tags": {"amenity": "hospital", "name": "Centro de salud"}}, {"type": "node", "id": 7109437778, "lat": 16.7747787, "lon": -96.9566121, "tags": {"amenity": "hospital", "healthcare": "hospital"}}, {"type": "node", "id": 7111011986, "lat": 15.8635025, "lon": -97.0762288, "tags": {"amenity": "hospital", "name": "Centro m\u00e9dico de Puerto Escondido", "name:en": "Puerto Escondido medical services"}}, {"type": "node", "id": 7144317185, "lat": 16.784144, "lon": -98.2458766, "tags": {"amenity": "hospital", "healthcare": "hospital", "name": "Hospital Basico Comunitario de Xochistlahuaca"}}, {"type": "node", "id": 7144317228, "lat": 16.7876482, "lon": -98.2438749, "tags": {"amenity": "hospital", "healthcare": "hospital", "name": "Centro de Salud Cozoyoapan"}}, {"type": "node", "id": 7152131883, "lat": 18.9731632, "lon": -98.2467869, "tags": {"amenity": "hospital", "healthcare": "hospital", "name": "Centro de Salud"}}, {"type": "node", "id": 7157605247, "lat": 14.6454588, "lon": -91.5586784, "tags": {"amenity": "hospital", "emergency": "yes", "healthcare": "hospital", "healthcare:speciality": "general", "name": "Centro de Atenci\u00f3n Permanente", "wheelchair": "yes"}}, {"type": "node", "id": 7207139030, "lat": 18.4662496, "lon": -95.302827, "tags": {"amenity": "hospital", "healthcare": "hospital", "name": "Clinica Doctores Castellanos"}}, {"type": "node", "id": 7214513385, "lat": 14.8556399, "lon": -90.0629148, "tags": {"amenity": "hospital", "name": "Hospital General de Guastatoya"}}, {"type": "node", "id": 7217120133, "lat": 18.450415, "lon": -95.2203401, "tags": {"amenity": "hospital", "healthcare": "hospital", "name": "ISSSTE"}}, {"type": "node", "id": 7217120143, "lat": 18.453319, "lon": -95.2190943, "tags": {"amenity": "hospital", "healthcare": "hospital", "name": "Subdelegacion Imss"}}, {"type": "node", "id": 7221087559, "lat": 18.4545922, "lon": -95.2169425, "tags": {"amenity": "hospital", "healthcare": "hospital", "name": "Jurisdiccion Sanitaria y Centro de Salud"}}, {"type": "node", "id": 7233741946, "lat": 18.4207275, "lon": -95.1124904, "tags": {"amenity": "hospital", "healthcare": "hospital", "name": "Centro de salud Catemaco"}}, {"type": "node", "id": 7239642617, "lat": 19.2955626, "lon": -99.701324, "tags": {"amenity": "hospital", "healthcare": "hospital", "name": "Centro de Salud Emiliano Zapata"}}, {"type": "node", "id": 7240397905, "lat": 19.287917, "lon": -99.6947991, "tags": {"amenity": "hospital", "healthcare": "hospital", "name": "SAMPRE"}}, {"type": "node", "id": 7248245289, "lat": 19.2700887, "lon": -99.684844, "tags": {"amenity": "hospital", "healthcare": "hospital", "name": "Especiales Odontologicos"}}, {"type": "node", "id": 7248438683, "lat": 19.2671595, "lon": -99.6616293, "tags": {"amenity": "hospital", "healthcare": "hospital", "name": "Instituto Materno Infantil del Estado de Mexico"}}, {"type": "node", "id": 7257513510, "lat": 19.2877969, "lon": -99.6738886, "tags": {"amenity": "hospital", "healthcare": "hospital", "name": "Centro Medico Adolfo Lopez"}}, {"type": "node", "id": 7261616759, "lat": 19.3294366, "lon": -99.1767088, "tags": {"amenity": "hospital", "healthcare": "hospital", "name": "Hospital de avez FMVZ- UNAM"}}, {"type": "node", "id": 7261644107, "lat": 19.3301095, "lon": -99.1767591, "tags": {"amenity": "hospital", "healthcare": "hospital", "name": "MCZE Hospital para \u00c9quidos"}}, {"type": "node", "id": 7271605282, "lat": 19.2842044, "lon": -99.6739026, "tags": {"amenity": "hospital", "healthcare": "hospital", "name": "Torre Medica II"}}, {"type": "node", "id": 7271612385, "lat": 19.2839968, "lon": -99.6737256, "tags": {"amenity": "hospital", "healthcare": "hospital", "name": "Centro Especializado de Urolog\u00eda"}}, {"type": "node", "id": 7274730385, "lat": 14.6948149, "lon": -91.2787565, "tags": {"amenity": "hospital", "name": "Centro de Salud"}}, {"type": "node", "id": 7287976745, "lat": 19.1845308, "lon": -96.1317031, "tags": {"amenity": "hospital", "healthcare": "hospital", "name": "Hospital de Maria"}}, {"type": "node", "id": 7287976746, "lat": 19.1845745, "lon": -96.1314042, "tags": {"amenity": "hospital", "healthcare": "hospital", "name": "Coorporativo san Gabriel"}}, {"type": "node", "id": 7360544815, "lat": 19.5200539, "lon": -98.8816763, "tags": {"amenity": "hospital", "healthcare": "hospital"}}, {"type": "node", "id": 7364583695, "lat": 18.3537061, "lon": -96.1623419, "tags": {"amenity": "hospital", "healthcare": "hospital", "name": "Unidad de Medicina Familiar"}}, {"type": "node", "id": 7392909592, "lat": 19.377257, "lon": -99.1333431, "tags": {"addr:city": "CDMX", "addr:housenumber": "18", "addr:postcode": "09440", "addr:street": "Eje 6 Sur, Playa Pie de la Cuesta", "amenity": "hospital", "healthcare": "hospital", "healthcare:speciality": "gynaecology", "name": "Cl\u00ednica de Colposcopia Fundaci\u00f3n Cruz Talonia", "operator": "Fundaci\u00f3n Cruz Talonia", "operator:type": "public"}}, {"type": "node", "id": 7393104443, "lat": 19.3699886, "lon": -99.1558906, "tags": {"addr:city": "Ciudad de M\u00e9xico", "addr:housenumber": "270", "addr:street": "Eje 7 Sur, Avenida Municipio Libre", "amenity": "hospital", "emergency": "yes", "healthcare": "hospital", "healthcare:speciality": "general", "name": "IMSS Hospital General de Zona 1-A Dr. Rodolfo Antonio de Mucha Macias \"Venados\"", "operator": "Instituto Mexicano del Seguro Social", "operator:short": "IMSS", "operator:type": "public", "operator:wikidata": "Q904999"}}, {"type": "node", "id": 7477746523, "lat": 18.9032781, "lon": -97.9272257, "tags": {"addr:city": "San Buenaventura Tetlananca", "addr:street": "Calle 3 Sur", "amenity": "hospital", "healthcare": "hospital", "name": "Casa de salud"}},