{"version": 0.6, "generator": "Overpass API 0.7.61.5 4133829e", "osm3s": {"timestamp_osm_base": "2023-10-31T20:52:36Z", "copyright": "The data included in this document is from www.openstreetmap.org. The data is made available under ODbL."}, "elements": [{"type": "node", "id": 344614499, "lat": 12.3979957, "lon": -1.506993, "tags": {"amenity": "hospital", "created_by": "Potlatch 0.10f"}}, {"type": "node", "id": 2163838646, "lat": 12.6367, "lon": -8.00353, "tags": {"amenity": "hospital", "health_facility:type": "hospital", "name": "CHU CNOS", "pcode": "ML08H03U004", "source": "OMS Survey", "start_date": "10-Feb-1986", "who:code_csref": "ML08H03", "who:distance": "0", "who:nbre_village": "0"}}, {"type": "node", "id": 2163839816, "lat": 13.4336712, "lon": -6.2940804, "tags": {"alt_name": "S\u00e9goucoura", "amenity": "hospital", "health_facility:type": "CSCom", "healthcare": "hospital", "name": "CSCom de S\u00e9goucoura", "opening_hours": "24/7", "operator:type": "community", "phone": "66803355", "source": "YouthMappers At University of Segou", "supervised": "UNIVERSIT\u00c9 DE S\u00c9GOU/ OSM MALI ,", "survey:date": "2022-09-07", "wheelchair": "yes", "who:distance": "4", "who:nbre_village": "3"}}, {"type": "node", "id": 2163840419, "lat": 16.2664392, "lon": -0.0385694, "tags": {"amenity": "hospital", "health_facility:type": "hospital", "name": "H\u00f4pital de Gao", "name:ar": "\u0645\u0633\u062a\u0634\u0641\u0649 \u063a\u0627\u0648", "pcode": "ML07H01H001", "source": "OMS Survey", "start_date": "15-Jul-2003", "who:code_csref": "ML07H01", "who:distance": "0", "who:nbre_village": "0"}}, {"type": "node", "id": 2163840431, "lat": 14.52742, "lon": -4.09344, "tags": {"amenity": "hospital", "health_facility:type": "hospital", "healthcare": "hospital", "is_in:cercle": "Mopti", "name": "H\u00f4pital de S\u00e9var\u00e9", "pcode": "ML05H02H002", "source": "OMS Survey", "start_date": "1-Jan-2011", "who:code_csref": "ML05H02", "who:distance": "0", "who:nbre_village": "0"}}, {"type": "node", "id": 2525525616, "lat": 12.5757582, "lon": -7.9584097, "tags": {"amenity": "hospital", "name": "Clinique Espoir"}}, {"type": "node", "id": 2527959020, "lat": 13.6888181, "lon": -6.0712357, "tags": {"amenity": "hospital", "name": "H\u00f4pital de markala"}}, {"type": "node", "id": 3192801077, "lat": 12.58214, "lon": -7.99362, "tags": {"amenity": "hospital", "name": "CSCom", "pcode": "ML08R05C008", "source": "OMS Survey", "start_date": "2-Nov-1998", "type": "CSCom", "wheelchair": "yes", "who:code_csref": "ML08R05", "who:distance": "2", "who:nbre_village": "1"}}, {"type": "node", "id": 3200016779, "lat": 12.643859, "lon": -8.0317458, "tags": {"addr:city": "Bamako", "addr:quarter": "Commune IV", "addr:suburb": "Hamdallaye", "amenity": "hospital", "consent": "yes", "handwashing": "yes", "handwashing:soap": "no", "handwashing_number": "8", "handwashing_station_distance": "yes", "handwashing_usability": "8", "latrine_emptying_service": "yes", "name": "Cscom/HAMDALAYE", "opening_hours": "24/7", "operator": "community", "patient_female": "13", "patient_male": "10", "phone": "78811461", "sanitation": "yes", "staff_count": "28", "staff_count:doctors": "2", "toilets:disposal": "pitlatrine", "toilets:female": "yes", "toilets:num_chambers": "22", "toilets:staff": "yes", "wash_maintenance": "yes", "wash_maintenance_frequency": "once_a_day", "wash_management": "no", "wash_ngo_support": "no", "water_point": "yes", "water_point_improved": "Public_tap_fountain_SOMAGEP_riser_hand_pump", "water_point_location": "yes", "water_point_number": "2", "water_point_type": "improved", "water_point_usability": "1"}}, {"type": "node", "id": 3207906941, "lat": 12.6618742, "lon": -7.9729285, "tags": {"addr:street": "Rue 228", "amenity": "hospital", "name": "Clinique Piti\u00e9"}}, {"type": "node", "id": 3240033910, "lat": 12.3723813, "lon": -5.4763877, "tags": {"amenity": "hospital", "name": "CPAM"}}, {"type": "node", "id": 3463625824, "lat": 12.6407701, "lon": -8.0269043, "tags": {"amenity": "hospital", "health_facility:type": "laboratory", "healthcare": "hospital", "name": "Laboratoire d'Analyse Medicale"}}, {"type": "node", "id": 4005366260, "lat": 13.432543, "lon": -6.2555146, "tags": {"amenity": "hospital", "name": "CSCOM"}}, {"type": "node", "id": 4024296406, "lat": 12.4036158, "lon": -5.4569409, "tags": {"amenity": "hospital", "name": "Centre de Sante Chretien Darsalam1"}}, {"type": "node", "id": 4281287096, "lat": 12.5324472, "lon": -7.9368453, "tags": {"amenity": "hospital", "name": "Infirm\u00e9rie Garnison Base A\u00e9rienne 101 Senou"}}, {"type": "node", "id": 4506775367, "lat": 12.799113, "lon": -6.9439888, "tags": {"amenity": "hospital", "healthcare": "hospital", "name": "Centre de R\u00e9f\u00e9rence de Fana"}}, {"type": "node", "id": 4506775372, "lat": 13.4462824, "lon": -6.260788, "tags": {"amenity": "hospital", "name": "H\u00f4pital Nianankoro Fomba", "opening_hours": "24/7", "operator:type": "government", "phone": "21320251", "source": "YouthMappers at University of Segou", "supervised": "Universit\u00e9 de S\u00e9gou / OSM MALI"}}, {"type": "node", "id": 4528456927, "lat": 13.570868, "lon": -2.4107923, "tags": {"addr:city": "Almaty", "addr:housenumber": "74", "addr:street": "N 2 Avenue de Mopti", "amenity": "hospital", "name": "Malika"}}, {"type": "node", "id": 4553065122, "lat": 14.0926392, "lon": -2.16583, "tags": {"amenity": "hospital", "name": "CSPS de Tibou"}}, {"type": "node", "id": 4757784569, "lat": 12.9630231, "lon": -6.853337, "tags": {"amenity": "hospital", "name": "CSCOM de Kalak\u00e8", "name:fr": "CSCOM de Kalak\u00e8"}}, {"type": "node", "id": 4959143922, "lat": 13.2879576, "lon": -4.5910608, "tags": {"amenity": "hospital", "healthcare": "hospital", "name": "CCref", "name:fr": "CCref"}}, {"type": "node", "id": 5056518221, "lat": 12.8594072, "lon": -4.676668, "tags": {"amenity": "hospital", "healthcare": "hospital", "name": "CSCOM Diora", "name:fr": "CSCOM Diora"}}, {"type": "node", "id": 5061818825, "lat": 13.3832977, "lon": -7.9940762, "tags": {"amenity": "hospital", "name": "Centre Sant\u00e9 Tioribougou", "name:fr": "Centre Sant\u00e9 Tioribougou"}}, {"type": "node", "id": 5108122242, "lat": 13.5898221, "lon": -8.0384373, "tags": {"amenity": "hospital", "name": "Centre de r\u00e9f\u00e9rence sant\u00e9 kolokani", "name:en": "Kolokani healh service"}}, {"type": "node", "id": 5111883546, "lat": 12.2361713, "lon": -1.6037183, "tags": {"amenity": "hospital", "name": "CSPS de Dayoubsi"}}, {"type": "node", "id": 5128272170, "lat": 12.6521231, "lon": -8.0275689, "tags": {"amenity": "hospital", "healthcare": "hospital", "name": "Clinique Farako"}}, {"type": "node", "id": 5157646524, "lat": 14.083355, "lon": -3.509163, "tags": {"amenity": "hospital", "health_facility:type": "CSRef", "healthcare": "clinic", "name": "Centre de Sant\u00e9 de R\u00e9f\u00e9rence de Bankass", "pcode": "ML05R03C000", "source": "OMS Survey", "start_date": "1-Jan-2011", "who:code_csref": "ML05R03", "who:distance": "135", "who:nbre_village": "0"}}, {"type": "node", "id": 5224845823, "lat": 13.9210643, "lon": -8.1981982, "tags": {"amenity": "hospital", "name": "CSCOM Mercoya"}}, {"type": "node", "id": 5248938382, "lat": 13.4096582, "lon": -6.2228054, "tags": {"alt_name": "Pelengana sud", "amenity": "hospital", "name": "H\u00f4pital Saint Paul VI(Gavardo)", "opening_hours": "24/7", "operator:type": "private", "phone": "20801925", "source": "YouthMappers At University Of Segou", "supervised": "Universit\u00e9 de S\u00e9gou/OSM MALI", "survey:date": "2022-09-07", "wheelchair": "yes"}}, {"type": "node", "id": 5301137921, "lat": 12.6235551, "lon": -7.9952097, "tags": {"amenity": "hospital", "healthcare": "hospital", "name": "Golden Life"}}, {"type": "node", "id": 5394478323, "lat": 12.6299282, "lon": -8.0534097, "tags": {"amenity": "hospital", "name": "CSCOM de Taliko Bougoudani"}}, {"type": "node", "id": 5487378355, "lat": 16.9550905, "lon": -0.3502623, "tags": {"amenity": "hospital", "healthcare": "hospital", "name": "Nouveau CSR\u00e9f (Pr\u00e9vision)"}}, {"type": "node", "id": 5497175918, "lat": 12.6870958, "lon": -7.9609723, "tags": {"addr:street": "Banconi Djanguinebougou", "amenity": "hospital", "healthcare": "hospital", "name": "Centre de sante Cherifla"}}, {"type": "node", "id": 5752960621, "lat": 12.0584301, "lon": -1.401912, "tags": {"amenity": "hospital", "healthcare": "doctor", "name": "CSPS", "name:fr": "CSPS"}}, {"type": "node", "id": 5777305164, "lat": 13.7656545, "lon": -1.8488158, "tags": {"amenity": "hospital", "name": "CSPS de Hitt\u00e9"}}, {"type": "node", "id": 5865302499, "lat": 12.5492357, "lon": -5.1666306, "tags": {"amenity": "hospital", "name": "CSCOM"}}, {"type": "node", "id": 6013979370, "lat": 11.4951214, "lon": -8.5486273, "tags": {"amenity": "hospital", "name": "Infirmerie de Sananfara", "operator": "Vitry"}}, {"type": "node", "id": 6023872391, "lat": 13.4008243, "lon": -8.8619361, "tags": {"amenity": "hospital", "healthcare": "hospital", "name": "CSCOM de Madina"}}, {"type": "node", "id": 6055315540, "lat": 11.6435923, "lon": -8.7530126, "tags": {"amenity": "hospital", "name": "CSCOM de Dioulafoundo", "source": "Survey"}}, {"type": "node", "id": 6136475335, "lat": 12.3571095, "lon": -4.7759591, "tags": {"amenity": "hospital", "name": "Centre de Sant\u00e9 de R\u00e9f\u00e9rence de Yorosso"}}, {"type": "node", "id": 6200766846, "lat": 13.7202915, "lon": -5.2407897, "tags": {"amenity": "hospital", "name": "Centre de Sant\u00e9 Communautaire de Sarro"}}, {"type": "node", "id": 6205840352, "lat": 13.9056897, "lon": -4.5619521, "tags": {"amenity": "hospital", "healthcare": "hospital", "name": "Grand hopital de Djenne"}}, {"type": "node", "id": 6235837136, "lat": 12.2480021, "lon": -1.3289917, "tags": {"amenity": "hospital", "name": "CSPS de Tanvi"}}, {"type": "node", "id": 6411601432, "lat": 14.7479497, "lon": -2.9648709, "tags": {"amenity": "hospital", "healthcare": "hospital"}}, {"type": "node", "id": 6431481878, "lat": 13.4318761, "lon": -3.9411682, "tags": {"amenity": "hospital", "name": "CSPS de Kombori"}}, {"type": "node", "id": 6450529923, "lat": 12.251082, "lon": -2.0375991, "tags": {"amenity": "hospital", "name": "CSPS de Koulgoren"}}, {"type": "node", "id": 6450529943, "lat": 12.2804187, "lon": -1.9977146, "tags": {"amenity": "hospital", "name": "CSPS de Koanga"}}, {"type": "node", "id": 6499502781, "lat": 11.1707522, "lon": -4.3016772, "tags": {"amenity": "hospital", "healthcare": "hospital", "name": "Pneumologie"}}, {"type": "node", "id": 6548674796, "lat": 12.6108067, "lon": -7.9962122, "tags": {"amenity": "hospital", "healthcare": "hospital", "name": "Bloc Operatoire"}}, {"type": "node", "id": 6566471926, "lat": 13.4442775, "lon": -9.874231, "tags": {"amenity": "hospital", "healthcare": "hospital"}}, {"type": "node", "id": 6566471995, "lat": 13.2023654, "lon": -9.4542031, "tags": {"amenity": "hospital", "healthcare": "hospital", "name": "cscom"}}, {"type": "node", "id": 6566472023, "lat": 13.2008913, "lon": -9.4559284, "tags": {"amenity": "hospital", "healthcare": "hospital"}}, {"type": "node", "id": 6577176985, "lat": 12.6567782, "lon": -8.0289168, "tags": {"amenity": "hospital", "name": "Ophtalmo Keita Vision"}}, {"type": "node", "id": 6664097898, "lat": 11.1708481, "lon": -4.3011626, "tags": {"amenity": "hospital", "healthcare": "hospital", "name": "Accueil Service renseignement"}}, {"type": "node", "id": 6664107762, "lat": 11.1704782, "lon": -4.3020707, "tags": {"amenity": "hospital", "healthcare": "hospital", "name": "Consultation"}}, {"type": "node", "id": 6664182108, "lat": 11.1705264, "lon": -4.3019391, "tags": {"amenity": "hospital", "healthcare": "hospital", "name": "Cardiologie"}}, {"type": "node", "id": 6664216006, "lat": 11.1707503, "lon": -4.3013384, "tags": {"amenity": "hospital", "healthcare": "hospital", "name": "Urgences"}}, {"type": "node", "id": 6724862817, "lat": 13.3567689, "lon": -2.5444186, "tags": {"amenity": "hospital", "name": "CSPS de Rega", "operator": "government"}}, {"type": "node", "id": 6754053885, "lat": 15.9276482, "lon": -3.9954637, "tags": {"amenity": "hospital", "healthcare": "hospital", "name": "CSREF"}}, {"type": "node", "id": 6860866042, "lat": 10.4632541, "lon": -4.0003002, "tags": {"amenity": "hospital", "name": "CSPS de Kou\u00e9r\u00e9"}}, {"type": "node", "id": 6868115020, "lat": 10.5247807, "lon": -4.0599874, "tags": {"amenity": "hospital", "name": "CSPS de Dandougou"}}, {"type": "node", "id": 6899257185, "lat": 12.941474, "lon": -0.6563018, "tags": {"amenity": "hospital", "name": "CSPS de Koumenstenga-Mossi"}}, {"type": "node", "id": 6935762560, "lat": 10.3740321, "lon": -4.2002615, "tags": {"amenity": "hospital", "name": "CSPS de Faradjan"}}, {"type": "node", "id": 6967776019, "lat": 12.7311547, "lon": -3.8597336, "tags": {"amenity": "hospital", "name": "Centre M\u00e9dical de Nouna"}}, {"type": "node", "id": 7123358611, "lat": 13.3230471, "lon": -1.3587937, "tags": {"amenity": "hospital", "name": "CSPS de Nass\u00e9r\u00e9", "operator": "Public"}}, {"type": "node", "id": 7135969727, "lat": 12.9484675, "lon": -0.7644993, "tags": {"amenity": "hospital", "name": "CSPS de L\u00e9d\u00e9r\u00e9", "operator": "MS"}}, {"type": "node", "id": 7136092452, "lat": 12.9900921, "lon": -0.8144152, "tags": {"amenity": "hospital", "name": "CSPS de Koanguen-Sangro", "operator": "MS"}}, {"type": "node", "id": 7216743163, "lat": 14.5347309, "lon": -4.1138966, "tags": {"amenity": "hospital", "healthcare": "hospital", "name": "H\u00f4pital GAVARDO"}}, {"type": "node", "id": 7299639387, "lat": 12.6212996, "lon": -8.0283069, "tags": {"amenity": "hospital", "name": "H\u00f4pital de Dermatologie de Bamako- ex-institut Marchoux"}}, {"type": "node", "id": 7329626385, "lat": 12.6575746, "lon": -8.0143118, "tags": {"amenity": "hospital", "dispensing": "yes", "electricity": "grid", "emergency": "no", "healthcare": "birthing_center;hospital", "healthcare:speciality": "general", "insurance:health": "public", "name": "Infirmerie du Camp des Gardes", "opening_hours": "24/7", "operator:type": "government", "water_source": "water_works", "wheelchair": "yes"}}, {"type": "node", "id": 7367339359, "lat": 11.1961167, "lon": -4.2907941, "tags": {"amenity": "hospital", "name": "Centre Abel Sanou"}}, {"type": "node", "id": 7402085605, "lat": 13.3594803, "lon": -4.0206555, "tags": {"amenity": "hospital", "name": "CSPS de Ba"}}, {"type": "node", "id": 7402085668, "lat": 13.30587, "lon": -3.9287254, "tags": {"amenity": "hospital", "name": "CSPS de Koroni"}}, {"type": "node", "id": 7402098006, "lat": 13.3331033, "lon": -3.8450378, "tags": {"amenity": "hospital", "name": "CSPS de Berma"}}, {"type": "node", "id": 7410008319, "lat": 12.9164583, "lon": -4.0595984, "tags": {"amenity": "hospital", "name": "CSPS de Bor\u00e9kuy"}}, {"type": "node", "id": 7671842589, "lat": 13.361378, "lon": -6.7003002, "tags": {"amenity": "hospital", "name": "CSCOM de Mignon"}}, {"type": "node", "id": 7795071985, "lat": 12.3826538, "lon": -1.506702, "tags": {"amenity": "hospital", "name": "Maternit\u00e9"}}, {"type": "node", "id": 7868633855, "lat": 12.674375, "lon": -7.9183467, "tags": {"amenity": "hospital", "name": "ASACOBOULI"}}, {"type": "node", "id": 7894988685, "lat": 12.3194894, "lon": -1.597535, "tags": {"amenity": "hospital", "name": "CSPS de SONDOGO"}}, {"type": "node", "id": 7896277085, "lat": 11.1893904, "lon": -4.2939348, "tags": {"amenity": "hospital", "name": "CSPS Frarakan"}}, {"type": "node", "id": 7896293185, "lat": 11.1833172, "lon": -4.2967767, "tags": {"amenity": "hospital", "healthcare": "hospital", "name": "CSPS de Hamdalaye"}}, {"type": "node", "id": 7899805587, "lat": 11.1816619, "lon": -4.2858871, "tags": {"amenity": "hospital", "healthcare": "hospital", "name": "CSPS de Tounouma"}}, {"type": "node", "id": 7911224201, "lat": 12.5437899, "lon": -2.7470568, "tags": {"amenity": "hospital", "name": "CSPS de Kwon", "operator": "Public"}}, {"type": "node", "id": 7914029219, "lat": 12.4915466, "lon": -2.7734953, "tags": {"amenity": "hospital", "name": "CSPS de Nyfou", "operator": "Public"}}, {"type": "node", "id": 7918274685, "lat": 11.2793158, "lon": -8.301602, "tags": {"amenity": "hospital", "email": "goitakali@gmail.com", "name": "CSCOM DE DIARANI", "name:en": "H\u00f4pital of DIARANI", "phone": "72982818"}}, {"type": "node", "id": 7932759797, "lat": 12.5224404, "lon": -2.8683396, "tags": {"amenity": "hospital", "name": "CSPS de Gossina"}}, {"type": "node", "id": 8081856417, "lat": 10.6621506, "lon": -9.2484118, "tags": {"amenity": "hospital", "healthcare": "hospital", "name": "h\u00f4pital de bate Nafadji", "name:fr": "h\u00f4pital de bate Nafadji", "name:nqo": "\u07d3\u07ca\u07d5\u07cd\u07eb \u07e3\u07dd\u07ca\u07ec\u07d6\u07cc\u07eb \u07d8\u07ca\u07f2\u07d8\u07ca\u07db\u07cf"}}, {"type": "node", "id": 8121006651, "lat": 11.2012019, "lon": -4.2325082, "tags": {"addr:city": "BOBO DIOULASSO", "addr:housenumber": "62577370/64333242", "addr:street": "secteur 24/33", "amenity": "hospital", "emergency": "yes", "healthcare": "hospital", "healthcare:speciality": "general;gynaecology;paediatrics;biology;radiology;urology;cardiology;neurology;clinic", "name": "CLINIQUE AURIANA", "operator": "AURIANA", "operator:type": "private"}}, {"type": "node", "id": 8140289001, "lat": 11.9371244, "lon": -2.0387363, "tags": {"amenity": "hospital", "name": "CSPS de Sapo", "operator": "Public"}}, {"type": "node", "id": 8142791954, "lat": 12.0052717, "lon": -2.0442778, "tags": {"amenity": "hospital", "name": "CSPS de Tim-Tim", "operator": "Public"}}, {"type": "node", "id": 8146833954, "lat": 12.0064733, "lon": -2.0207816, "tags": {"amenity": "hospital", "name": "CSPS de Yil-Yaala (Round\u00e9)", "operator": "Public"}}, {"type": "node", "id": 8155878699, "lat": 13.4310513, "lon": -6.2740136, "tags": {"addr:city": "Segou", "addr:postcode": "564", "amenity": "hospital", "emergency": "no", "healthcare": "hospital", "name": "CTA Wal\u00e9"}}, {"type": "node", "id": 8171370787, "lat": 11.9328128, "lon": -2.1895583, "tags": {"amenity": "hospital", "name": "CSPS de Sala", "operator": "Public"}}, {"type": "node", "id": 8180640627, "lat": 11.9094901, "lon": -1.9471416, "tags": {"amenity": "hospital", "name": "CSPS de Biny\u00e9n\u00e9", "operator": "Public"}}, {"type": "node", "id": 8189080893, "lat": 11.9552544, "lon": -1.9170727, "tags": {"amenity": "hospital", "name": "CSPS de Yalou-Gouroungo", "operator": "Public"}}, {"type": "node", "id": 8210170948, "lat": 12.0039232, "lon": -1.9944182, "tags": {"amenity": "hospital", "name": "CSPS de Y\u00e9ozanga", "operator": "Public"}}, {"type": "node", "id": 8214889629, "lat": 10.6497539, "lon": -9.8736778, "tags": {"amenity": "hospital", "name": "H\u00f4pital pr\u00e9fectoral de kouroussa"}}, {"type": "node", "id": 8214890034, "lat": 10.6027617, "lon": -9.6930283, "tags": {"amenity": "hospital", "healthcare": "hospital", "name": "Centre de sant\u00e9 am\u00e9lior\u00e9 de Baro"}}, {"type": "node", "id": 8218479862, "lat": 11.4413795, "lon": -9.1966057, "tags": {"amenity": "hospital", "name": "Centre de sant\u00e9 urbain de Telelagui"}}, {"type": "node", "id": 8230420000, "lat": 11.8523152, "lon": -1.8827525, "tags": {"amenity": "hospital", "name": "CSPS de Tayalo", "operator": "Public"}}, {"type": "node", "id": 8236234397, "lat": 16.586301, "lon": -8.9939476, "tags": {"amenity": "hospital", "emergency": "no", "healthcare": "hospital", "healthcare:speciality": "general", "name": "\u0627\u0644\u0646\u0642\u0637\u0629 \u0627\u0644\u0635\u062d\u064a\u0629 \u0628\u0623\u0645 \u0644\u062d\u064a\u0627\u0638"}}, {"type": "node", "id": 8250215115, "lat": 11.8363388, "lon": -1.7541888, "tags": {"amenity": "hospital", "name": "CSPS de Kinkirsgogo", "operator": "Public"}}, {"type": "node", "id": 8253328974, "lat": 16.6658833, "lon": -9.6172947, "tags": {"addr:city": "\u0644\u0639\u064a\u0648\u0646", "amenity": "hospital", "healthcare": "hospital", "healthcare:speciality": "general", "name": "\u0645\u0631\u0643\u0632 \u0627\u0644\u0625\u0633\u062a\u0637\u0628\u0627\u0628 \u0628\u0644\u0639\u064a\u0648\u0646"}}, {"type": "node", "id": 8255957410, "lat": 11.9113797, "lon": -1.7851093, "tags": {"amenity": "hospital", "name": "CSPS de Basn\u00e9r\u00e9", "operator": "Public"}}, {"type": "node", "id": 8277361194, "lat": 11.9951053, "lon": -1.8113279, "tags": {"amenity": "hospital", "name": "CSPS de Goumsin"}}, {"type": "node", "id": 8281337866, "lat": 12.0396537, "lon": -1.8250904, "tags": {"amenity": "hospital", "name": "Dispensaire de Nayiri"}}, {"type": "node", "id": 8283676587, "lat": 12.0097711, "lon": -1.8375894, "tags": {"amenity": "hospital", "name": "CSPS de Kayao", "operator": "Public"}}, {"type": "node", "id": 8291324173, "lat": 12.0761663, "lon": -1.8560994, "tags": {"amenity": "hospital", "name": "CSPS de Sanc\u00e9", "operator": "Public"}}, {"type": "node", "id": 8293387566, "lat": 12.1051237, "lon": -1.856145, "tags": {"amenity": "hospital", "name": "CSPS de Koukoulou", "operator": "Public"}}, {"type": "node", "id": 8296306166, "lat": 12.0861277, "lon": -1.9127101, "tags": {"amenity": "hospital", "name": "CSPS de Gounghin", "operator": "Public"}}, {"type": "node", "id": 8303015083, "lat": 12.1306217, "lon": -1.9296724, "tags": {"amenity": "hospital", "name": "CSPS de Nakomtenga", "operator": "Public"}}, {"type": "node", "id": 8319733447, "lat": 11.9660928, "lon": -1.7238678, "tags": {"amenity": "hospital", "name": "CSPS de Lado", "operator": "Public"}}, {"type": "node", "id": 8324077485, "lat": 17.0043067, "lon": -1.2194797, "tags": {"amenity": "hospital", "name": "Centre de sante de Garbam\u00e9"}}, {"type": "node", "id": 8332818317, "lat": 12.3221225, "lon": -1.5094608, "tags": {"amenity": "hospital", "emergency": "yes", "name": "Clinique Esperanza cardiologie", "phone": "0022672553030"}}, {"type": "node", "id": 8337652886, "lat": 12.0572431, "lon": -2.0114422, "tags": {"amenity": "hospital", "name": "CSPS de Bourou", "operator": "Public"}}, {"type": "node", "id": 8340224323, "lat": 12.0774213, "lon": -2.0008448, "tags": {"amenity": "hospital", "name": "CSPS de Sam", "operator": "Public"}}, {"type": "node", "id": 8342864284, "lat": 12.0957085, "lon": -2.035692, "tags": {"Observation": "En construction", "amenity": "hospital", "name": "CSPS de Savili", "operator": "Public"}}, {"type": "node", "id": 8346952592, "lat": 12.0307806, "lon": -2.0843929, "tags": {"amenity": "hospital", "name": "CSPS de Soula", "operator": "Public"}}, {"type": "node", "id": 8350218203, "lat": 12.2346273, "lon": -1.4029964, "tags": {"amenity": "hospital", "name": "CSPS de Napabtega-Gounghin", "operator": "Public"}}, {"type": "node", "id": 8378542117, "lat": 12.4181127, "lon": -1.467297, "tags": {"amenity": "hospital", "name": "CMA Kossodo"}}, {"type": "node", "id": 8379019006, "lat": 12.1421229, "lon": -1.9797733, "tags": {"amenity": "hospital", "name": "CSPS de Nomgomto", "operator": "Public"}}, {"type": "node", "id": 8381902768, "lat": 12.1866154, "lon": -1.9623497, "tags": {"amenity": "hospital", "name": "CSPS de Dapoya (Sakoins\u00e9)"}}, {"type": "node", "id": 8394847727, "lat": 12.1903409, "lon": -1.8742338, "tags": {"amenity": "hospital", "name": "CM de Kokologho", "operator": "Public"}}, {"type": "node", "id": 8406619383, "lat": 14.1495594, "lon": -2.5202116, "tags": {"amenity": "hospital", "name": "CSPS de Nongodoum", "operator": "Public"}}, {"type": "node", "id": 8406701448, "lat": 14.2159164, "lon": -2.582345, "tags": {"amenity": "hospital", "name": "CSPS de Bani", "operator": "Public"}}, {"type": "node", "id": 8412892834, "lat": 14.0490748, "lon": -2.5239292, "tags": {"amenity": "hospital", "name": "CSPS de Madougou", "operator": "Public"}}, {"type": "node", "id": 8412896218, "lat": 14.0762678, "lon": -2.4559955, "tags": {"amenity": "hospital", "name": "CM de Bahn", "operator": "Public"}}, {"type": "node", "id": 8416454828, "lat": 14.1061564, "lon": -2.3053573, "tags": {"amenity": "hospital", "name": "CSPS de S\u00e9gu\u00e9-Mossi", "operator": "Public"}}, {"type": "node", "id": 8423227553, "lat": 14.0431292, "lon": -2.7624969, "tags": {"amenity": "hospital", "name": "CSPS de Ka\u00efn", "operator": "Public"}}, {"type": "node", "id": 8425106548, "lat": 13.9339657, "lon": -2.6254749, "tags": {"amenity": "hospital", "name": "CSPS de Dor\u00e9", "operator": "Public"}}, {"type": "node", "id": 8425473241, "lat": 13.9052236, "lon": -2.6158673, "tags": {"amenity": "hospital", "name": "CSPS de Baani", "operator": "Public"}}, {"type": "node", "id": 8426390704, "lat": 13.9096627, "lon": -2.8423986, "tags": {"amenity": "hospital", "name": "CSPS de Yens\u00e9", "operator": "Public"}}, {"type": "node", "id": 8431911341, "lat": 13.8645361, "lon": -2.8624052, "tags": {"amenity": "hospital", "name": "CSPS de Doubar\u00e9", "operator": "Public"}}, {"type": "node", "id": 8432334817, "lat": 14.1636581, "lon": -2.1872436, "tags": {"amenity": "hospital", "name": "CSPS de Nassingr\u00e9", "operator": "Public"}}, {"type": "node", "id": 8432764268, "lat": 14.1169478, "lon": -2.1231991, "tags": {"amenity": "hospital", "healthcare": "hospital", "name": "Centre M\u00e9dical de Soll\u00e9", "operator": "Public"}}, {"type": "node", "id": 8434810360, "lat": 13.9541168, "lon": -2.2256957, "tags": {"amenity": "hospital", "name": "Centre M\u00e9dical d'Ingan\u00e9", "operator": "Public"}}, {"type": "node", "id": 8435538920, "lat": 13.9552322, "lon": -2.3445658, "tags": {"amenity": "hospital", "name": "CSPS de Dandambara", "operator": "Public"}}, {"type": "node", "id": 8439070104, "lat": 13.882592, "lon": -1.95032, "tags": {"amenity": "hospital", "name": "Centre M\u00e9dical de Toulf\u00e9", "operator": "Public"}}, {"type": "node", "id": 8439073023, "lat": 13.9065606, "lon": -2.0909321, "tags": {"amenity": "hospital", "name": "CSPS de Pellaboukou"}}, {"type": "node", "id": 8441178399, "lat": 13.8383091, "lon": -2.1988159, "tags": {"amenity": "hospital", "name": "Centre M\u00e9dical de Nogo", "operator": "Publlic"}}, {"type": "node", "id": 8441178877, "lat": 13.8351682, "lon": -2.051497, "tags": {"amenity": "hospital", "name": "CSPS de Rimassa-Tanghin", "operator": "Publlic"}}, {"type": "node", "id": 8442533229, "lat": 13.7842103, "lon": -2.1405154, "tags": {"amenity": "hospital", "name": "CSPS de Silia"}}, {"type": "node", "id": 8443729550, "lat": 13.7714014, "lon": -2.0697829, "tags": {"Observation": "Pr\u00e9sence d'une antenne chirurgicale", "amenity": "hospital", "name": "CMA de Titao", "operator": "Public"}}, {"type": "node", "id": 8443729562, "lat": 13.7643467, "lon": -2.0664355, "tags": {"amenity": "hospital", "name": "CSPS urbain de Titao", "operator": "Public"}}, {"type": "node", "id": 8443729831, "lat": 13.7866486, "lon": -2.1020579, "tags": {"amenity": "hospital", "name": "CSPS de Sala-Foulb\u00e9", "operator": "Public"}}, {"type": "node", "id": 8446835734, "lat": 13.7062426, "lon": -2.1453582, "tags": {"amenity": "hospital", "name": "CSPS de You", "operator": "Public"}}, {"type": "node", "id": 8446836809, "lat": 13.752739, "lon": -2.0208272, "tags": {"amenity": "hospital", "name": "CSPS de Selbonga", "operator": "Public"}}, {"type": "node", "id": 8447272851, "lat": 13.6104185, "lon": -2.1137618, "tags": {"amenity": "hospital", "name": "Centre M\u00e9dical de Rambo", "operator": "Public"}}, {"type": "node", "id": 8451371697, "lat": 13.6827147, "lon": -1.8884602, "tags": {"amenity": "hospital", "name": "Centre M\u00e9dical de Rounga"}}, {"type": "node", "id": 8451380203, "lat": 13.5965807, "lon": -1.9670396, "tags": {"amenity": "hospital", "name": "CSPS de Doussar\u00e9", "operator": "Public"}}, {"type": "node", "id": 8454432381, "lat": 13.7737121, "lon": -1.9664884, "tags": {"amenity": "hospital", "name": "CSPS de Bouna", "operator": "Public"}}, {"type": "node", "id": 8454432745, "lat": 13.7407842, "lon": -1.9648965, "tags": {"amenity": "hospital", "name": "CSPS de Toolo", "operator": "Public"}}, {"type": "node", "id": 8454433504, "lat": 13.6784928, "lon": -1.9637096, "tags": {"amenity": "hospital", "name": "CSPS de Ouindigui", "operator": "Public"}}, {"type": "node", "id": 8457082145, "lat": 13.8851958, "lon": -2.3628397, "tags": {"amenity": "hospital", "name": "CSPS de Ninigui", "operator": "Public"}}, {"type": "node", "id": 8457528708, "lat": 13.9831247, "lon": -2.4351078, "tags": {"amenity": "hospital", "name": "CSPS de Dess\u00e9", "operator": "Public"}}, {"type": "node", "id": 8458207966, "lat": 13.9171596, "lon": -2.4948983, "tags": {"amenity": "hospital", "name": "CSPS de Bidi-Mossi", "operator": "MENA-PLN"}}, {"type": "node", "id": 8458208531, "lat": 13.9155311, "lon": -2.444002, "tags": {"amenity": "hospital", "name": "CSPS de K\u00e9k\u00e9-Mossi", "operator": "Public"}}, {"type": "node", "id": 8461435167, "lat": 13.8586509, "lon": -2.3225369, "tags": {"amenity": "hospital", "name": "CSPS de Men\u00e9", "operator": "MENA-PLN"}}, {"type": "node", "id": 8461437363, "lat": 13.8447691, "lon": -2.4131875, "tags": {"amenity": "hospital", "name": "CSPS de Koumbri", "operator": "Public"}}, {"type": "node", "id": 8462499317, "lat": 13.7872725, "lon": -2.3267841, "tags": {"amenity": "hospital", "name": "CSPS de Sabouna", "operator": "Public"}}, {"type": "node", "id": 8462502006, "lat": 13.8365056, "lon": -2.3335393, "tags": {"amenity": "hospital", "name": "CSPS de Derhogo", "operator": "Public"}}, {"type": "node", "id": 8463720789, "lat": 13.7985242, "lon": -2.2676253, "tags": {"amenity": "hospital", "name": "CSPS de Barga-Mossi", "operator": "Public"}}, {"type": "node", "id": 8475738514, "lat": 13.7685801, "lon": -2.3637933, "tags": {"amenity": "hospital", "name": "CSPS de Dinguiri", "operator": "Public"}}, {"type": "node", "id": 8476474070, "lat": 13.7634896, "lon": -2.4712881, "tags": {"amenity": "hospital", "name": "CSPS de Soulou", "operator": "Public"}}, {"type": "node", "id": 8476574834, "lat": 13.7447262, "lon": -2.3003, "tags": {"amenity": "hospital", "name": "CSPS de Ramdolla-Mossi", "operator": "Public"}}, {"type": "node", "id": 8477435862, "lat": 13.7301902, "lon": -2.3965162, "tags": {"amenity": "hospital", "name": "CSPS de Ronga", "operator": "Public"}}, {"type": "node", "id": 8477437178, "lat": 13.7327228, "lon": -2.315492, "tags": {"amenity": "hospital", "name": "CSPS de Lemnogo-Mossi", "operator": "Public"}}, {"type": "node", "id": 8480825248, "lat": 13.7552648, "lon": -2.4258354, "tags": {"amenity": "hospital", "name": "CSPS de Pogoro-Mossi", "operator": "Public"}}, {"type": "node", "id": 8481228177, "lat": 13.7156716, "lon": -2.5212657, "tags": {"amenity": "hospital", "name": "CSPS de Rim", "operator": "Public"}}, {"type": "node", "id": 8482837425, "lat": 13.7974145, "lon": -2.6520208, "tags": {"amenity": "hospital", "name": "Centre m\u00e9dical de Thiou", "operator": "Public"}}, {"type": "node", "id": 8482837660, "lat": 13.7954062, "lon": -2.5814867, "tags": {"amenity": "hospital", "name": "CSPS de Sim", "operator": "Public"}}, {"type": "node", "id": 8482838724, "lat": 13.8518136, "lon": -2.6475079, "tags": {"amenity": "hospital", "name": "CSPS de P\u00e9tossir\u00e9", "operator": "Public"}}, {"type": "node", "id": 8483613498, "lat": 13.7945349, "lon": -2.7048147, "tags": {"amenity": "hospital", "name": "Dispensaire du Secteur 6", "operator": "Public"}}, {"type": "node", "id": 8483813254, "lat": 13.7287246, "lon": -2.6758441, "tags": {"amenity": "hospital", "name": "CSPS de Kalo", "operator": "Public"}}, {"type": "node", "id": 8483813477, "lat": 13.6854185, "lon": -2.814572, "tags": {"amenity": "hospital", "name": "Maternit\u00e9 Bokinda"}}, {"type": "node", "id": 8483902542, "lat": 13.7345623, "lon": -2.5702617, "tags": {"amenity": "hospital", "name": "Dispensaire de Noden", "operator": "Public"}}, {"type": "node", "id": 8484111614, "lat": 13.6649431, "lon": -2.541149, "tags": {"amenity": "hospital", "name": "CSPS Wouro-Narain", "operator": "Public"}}, {"type": "node", "id": 8485590703, "lat": 13.6306288, "lon": -2.858972, "tags": {"amenity": "hospital", "name": "CSPS de Birgondogo", "operator": "Public"}}, {"type": "node", "id": 8486701903, "lat": 13.6069565, "lon": -2.7570292, "tags": {"amenity": "hospital", "name": "CSPS de Douma", "operator": "Public"}}, {"type": "node", "id": 8491506710, "lat": 13.5257917, "lon": -2.669321, "tags": {"amenity": "hospital", "name": "CSPS de Tougu\u00e9-Mossi", "operator": "Public"}}, {"type": "node", "id": 8492112408, "lat": 13.6454238, "lon": -2.6172513, "tags": {"amenity": "hospital", "healthcare": "hospital", "name": "CSPS de Touya", "operator": "Public"}}, {"type": "node", "id": 8492112614, "lat": 13.6219498, "lon": -2.6432003, "tags": {"amenity": "hospital", "name": "CSPS de Pella-Tibitiguia", "operator": "Public"}}, {"type": "node", "id": 8493038527, "lat": 13.5892757, "lon": -2.5665709, "tags": {"amenity": "hospital", "name": "CSPS de Namsiguia", "operator": "Public"}}, {"type": "node", "id": 8493232441, "lat": 13.5898441, "lon": -2.5354144, "tags": {"amenity": "hospital", "name": "CSPS de Bonsomnor\u00e9", "operator": "Public"}}, {"type": "node", "id": 8493232590, "lat": 13.5408852, "lon": -2.5465724, "tags": {"amenity": "hospital", "healthcare": "hospital", "name": "Centre M\u00e9dical de Tangaye", "operator": "Public"}}, {"type": "node", "id": 8494048576, "lat": 13.4185041, "lon": -2.5134109, "tags": {"amenity": "hospital", "name": "CSPS de Ninga", "operator": "Public"}}, {"type": "node", "id": 8511433727, "lat": 14.7394962, "lon": -0.7075426, "tags": {"amenity": "hospital", "name": "CSPS de Gandafagou-Kelw\u00e9l\u00e9", "operator": "Public"}}, {"type": "node", "id": 8512962152, "lat": 14.5965906, "lon": -0.7192598, "tags": {"amenity": "hospital", "name": "Centre M\u00e9dical de D\u00e9ou", "operator": "Public"}}, {"type": "node", "id": 8516746612, "lat": 14.439657, "lon": -0.6686908, "tags": {"amenity": "hospital", "name": "CSPS de Boukessi", "operator": "Public"}}, {"type": "node", "id": 8520302205, "lat": 14.6933814, "lon": -0.249204, "tags": {"amenity": "hospital", "name": "CSPS de Soukoundou", "operator": "Public"}}, {"type": "node", "id": 8520685765, "lat": 14.666, "lon": -0.4398367, "tags": {"amenity": "hospital", "name": "CSPS d'Oursi", "operator": "Public"}}, {"type": "node", "id": 8522163132, "lat": 13.6625662, "lon": -2.4919197, "tags": {"amenity": "hospital", "name": "CSPS de Roba", "operator": "Public"}}, {"type": "node", "id": 8529182748, "lat": 13.5904606, "lon": -2.4759632, "tags": {"amenity": "hospital", "name": "CSPS de Bissigaye", "operator": "Public"}}, {"type": "node", "id": 8529501831, "lat": 13.5572881, "lon": -2.4858378, "tags": {"amenity": "hospital", "name": "CSPS de Bembela", "operator": "Public"}}, {"type": "node", "id": 8563213472, "lat": 13.5044262, "lon": -2.4891463, "tags": {"amenity": "hospital", "name": "CSPS de Soubo", "operator": "Public"}}, {"type": "node", "id": 8563446143, "lat": 13.500634, "lon": -2.4647127, "tags": {"amenity": "hospital", "name": "CSPS de Sissamba", "operator": "Public"}}, {"type": "node", "id": 8564644231, "lat": 13.502371, "lon": -2.4092808, "tags": {"amenity": "hospital", "name": "CSPS de Somiaga", "operator": "Public"}}, {"type": "node", "id": 8567047665, "lat": 13.5455464, "lon": -2.370197, "tags": {"amenity": "hospital", "name": "CSPS Urbain (Secteur 15)", "operator": "Public"}}, {"type": "node", "id": 8567047798, "lat": 13.5429674, "lon": -2.393999, "tags": {"amenity": "hospital", "name": "Centre Hospitalier Universitaire de Ouahigouya", "operator": "MENA-PLN"}}, {"type": "node", "id": 8567523842, "lat": 13.5471005, "lon": -2.441057, "tags": {"amenity": "hospital", "name": "CSPS Urbain", "operator": "Public"}}, {"type": "node", "id": 8569216848, "lat": 13.6752038, "lon": -2.34424, "tags": {"amenity": "hospital", "name": "CSPS d'Aor\u00e9ma", "operator": "Public"}}, {"type": "node", "id": 8569217029, "lat": 13.6673682, "lon": -2.3656721, "tags": {"amenity": "hospital", "healthcare": "hospital", "name": "Centre m\u00e9dical de Youba", "operator": "Public"}}, {"type": "node", "id": 8569217207, "lat": 13.633053, "lon": -2.3621008, "tags": {"amenity": "hospital", "name": "CSPS Bendogo", "operator": "Public"}}, {"type": "node", "id": 8569217270, "lat": 13.610584, "lon": -2.3178095, "tags": {"amenity": "hospital", "name": "CSPS de Kononga", "operator": "Public"}}, {"type": "node", "id": 8571233288, "lat": 13.702653, "lon": -2.4245788, "tags": {"amenity": "hospital", "name": "CSPS de Sodin", "operator": "Public"}}, {"type": "node", "id": 8571539729, "lat": 13.450899, "lon": -2.5977999, "tags": {"amenity": "hospital", "name": "CSPS de Nango-Foulc\u00e9", "operator": "Public"}}, {"type": "node", "id": 8571539730, "lat": 13.9309471, "lon": -2.5645982, "tags": {"amenity": "hospital", "name": "Dispensaire de Samni", "operator": "Public"}}, {"type": "node", "id": 8571550090, "lat": 13.6083356, "lon": -2.5797701, "tags": {"amenity": "hospital", "name": "Dispensaire de Goutoula", "operator": "Public"}}, {"type": "node", "id": 8626898028, "lat": 12.5069442, "lon": -7.9967111, "tags": {"amenity": "hospital", "name": "CSCOM de Missala"}}, {"type": "node", "id": 8630310501, "lat": 12.2488514, "lon": -1.8884924, "tags": {"amenity": "hospital", "name": "CSPS de Pitmoaga", "operator": "Public"}}, {"type": "node", "id": 8638905750, "lat": 12.257484, "lon": -1.794308, "tags": {"amenity": "hospital", "name": "CSPS de Man\u00e9ga", "operator": "Public"}}, {"type": "node", "id": 8643568542, "lat": 12.2106585, "lon": -1.9060475, "tags": {"amenity": "hospital", "name": "Maternit\u00e9 de Dour\u00e9", "operator": "Public"}}, {"type": "node", "id": 8651632643, "lat": 12.2279364, "lon": -1.9391647, "tags": {"amenity": "hospital", "name": "CSPS de Goulour\u00e9", "operator": "Public"}}, {"type": "node", "id": 8656043913, "lat": 12.2466156, "lon": -1.9702622, "tags": {"amenity": "hospital", "name": "CSPS de Tanghin", "operator": "Public"}}, {"type": "node", "id": 8677054813, "lat": 12.1568999, "lon": -2.0394284, "tags": {"amenity": "hospital", "name": "CSPS de Tanghin-Wobdo", "operator": "Public"}}, {"type": "node", "id": 8684222436, "lat": 12.0528875, "lon": -2.0926702, "tags": {"amenity": "hospital", "name": "CSPS de Kams\u00e9", "operator": "Public"}}, {"type": "node", "id": 8689854918, "lat": 12.4221601, "lon": -1.4171364, "tags": {"amenity": "hospital", "name": "Madame voyante"}}, {"type": "node", "id": 8706626557, "lat": 11.9797342, "lon": -2.1306315, "tags": {"amenity": "hospital", "name": "CSPS de Koukin", "operator": "Public"}}, {"type": "node", "id": 8721195462, "lat": 17.0330358, "lon": -1.404646, "tags": {"amenity": "hospital", "name": "centre de sant\u00e9"}}, {"type": "node", "id": 8724656239, "lat": 12.089511, "lon": -2.1513382, "tags": {"amenity": "hospital", "name": "CSPS de Nariou", "operator": "Public"}}, {"type": "node", "id": 8731009060, "lat": 12.1919716, "lon": -2.1022283, "tags": {"amenity": "hospital", "name": "CSPS du Secteur 1", "operator": "Public"}}, {"type": "node", "id": 8746516228, "lat": 12.1289866, "lon": -2.1968566, "tags": {"amenity": "hospital", "name": "CSPS de Gogo", "operator": "Public"}}, {"type": "node", "id": 8746815360, "lat": 12.1739061, "lon": -2.1876727, "tags": {"amenity": "hospital", "name": "CSPS", "operator": "Public"}}, {"type": "node", "id": 8755584108, "lat": 11.6819297, "lon": -2.7406731, "tags": {"amenity": "hospital", "name": "CSPS de Pig-Por\u00e9", "operator": "Public"}}, {"type": "node", "id": 8780827466, "lat": 11.6031951, "lon": -2.761825, "tags": {"amenity": "hospital", "name": "Centre M\u00e9dical", "operator": "Public"}}, {"type": "node", "id": 8808890017, "lat": 12.3499786, "lon": -8.0823593, "tags": {"amenity": "hospital", "name": "CSCOM de Tourela"}}, {"type": "node", "id": 8809422665, "lat": 11.1156176, "lon": -0.0779551, "tags": {"amenity": "hospital", "name": "USP Boade"}}, {"type": "node", "id": 8817740817, "lat": 11.3175228, "lon": -6.7235063, "tags": {"amenity": "hospital", "healthcare": "hospital", "name": "BASIRIMA TRADITROMATOLOGUE"}}, {"type": "node", "id": 8827252442, "lat": 11.9486877, "lon": -2.1973166, "tags": {"amenity": "hospital", "name": "Centre M\u00e9dical de Thyou", "operator": "Public"}}, {"type": "node", "id": 8832499146, "lat": 12.03162, "lon": -2.1886584, "tags": {"amenity": "hospital", "name": "CSPS de Sogpelc\u00e9", "operator": "Public"}}, {"type": "node", "id": 8836976721, "lat": 12.0598963, "lon": -2.2236961, "tags": {"amenity": "hospital", "name": "Centre M\u00e9dical de Sabou", "operator": "Publc"}}, {"type": "node", "id": 8839898621, "lat": 11.9542442, "lon": -2.2490215, "tags": {"amenity": "hospital", "name": "CSPS de Goumogo", "operator": "Public"}}, {"type": "node", "id": 8842416317, "lat": 15.2630493, "lon": -9.2283991, "tags": {"amenity": "hospital", "name": "Cscom de Tourougoumbe"}}, {"type": "node", "id": 8848046560, "lat": 12.0118279, "lon": -2.233344, "tags": {"amenity": "hospital", "name": "CSPS de Moukouan", "operator": "Public"}}, {"type": "node", "id": 8867614663, "lat": 12.0510526, "lon": -2.2576274, "tags": {"Observation": "Pr\u00e9sence d'une antenne chirurgicale", "amenity": "hospital", "name": "CMA de Sabou", "operator": "Publc"}}, {"type": "node", "id": 8871980518, "lat": 11.3182942, "lon": -6.6808817, "tags": {"addr:housenumber": "+22374144428", "amenity": "hospital", "name": "CENTRE DE SANT\u00c9 DE DJISSAN"}}, {"type": "node", "id": 8872728117, "lat": 12.42239, "lon": -1.5497783, "tags": {"amenity": "hospital", "name": "Centre M\u00e9dical Don Orione"}}, {"type": "node", "id": 8878444531, "lat": 12.1235964, "lon": -2.241848, "tags": {"amenity": "hospital", "name": "CSPS de Naman\u00e9gu\u00e9ma", "operator": "Public"}}, {"type": "node", "id": 8881155617, "lat": 13.3301439, "lon": -1.5294184, "tags": {"amenity": "hospital", "healthcare": "hospital", "name": "Centre Medical avec Antenne chirurgicale", "name:fr": "CMA de Kongoussi"}}, {"type": "node", "id": 8898646458, "lat": 11.8632009, "lon": -2.2730246, "tags": {"amenity": "hospital", "name": "CSPS de Zinou", "operator": "Public"}}, {"type": "node", "id": 8933534800, "lat": 11.4292418, "lon": -3.556353, "tags": {"amenity": "hospital", "healthcare": "hospital", "name": "CSPS", "operator": "Public"}}, {"type": "node", "id": 8963364917, "lat": 10.9701083, "lon": -5.6947884, "tags": {"amenity": "hospital", "name": "CSCom de KA\u00cf"}}, {"type": "node", "id": 9008772245, "lat": 10.5117585, "lon": -9.0716845, "tags": {"amenity": "hospital", "name": "Poste de sant\u00e9 Nerekoro"}}, {"type": "node", "id": 9041097662, "lat": 10.2243063, "lon": -3.3506477, "tags": {"amenity": "hospital", "name": "CSPS", "operator": "Public"}}, {"type": "node", "id": 9084228735, "lat": 10.8065321, "lon": -0.0132118, "tags": {"amenity": "hospital", "name": "USP Warkanbou"}}, {"type": "node", "id": 9192857948, "lat": 12.3099336, "lon": -1.4937382, "tags": {"amenity": "hospital", "name": "Polyclinique International du C\u0153ur"}}, {"type": "node", "id": 9214241942, "lat": 13.4200178, "lon": -6.3121744, "tags": {"alt_name": "CSCom Sebougou", "amenity": "hospital", "name": "Cenre de Sant\u00e9 Communtaire de Sebougou", "opening_hours": "24/7", "operator:type": "government", "phone": "76481118", "source": "YouthMappers At University Of Segou", "supervised": "Universit\u00e9 de S\u00e9gou/OSM MALI", "survey:date": "2022-09-08", "wheelchair": "yes"}}, {"type": "node", "id": 9220049738, "lat": 12.5660723, "lon": -4.4267446, "tags": {"amenity": "hospital", "name": "CScom"}}, {"type": "node", "id": 9220167385, "lat": 12.7213487, "lon": -4.5578724, "tags": {"amenity": "hospital", "name": "Centre de sant\u00e9 de Marena"}}, {"type": "node", "id": 9221520827, "lat": 12.0985776, "lon": -5.4583141, "tags": {"amenity": "hospital", "name": "Centre de sant\u00e9 de Sadiola"}}, {"type": "node", "id": 9222309656, "lat": 12.5498343, "lon": -4.7937492, "tags": {"amenity": "hospital", "name": "Centre de Sant\u00e9 de Zangousso"}}, {"type": "node", "id": 9222320643, "lat": 12.5469184, "lon": -4.8611512, "tags": {"amenity": "hospital", "name": "centre de Soin de Makongo"}}, {"type": "node", "id": 9270043759, "lat": 16.2726911, "lon": -0.0432748, "tags": {"amenity": "hospital", "healthcare": "hospital", "name": "H\u00f4pital de Gao", "name:ar": "\u0645\u0633\u062a\u0634\u0641\u0649 \u063a\u0627\u0648", "name:fr": "H\u00f4pital de Gao", "source": "ICRC;Bing"}}, {"type": "node", "id": 9273016587, "lat": 16.7150894, "lon": -0.2647729, "tags": {"amenity": "hospital", "name": "CSCom de Taboye"}}, {"type": "node", "id": 9276381743, "lat": 12.0185094, "lon": -5.935134, "tags": {"amenity": "hospital", "healthcare": "hospital", "name": "CSCom de Kabarasso"}}, {"type": "node", "id": 9277799378, "lat": 14.3497765, "lon": -3.6032555, "tags": {"amenity": "hospital", "name": "H\u00f4pital de Bandiagara"}}, {"type": "node", "id": 9278158308, "lat": 14.357494, "lon": -3.6116856, "tags": {"amenity": "hospital"}}, {"type": "node", "id": 9278422750, "lat": 14.3501585, "lon": -3.6094902, "tags": {"amenity": "hospital", "name": "Centre ASACOBA de Bandiagara"}}, {"type": "node", "id": 9279195023, "lat": 12.3368586, "lon": -1.5597021, "tags": {"amenity": "hospital", "emergency": "yes", "healthcare": "hospital", "name": "Clinique Suka"}}, {"type": "node", "id": 9308813620, "lat": 12.2402146, "lon": -1.4638183, "tags": {"amenity": "hospital", "name": "CSPS", "operator": "Public"}}, {"type": "node", "id": 9331672445, "lat": 12.5179956, "lon": -1.4464147, "tags": {"amenity": "hospital", "name": "CSPS", "operator": "Public"}}, {"type": "node", "id": 9332927088, "lat": 12.4730745, "lon": -3.4635261, "tags": {"amenity": "hospital", "name": "CMU"}}, {"type": "node", "id": 9341065389, "lat": 10.3214791, "lon": -3.17984, "tags": {"amenity": "hospital", "name": "Centre Hospitalier R\u00e9gional de Goaua", "name:en": "Regional hospital center of Goaua"}}, {"type": "node", "id": 9348617818, "lat": 10.6690329, "lon": -5.9806407, "tags": {"amenity": "hospital", "healthcare": "hospital", "name": "CSCOM de Gouene"}}, {"type": "node", "id": 9360221263, "lat": 12.5182823, "lon": -1.4952108, "tags": {"amenity": "hospital", "name": "CSPS", "operator": "Public"}}, {"type": "node", "id": 9360555017, "lat": 11.1683631, "lon": -0.8651287, "tags": {"amenity": "hospital", "name": "CSPS DE AVV4", "name:en": "AVV4 CSPS", "website": "http://www.ms.gov.bf"}}, {"type": "node", "id": 9363462151, "lat": 12.5728445, "lon": -8.0317729, "tags": {"amenity": "hospital", "healthcare": "hospital", "name": "ASACOKA"}}, {"type": "node", "id": 9366341228, "lat": 12.5341784, "lon": -1.4664052, "tags": {"amenity": "hospital", "name": "CSPS", "operator": "Public"}}, {"type": "node", "id": 9373549390, "lat": 12.5293476, "lon": -1.5171392, "tags": {"amenity": "hospital", "name": "Dispensaire", "operator": "Public"}}, {"type": "node", "id": 9403680427, "lat": 13.2636598, "lon": -4.8964113, "tags": {"amenity": "hospital", "name": "H\u00f4pital Mgr Jean Gabriel Diarra"}}, {"type": "node", "id": 9404723666, "lat": 12.4832687, "lon": -1.5012914, "tags": {"amenity": "hospital", "name": "CSPS", "operator": "Public"}}, {"type": "node", "id": 9421579340, "lat": 13.3077816, "lon": -4.8931214, "tags": {"amenity": "hospital", "name": "CSRF de San"}}, {"type": "node", "id": 9421591997, "lat": 13.2879239, "lon": -4.5908219, "tags": {"amenity": "hospital", "name": "CSREF TOMIMIAN"}}, {"type": "node", "id": 9421596855, "lat": 13.1193539, "lon": -4.3677422, "tags": {"amenity": "hospital", "name": "Centre Sant\u00e9 de Benena"}}, {"type": "node", "id": 9421602915, "lat": 13.0174727, "lon": -4.4652871, "tags": {"amenity": "hospital", "name": "Centre de Sant\u00e9 Paroissiale de Mandiakuy"}}, {"type": "node", "id": 9436407116, "lat": 12.5976614, "lon": -7.9787075, "tags": {"addr:city": "Bamako", "addr:quarter": "Commune V", "addr:suburb": "Daoudabougou", "amenity": "hospital", "handwashing": "yes", "handwashing:soap": "yes", "handwashing_number": "6", "handwashing_station_distance": "no", "handwashing_usability": "4", "latrine_emptying_service": "yes", "name": "Centre de sant\u00e9 communautaire de daoudabougou", "note": "Les toilettes ne sont pas en bon \u00e9tat et probl\u00e8me de robinet et de l'\u00e9lectricit\u00e9", "operator": "community", "patient_female": "10", "patient_male": "10", "phone": "72282589", "sanitation": "yes", "staff_count": "22", "staff_count:doctors": "1", "toilets:female": "no", "toilets:num_chambers": "2", "toilets:staff": "yes", "wash_maintenance": "yes", "wash_maintenance_frequency": "once_a_day", "wash_management": "no", "wash_ngo_support": "no", "water_point": "yes", "water_point_improved": "Channeled_on_the_ground_but_not_up_to_the_building_SOMAGEP", "water_point_location": "yes", "water_point_number": "3", "water_point_type": "improved", "water_point_usability": "3"}}, {"type": "node", "id": 9436428794, "lat": 12.6019018, "lon": -7.9797703, "tags": {"addr:city": "Bamako", "addr:quarter": "Commune V", "addr:suburb": "Commune V", "amenity": "hospital", "handwashing": "yes", "handwashing:soap": "yes", "handwashing_number": "30", "handwashing_station_distance": "no", "handwashing_usability": "30", "latrine_emptying_service": "yes", "name": "Centre de Sant\u00e9 Communautaire", "operator": "government", "patient_female": "500", "patient_male": "500", "phone": "78857545", "sanitation": "yes", "staff_count": "80", "staff_count:doctors": "42", "toilets:female": "yes", "toilets:num_chambers": "10", "toilets:staff": "yes", "wash_maintenance": "yes", "wash_maintenance_frequency": "once_a_day", "wash_management": "no", "wash_ngo_support": "no", "water_point": "yes", "water_point_improved": "Channeled_on_the_ground_but_not_up_to_the_building_SOMAGEP", "water_point_location": "yes", "water_point_number": "20", "water_point_type": "improved", "water_point_usability": "18"}}, {"type": "node", "id": 9436477162, "lat": 12.5801782, "lon": -7.9721354, "tags": {"addr:city": "Bamako", "addr:quarter": "Commune VI", "addr:suburb": "Niamakoro", "amenity": "hospital", "consent": "yes", "handwashing": "yes", "handwashing:soap": "yes", "handwashing_number": "5", "handwashing_station_distance": "yes", "handwashing_usability": "5", "latrine_emptying_service": "no", "name": "ASACONIA", "operator": "community", "patient_female": "15", "patient_male": "15", "phone": "66897873", "sanitation": "yes", "staff_count": "20", "staff_count:doctors": "2", "toilets:disposal": "flush", "toilets:female": "yes", "toilets:num_chambers": "3", "toilets:staff": "yes", "wash_funding": "no", "wash_maintenance": "yes", "wash_maintenance_frequency": "once_a_day", "wash_management": "yes", "wash_ngo_support": "no", "water_point": "yes", "water_point_improved": "Tubular_well_borehole_well_protected_rainwater_tanker", "water_point_location": "yes", "water_point_number": "1", "water_point_type": "improved", "water_point_usability": "1"}}, {"type": "node", "id": 9436545048, "lat": 12.6027421, "lon": -7.9665256, "tags": {"addr:city": "Bamako", "addr:quarter": "Commune VI", "addr:suburb": "Sogoniko", "amenity": "hospital", "consent": "yes", "handwashing": "yes", "handwashing:soap": "yes", "handwashing_number": "16", "handwashing_station_distance": "yes", "handwashing_usability": "16", "latrine_emptying_service": "no", "name": "Centre de Sant\u00e9 de R\u00e9f\u00e9rence de la Commune 6", "operator": "government", "patient_female": "330", "patient_male": "60", "phone": "20202633", "sanitation": "yes", "staff_count": "100", "staff_count:doctors": "52", "toilets:disposal": "pitlatrine", "toilets:female": "yes", "toilets:num_chambers": "10", "toilets:staff": "yes", "wash_funding": "yes", "wash_maintenance": "yes", "wash_maintenance_frequency": "once_a_day", "wash_management": "yes", "wash_ngo_support": "no", "water_point": "yes", "water_point_improved": "Channeled_on_the_ground_but_not_up_to_the_building_SOMAGEP", "water_point_location": "yes", "water_point_number": "1", "water_point_type": "improved", "water_point_usability": "1"}}, {"type": "node", "id": 9436587592, "lat": 12.6164016, "lon": -7.9499844, "tags": {"addr:city": "Bamako", "addr:quarter": "Commune VI", "addr:suburb": "Dian\u00e9gu\u00e9la", "amenity": "hospital", "consent": "yes", "handwashing": "yes", "handwashing:soap": "no", "handwashing_number": "10", "handwashing_station_distance": "yes", "handwashing_usability": "10", "latrine_emptying_service": "no", "name": "Centre de Sant\u00e9 Communautaire de Sokorodji et Dianeguela", "note": "L'Asacoso-dia est reli\u00e9 \u00e0 deux quartiers ( Sokorodji et Dianeguela)", "operator": "community", "patient_female": "20", "patient_male": "5", "phone": "66684141", "sanitation": "yes", "staff_count": "22", "staff_count:doctors": "2", "toilets:female": "yes", "toilets:num_chambers": "2", "toilets:staff": "yes", "wash_maintenance": "yes", "wash_maintenance_frequency": "once_a_day", "wash_management": "no", "wash_ngo_support": "no", "water_point": "yes", "water_point_improved": "Channeled_on_the_ground_but_not_up_to_the_building_SOMAGEP", "water_point_location": "yes", "water_point_number": "2", "water_point_type": "improved", "water_point_usability": "2"}}, {"type": "node", "id": 9436716856, "lat": 12.6039939, "lon": -7.9648961, "tags": {"addr:city": "Bamako", "addr:quarter": "Commune VI", "addr:suburb": "Sogoniko", "amenity": "hospital", "consent": "yes", "handwashing": "yes", "handwashing:soap": "yes", "handwashing_number": "10", "handwashing_station_distance": "yes", "handwashing_usability": "10", "latrine_emptying_service": "no", "name": "Association de Sant\u00e9 Communautaire de Sogoniko", "operator": "community", "patient_female": "15", "patient_male": "5", "phone": "76170964", "sanitation": "yes", "staff_count": "19", "staff_count:doctors": "1", "toilets:female": "yes", "toilets:num_chambers": "3", "toilets:staff": "yes", "wash_funding": "no", "wash_maintenance": "yes", "wash_maintenance_frequency": "once_a_day", "wash_management": "yes", "wash_ngo_support": "no", "water_point": "yes", "water_point_improved": "Channeled_on_the_ground_but_not_up_to_the_building_SOMAGEP", "water_point_location": "yes", "water_point_number": "1", "water_point_type": "improved", "water_point_usability": "1"}}, {"type": "node", "id": 9437042520, "lat": 12.6687111, "lon": -7.9539742, "tags": {"addr:city": "Bamako", "addr:quarter": "Commune I", "addr:suburb": "Korofina Nord", "amenity": "hospital", "consent": "yes", "emergency": "yes", "handwashing": "yes", "handwashing:soap": "yes", "handwashing_number": "5", "handwashing_station_distance": "yes", "handwashing_usability": "5", "healthcare": "hospital", "latrine_emptying_service": "yes", "name": "CSRef de Korofina", "note": "L'hopital a besoin des mat\u00e9riaux m\u00e9dicaux", "operator": "GOUVERNEMENT", "patient_female": "30", "patient_male": "100", "phone": "20246064", "sanitation": "yes", "staff_count": "50", "staff_count:doctors": "10", "toilets:disposal": "pitlatrine", "toilets:female": "no", "toilets:num_chambers": "10", "toilets:staff": "yes", "wash_funding": "yes", "wash_maintenance": "yes", "wash_maintenance_frequency": "once_a_day", "wash_management": "yes", "wash_ngo_support": "yes", "water_point": "yes", "water_point_improved": "Channeled_on_the_ground_but_not_up_to_the_building_SOMAGEP", "water_point_location": "yes", "water_point_number": "4", "water_point_type": "improved", "water_point_usability": "4"}}, {"type": "node", "id": 9452561797, "lat": 12.6013364, "lon": -7.990988, "tags": {"addr:city": "Bamako", "addr:quarter": "Daoudabougou", "addr:street": "Misiri carr\u00e9", "addr:suburb": "Commune V", "amenity": "hospital", "building:levels": "1", "building:material": "cement_block", "roof:material": "concrete", "sector": "2"}}, {"type": "node", "id": 9456601959, "lat": 12.5913331, "lon": -7.9887098, "tags": {"addr:city": "Bamako", "addr:quarter": "daoudabougou", "addr:suburb": "commune v", "amenity": "hospital", "building:material": "cement blocks", "roof:material": "concrete", "sector": "3"}}, {"type": "node", "id": 9466121057, "lat": 12.6038951, "lon": -7.9868362, "tags": {"addr:city": "Bamako", "addr:quarter": "daoudabougou", "addr:suburb": "Commune V", "amenity": "hospital", "building:levels": "1", "building:material": "cement_block", "name": "centre de sante", "roof:material": "concrete", "sector": "1"}}, {"type": "node", "id": 9471405828, "lat": 12.6016074, "lon": -7.9727731, "tags": {"addr:city": "Bamako", "addr:quarter": "Niamakoro", "addr:street": "UNISEF", "addr:suburb": "Commune VI", "amenity": "hospital", "building:levels": "1", "building:material": "cement_block", "name": "clinic", "roof:material": "concrete", "sector": "Cit\u00e9 UNISE"}}, {"type": "node", "id": 9474273261, "lat": 12.5736564, "lon": -7.9650638, "tags": {"addr:city": "Bamako", "addr:quarter": "Niamakoro", "addr:suburb": "Commune VI", "amenity": "hospital", "building:levels": "2", "building:material": "cement_block", "roof:material": "concrete", "sector": "Goudronba da"}}, {"type": "node", "id": 9476168622, "lat": 12.5805476, "lon": -7.9721129, "tags": {"addr:city": "Bamako", "addr:quarter": "Niamakoro", "addr:suburb": "Commune VI", "amenity": "hospital", "building:levels": "1", "building:material": "cement_block", "name": "Pharmacie Mamou Pharm", "roof:material": "concrete", "sector": "Ancien march\u00e9"}}, {"type": "node", "id": 9483932676, "lat": 12.5069861, "lon": -1.5658776, "tags": {"amenity": "hospital", "healthcare": "hospital", "name": "CSPS", "operator": "Priv\u00e9"}}, {"type": "node", "id": 9522694361, "lat": 12.4986814, "lon": -7.6640438, "tags": {"amenity": "hospital", "name": "Maternit\u00e9 de Mounzoun"}}, {"type": "node", "id": 9535687619, "lat": 11.6686459, "lon": -7.6020165, "tags": {"amenity": "hospital", "healthcare": "hospital", "name": "CSCOM de Sido"}}, {"type": "node", "id": 9537479694, "lat": 11.7066036, "lon": -7.923141, "tags": {"amenity": "hospital", "healthcare": "hospital", "name": "CSCOM de Ouroun"}}, {"type": "node", "id": 9540452193, "lat": 11.6558957, "lon": -7.8755661, "tags": {"amenity": "hospital", "healthcare": "hospital", "name": "Maternite Rurale de Nansala"}}, {"type": "node", "id": 9563608354, "lat": 11.3180453, "lon": -7.3520704, "tags": {"amenity": "hospital", "name": "CSCom de Beko Sokoro"}}, {"type": "node", "id": 9563611990, "lat": 11.4077645, "lon": -6.8478821, "tags": {"amenity": "hospital", "name": "CSCOM de Koumantou"}}, {"type": "node", "id": 9565388200, "lat": 11.4323838, "lon": -7.4875308, "tags": {"amenity": "hospital", "healthcare": "hospital", "name": "CSCOM de Bougouni Nord"}}, {"type": "node", "id": 9585536330, "lat": 11.739694, "lon": -7.6932007, "tags": {"amenity": "hospital", "healthcare": "hospital", "name": "Centre de Sant\u00e9 de Banantoumou"}}, {"type": "node", "id": 9586160848, "lat": 12.5042759, "lon": -1.5804487, "tags": {"amenity": "hospital", "healthcare": "hospital", "name": "CSPS", "operator": "Public"}}, {"type": "node", "id": 9586673352, "lat": 11.4770425, "lon": -7.7352454, "tags": {"amenity": "hospital", "name": "Maternit\u00e9 de Dinkelena"}}, {"type": "node", "id": 9597326864, "lat": 12.2070749, "lon": -2.1085221, "tags": {"amenity": "hospital", "name": "Centre M\u00e9dical de Poa", "operator": "Public"}}, {"type": "node", "id": 9625748657, "lat": 12.2003269, "lon": -2.1584058, "tags": {"amenity": "hospital", "name": "CSPS", "operator": "Public"}}, {"type": "node", "id": 9646945017, "lat": 14.3874834, "lon": -8.6227322, "tags": {"amenity": "hospital", "healthcare": "hospital", "name": "KOSSAMBOUGOU"}}, {"type": "node", "id": 9656807614, "lat": 12.2303088, "lon": -2.0706493, "tags": {"amenity": "hospital", "name": "CSPS", "operator": "Public"}}, {"type": "node", "id": 9667625433, "lat": 12.26013, "lon": -2.082455, "tags": {"amenity": "hospital", "name": "CSPS", "operator": "Public"}}, {"type": "node", "id": 9670743909, "lat": 12.2400521, "lon": -2.1090424, "tags": {"amenity": "hospital", "name": "CSPS", "operator": "Public"}}, {"type": "node", "id": 9678410251, "lat": 12.2570856, "lon": -2.1446688, "tags": {"amenity": "hospital", "name": "CSPS", "operator": "Public"}}, {"type": "node", "id": 9704132306, "lat": 12.278339, "lon": -2.1692272, "tags": {"amenity": "hospital", "name": "CSPS", "operator": "Public"}}, {"type": "node", "id": 9761698162, "lat": 13.7001097, "lon": -6.0701072, "tags": {"amenity": "hospital", "name": "CSCOM de Kirango", "operator": "Communaut\u00e9"}}, {"type": "node", "id": 9767333617, "lat": 12.2962257, "lon": -2.1353656, "tags": {"amenity": "hospital", "name": "CSPS", "operator": "Public"}}, {"type": "node", "id": 9794400324, "lat": 12.3087602, "lon": -2.0595235, "tags": {"amenity": "hospital", "name": "CSPS", "operator": "Public"}}, {"type": "node", "id": 9799073687, "lat": 13.6776692, "lon": -6.0724729, "tags": {"amenity": "hospital", "name": "CSCOM de Diamarabougou", "operator": "Communaut\u00e9"}}, {"type": "node", "id": 9864220249, "lat": 12.3553901, "lon": -2.1036485, "tags": {"amenity": "hospital", "name": "CSPS", "operator": "Public"}}, {"type": "node", "id": 9944646392, "lat": 10.5154128, "lon": -9.3195926, "tags": {"addr:city": "Soumakoyi", "addr:street": "Route Soumankoyi - Gb\u00e8r\u00e8k\u00f6", "amenity": "hospital", "emergency": "yes", "healthcare": "hospital", "healthcare:speciality": "general", "name": "Poste de Sant\u00e9 de Soumanko\u00ef"}}, {"type": "node", "id": 9954832034, "lat": 13.7391167, "lon": -6.1339626, "tags": {"amenity": "hospital", "name": "CSCOM de Temou"}}, {"type": "node", "id": 9959887217, "lat": 12.2373948, "lon": -2.363182, "tags": {"amenity": "hospital", "name": "CSPS du Secteur 7 de Koudougou", "opening_hours": "24/7"}}, {"type": "node", "id": 10068394478, "lat": 13.4320548, "lon": -6.2553218, "tags": {"alt_name": "Darsalam", "amenity": "hospital", "name": "CSCOM", "opening_hours": "24/7", "operator:type": "government", "phone": "77910764", "source": "YouthMappers at university of segou and virginia University", "supervised": "Universit\u00e9 de S\u00e9gou/ OSM MALI", "survey:date": "2022-09-07"}}, {"type": "node", "id": 10068492381, "lat": 13.4429969, "lon": -6.275951, "tags": {"alt_name": "Quartier administrative", "amenity": "hospital", "name": "Cscom Bananisabakoro", "opening_hours": "24/7", "operator:type": "community", "phone": "76635628", "source": "Youthmappers At University Of S\u00e9gou", "supervised": "Universit\u00e9 de S\u00e9gou / OSM MALI", "survey:date": "2022-09-07"}}, {"type": "node", "id": 10068509348, "lat": 13.44258, "lon": -6.2474978, "tags": {"amenity": "hospital", "name": "Scref famory Doumbia de S\u00e9gou", "opening_hours": "24/7", "operator:type": "government", "phone": "21320244", "place": "S\u00e9gou", "source": "YouthMappers AT University of S\u00e9gou and west Virginia University", "supervised": "Universit\u00e9 de S\u00e9gou OSM MALI", "survey:date": "2022-09-07"}}, {"type": "node", "id": 10068577961, "lat": 13.4325909, "lon": -6.2639532, "tags": {"alt_name": "M\u00e9dine", "amenity": "hospital", "name": "Cscom de M\u00e9dine", "opening_hours": "24/7", "operator:type": "community", "phone": "76416798", "source": "Youthmappers At University Of S\u00e9gou and West Virginia", "supervised": "Universit\u00e9 de S\u00e9gou/ OSM MALI", "survey:date": "2022-09-07"}}, {"type": "node", "id": 10068616618, "lat": 13.4250265, "lon": -6.2700672, "tags": {"amenity": "hospital", "name": "CSCOM MISSIRA", "opening_hours": "Mo-Su 07:45-15:30", "operator:type": "community", "survey:date": "2022-09-07"}}, {"type": "node", "id": 10068651538, "lat": 13.4282537, "lon": -6.2456444, "tags": {"alt_name": "Sidosoninkoura", "amenity": "hospital", "name": "Cscom SIDOsoninkoura", "opening_hours": "24/7", "operator:type": "government", "phone": "79097139", "source": "YoutMappers At University Of S\u00e9gou and West Virginia University", "supervised": "Universit\u00e9 de S\u00e9gou", "survey:date": "07/09/2022"}}, {"type": "node", "id": 10068657748, "lat": 13.4330292, "lon": -6.2153509, "tags": {"alt_name": "Pelengana nord", "amenity": "hospital", "name": "Cscom Pelengana nord", "opening_hours": "24/7", "operator:type": "government", "phone": "78460997", "survey:date": "2022-09-08"}}, {"type": "node", "id": 10068657749, "lat": 13.4305936, "lon": -6.214982, "tags": {"addr:suburb": "Pelengana", "amenity": "hospital", "name": "Cscom Pelengana nord", "opening_hours": "24/7", "operator:type": "government", "phone": "78460997", "source": "YouthMappers At University Of Segou and West Virginia University", "survey:date": "2022-09-08"}}, {"type": "node", "id": 10068657751, "lat": 13.4306165, "lon": -6.2150128, "tags": {"addr:suburb": "Pelengana", "amenity": "hospital", "name": "Cscom Pelengana nord", "opening_hours": "24/7", "operator:type": "government", "phone": "78460997", "source": "YouthMappers At University Of Segou and West Virginia University", "survey:date": "2022-09-08"}}, {"type": "node", "id": 10068712066, "lat": 13.4170109, "lon": -6.2863735, "tags": {"alt_name": "ATT bougou bagadaji Sud", "amenity": "hospital", "name": "Cscom d'ATT bougou", "opening_hours": "24/7", "operator:type": "community", "phone": "75117536", "source": "Youthmappers At University Of Segou", "supervised": "Universit\u00e9 de S\u00e9gou / OSM MALI", "survey:date": "2022-09-07", "wheelchair": "yes"}}, {"type": "node", "id": 10090238439, "lat": 11.0869662, "lon": -6.9002885, "tags": {"amenity": "hospital", "healthcare": "hospital", "name": "CSCom De Kolondieba"}}, {"type": "node", "id": 10217669314, "lat": 11.4269861, "lon": -2.4036536, "tags": {"amenity": "hospital", "name": "CSPS", "operator": "Public"}}, {"type": "node", "id": 10233650537, "lat": 11.1969817, "lon": -4.2549422, "tags": {"amenity": "hospital", "healthcare": "hospital", "name": "CMA de Dafra", "operator": "Minist\u00e8re de la Sant\u00e9", "operator:type": "public"}}, {"type": "node", "id": 10240522553, "lat": 13.8430568, "lon": -3.7544569, "tags": {"amenity": "hospital", "name": "H\u00f4pital Epoux BRIEUX"}}, {"type": "node", "id": 10246832979, "lat": 13.7809645, "lon": -3.7703383, "tags": {"amenity": "hospital", "name": "CSCOM de Sama", "source": "Knowledge"}}, {"type": "node", "id": 10771539511, "lat": 12.3838696, "lon": -1.5066426, "tags": {"amenity": "hospital", "healthcare": "hospital", "name": "algado Ou\u00e9draogo University Hospital"}}, {"type": "node", "id": 10861012209, "lat": 12.9692937, "lon": -6.9587097, "tags": {"amenity": "hospital", "name": "CSCOM DE N'DILA"}}, {"type": "node", "id": 10928174428, "lat": 12.596904, "lon": -8.0235918, "tags": {"addr:street": "Rue 581", "amenity": "hospital", "healthcare": "hospital", "healthcare:speciality": "paediatrics", "name": "clinique sacrecoeur"}}, {"type": "node", "id": 10940362331, "lat": 12.2028122, "lon": -1.579797, "tags": {"amenity": "hospital", "healthcare": "hospital", "name": "CSPS", "operator": "Public"}}, {"type": "node", "id": 10960884190, "lat": 12.2177536, "lon": -1.6959018, "tags": {"amenity": "hospital", "name": "CSPS", "operator": "Public"}}, {"type": "node", "id": 10968834709, "lat": 12.2432578, "lon": -1.6866669, "tags": {"amenity": "hospital", "name": "CSPS", "operator": "Public"}}, {"type": "node", "id": 10972068215, "lat": 12.0373059, "lon": -1.5066129, "tags": {"amenity": "hospital", "name": "Maternit\u00e9"}}, {"type": "node", "id": 10973391459, "lat": 12.037727, "lon": -1.5086031, "tags": {"amenity": "hospital", "name": "Dispensaire", "operator": "Public"}}, {"type": "node", "id": 10976186568, "lat": 12.0166813, "lon": -1.5512958, "tags": {"amenity": "hospital", "name": "CSPS", "operator": "Public"}}, {"type": "node", "id": 10983645006, "lat": 11.978278, "lon": -1.4641817, "tags": {"amenity": "hospital", "name": "CSPS", "operator": "Public"}}, {"type": "node", "id": 10996772809, "lat": 12.0925639, "lon": -1.4341584, "tags": {"amenity": "hospital", "name": "CSPS", "operator": "Public"}}, {"type": "node", "id": 11005632539, "lat": 11.9876357, "lon": -1.3816729, "tags": {"amenity": "hospital", "name": "CSPS", "operator": "Public"}}, {"type": "node", "id": 11010704226, "lat": 11.9327774, "lon": -1.4201412, "tags": {"amenity": "hospital", "name": "Dispensaire", "operator": "Public"}}, {"type": "node", "id": 11016391745, "lat": 12.1202345, "lon": -1.3675055, "tags": {"amenity": "hospital", "name": "Dispensaire", "operator": "Public"}}, {"type": "node", "id": 11019642046, "lat": 12.1386511, "lon": -1.3897651, "tags": {"amenity": "hospital", "name": "CSPS", "operator": "Public"}}, {"type": "node", "id": 11064474939, "lat": 12.1889933, "lon": -1.3998234, "tags": {"amenity": "hospital", "name": "CSPS de Koubri", "operator": "Public"}}, {"type": "node", "id": 11131977536, "lat": 12.3568966, "lon": -1.1673886, "tags": {"amenity": "hospital", "name": "CSPS", "operator": "Public"}}, {"type": "node", "id": 11280339485, "lat": 11.1702526, "lon": -4.3012048, "tags": {"amenity": "hospital", "healthcare": "hospital", "name": "Centre Hospitalier Universitaire  (CHU) Sanousouro"}}, {"type": "way", "id": 27570857, "center": {"lat": 12.3597762, "lon": -1.4913453}, "nodes": [302730314, 433438018, 433438019, 2401418722, 433438027, 433438026, 433438023, 433438022, 302730314], "tags": {"amenity": "hospital", "name": "Mission Catholique"}}, {"type": "way", "id": 27928891, "center": {"lat": 12.3462784, "lon": -1.7577321}, "nodes": [306561462, 306561463, 306561464, 306561585, 306561462], "tags": {"amenity": "hospital", "name": "Maternit\u00e9 San\u00e9"}}, {"type": "way", "id": 28811175, "center": {"lat": 12.3747846, "lon": -1.4715339}, "nodes": [316758654, 316758655, 316758656, 316758657, 316758654], "tags": {"amenity": "hospital", "emergency": "yes", "name": "H\u00f4pital p\u00e9diatrique Charles de Gaulles", "operator": "Gouvernement"}}, {"type": "way", "id": 30622762, "center": {"lat": 12.3355752, "lon": -1.565434}, "nodes": [338682229, 9279194952, 338682230, 338682231, 338682232, 9279194930, 338682229], "tags": {"amenity": "hospital", "emergency": "yes", "healthcare": "hospital", "healthcare:speciality": "general;paediatrics;vaccination", "name": "CMA de Pissy", "wheelchair": "yes"}}, {"type": "way", "id": 30745193, "center": {"lat": 12.3560931, "lon": -1.5495481}, "nodes": [340026853, 340026855, 340026857, 340026858, 340026853], "tags": {"amenity": "hospital", "healthcare": "hospital", "name": "maternit\u00e9 de Goughin"}}, {"type": "way", "id": 30903048, "center": {"lat": 12.3470145, "lon": -1.5448406}, "nodes": [343557900, 338663035, 343557902, 343557903, 343557900], "tags": {"amenity": "hospital", "healthcare": "hospital", "name": "Maternit\u00e9 SMI"}}, {"type": "way", "id": 30916644, "center": {"lat": 12.353235, "lon": -1.5188967}, "nodes": [343677261, 343677263, 343677264, 343677265, 343677267, 343677261], "tags": {"amenity": "hospital", "created_by": "Potlatch 0.10f", "name": "Maternit\u00e9 Yennenga"}}, {"type": "way", "id": 30947070, "center": {"lat": 12.3774909, "lon": -1.5472162}, "nodes": [344101959, 344101960, 344101961, 344101962, 344101959], "tags": {"amenity": "hospital", "name": "Centre M\u00e9dical"}}, {"type": "way", "id": 30950120, "center": {"lat": 12.3774231, "lon": -1.5364188}, "nodes": [344112038, 7261472147, 344112041, 344112042, 344112038], "tags": {"amenity": "hospital", "name": "Maternit\u00e9 de Pogbi"}}, {"type": "way", "id": 30956478, "center": {"lat": 12.3995486, "lon": -1.5576671}, "nodes": [344217448, 3236638133, 344217449, 344217450, 344217451, 344217448], "tags": {"amenity": "hospital", "name": "Centre m\u00e9dical Paul VI"}}, {"type": "way", "id": 30993411, "center": {"lat": 12.3948604, "lon": -1.5757048}, "nodes": [344604107, 344604098, 344604100, 344604103, 344604107], "tags": {"amenity": "hospital", "healthcare": "hospital", "name": "Dispensaire maternit\u00e9"}}, {"type": "way", "id": 30994284, "center": {"lat": 12.400722, "lon": -1.5038468}, "nodes": [344614372, 344614373, 344614374, 3184502548, 344614375, 344614372], "tags": {"amenity": "hospital", "emergency": "yes", "name": "Polyclinique Notre Dame de la Paix"}}, {"type": "way", "id": 30994313, "center": {"lat": 12.3980334, "lon": -1.5069931}, "nodes": [344614487, 344614488, 344614489, 344614490, 344614491, 344614487], "tags": {"amenity": "hospital", "name": "Institut M\u00e9dicoPsyco Educatif"}}, {"type": "way", "id": 31136880, "center": {"lat": 12.418045, "lon": -1.4668545}, "nodes": [346235251, 346235252, 346235253, 346235255, 346235251], "tags": {"amenity": "hospital", "emergency": "yes", "name": "District Sanitaire de Nongremasson"}}, {"type": "way", "id": 93305275, "center": {"lat": 12.7243202, "lon": -8.0602924}, "nodes": [1081809269, 1081809177, 1637697145, 1637697251, 1637697333, 1637697241, 1081809274, 1637697149, 1081809211, 1081809269], "tags": {"amenity": "hospital", "name": "Polyclinique caritative Mouamar Kadafi"}}, {"type": "way", "id": 93314850, "center": {"lat": 12.6708012, "lon": -7.9556347}, "nodes": [1081960551, 1081960481, 1081960408, 1081960449, 1081960551], "tags": {"amenity": "hospital", "name": "ASACOKO"}}, {"type": "way", "id": 93578313, "center": {"lat": 12.7433239, "lon": -8.0740365}, "nodes": [1085411197, 1085410868, 1085410987, 1085410967, 1352208736, 1085411197], "tags": {"amenity": "hospital", "name": "Protection Maternelle et Infantile de Kati (PMI)"}}, {"type": "way", "id": 93613078, "center": {"lat": 12.6200528, "lon": -8.0192021}, "nodes": [1086086124, 1086086091, 1086086066, 1086086180, 1086086100, 1086086087, 1086086124], "tags": {"amenity": "hospital", "name": "AsacoDjip"}}, {"type": "way", "id": 150905420, "center": {"lat": 12.7266292, "lon": -8.0605964}, "nodes": [1637697371, 1637697229, 1637697186, 1637697253, 1637697355, 1637697286, 1637697289, 7480390681, 7480390682, 1637697157, 1637697153, 1637697255, 1637697371], "tags": {"alt_name": "Hopital National du Kati", "amenity": "hospital", "health_facility:type": "hospital", "name": "H\u00f4pital de Kati", "pcode": "ML02H01U001", "source": "OMS Survey", "start_date": "1-Jan-2011", "who:code_csref": "ML02H01", "who:distance": "0", "who:nbre_village": "0"}}, {"type": "way", "id": 154490996, "center": {"lat": 12.3669522, "lon": -1.4952733}, "nodes": [1670183827, 1670183873, 1670183841, 6138860852, 1670183869, 6138860857, 1670183858, 1670183828, 1670183827], "tags": {"addr:city": "Ouagadougou", "amenity": "hospital", "healthcare": "hospital", "name": "H\u00f4pital Saint Camille de Ouagadougou", "operator": "Religieux Camilliens"}}, {"type": "way", "id": 157920887, "center": {"lat": 14.0350506, "lon": -0.0346028}, "nodes": [1701507894, 1701507890, 1701507867, 1701507851, 1701507730, 1701507727, 1701507733, 2461741771, 1701507894], "tags": {"amenity": "hospital", "name": "Centre Hospitalier R\u00e9gional de Dori"}}, {"type": "way", "id": 175062350, "center": {"lat": 16.7666649, "lon": -3.0052331}, "nodes": [2163840424, 1857092370, 1857092369, 1857092353, 1857092355, 1857092357, 1857092359, 1857092590, 1857092578, 1857092572, 1857092570, 1857092576, 2163840424], "tags": {"amenity": "hospital", "barrier": "wall", "health_facility:type": "hospital", "healthcare": "hospital", "name": "H\u00f4pital R\u00e9gional de Tombouctou", "name:ar": "\u0627\u0644\u0645\u0633\u062a\u0634\u0641\u0649 \u0627\u0644\u062c\u0647\u0648\u064a \u062a\u0645\u0628\u0643\u062a\u0648", "name:es": "Hospital Regional de Tombuct\u00fa", "pcode": "ML06H01H001", "source": "OMS Survey", "start_date": "1-Jan-1992", "who:code_csref": "ML06H01", "who:distance": "0", "who:nbre_village": "0"}}, {"type": "way", "id": 176091432, "center": {"lat": 10.8391296, "lon": -2.7729801}, "nodes": [1866580867, 3527082036, 1866580913, 1866580936, 1866580869, 1866580945, 1866580946, 1866580888, 1866580867], "tags": {"amenity": "hospital", "barrier": "wall", "healthcare": "hospital", "name": "Nandom Hospital"}}, {"type": "way", "id": 176388864, "center": {"lat": 10.6429732, "lon": -2.887975}, "nodes": [1869225604, 1869225609, 1869225561, 1869225578, 1869225607, 1869225610, 1869225593, 1869225595, 1869225582, 1869225598, 1869225606, 1869225590, 1869225611, 1869225570, 1869225604], "tags": {"addr:city": "L:awra", "addr:postcode": "XL0001", "addr:street": "Lawra - Duori Road", "amenity": "hospital", "emergency": "yes", "healthcare": "hospital", "healthcare:speciality": "general;radiology;emergency;maternity;biochemistry;blood_check;dentistry", "name": "Lawra Municipal Hospital", "opening_hours": "24/7", "operator": "National Property"}}, {"type": "way", "id": 204431680, "center": {"lat": 12.2614428, "lon": -2.358614}, "nodes": [2144412503, 2144412481, 2144412489, 2144412477, 2144412509, 2144412512, 2144412497, 2144412505, 2144412508, 2144412493, 2144412486, 2144412503], "tags": {"amenity": "hospital", "denomination": "Centre hospitalier r\u00e9gional (CHR)", "emergency": "yes", "name": "Hopital de l'Amiti\u00e9"}}, {"type": "way", "id": 204737493, "center": {"lat": 15.0002913, "lon": -2.9552722}, "nodes": [2147196227, 10757445031, 2147196266, 2147196162, 2147196130, 7651942977, 2147196129, 2147196227], "tags": {"amenity": "hospital", "barrier": "wall", "name": "H\u00f4pital"}}, {"type": "way", "id": 208639211, "center": {"lat": 14.5046152, "lon": -4.1960763}, "nodes": [2180383628, 2180383622, 2180383619, 2176628450, 2176628465, 2176628546, 2176628603, 2176628683, 8509597964, 2189111142, 2189111143, 2176502302, 2176502264, 2176502254, 2176502229, 2180383629, 2180383628], "tags": {"addr:city": "Mopti", "amenity": "hospital", "healthcare": "hospital", "name": "H\u00f4pital Somine Dolo Mopti", "name:en": "Hospital Somine Dolo Mopti", "source": "survey"}}, {"type": "way", "id": 214800594, "center": {"lat": 10.6424126, "lon": -4.7439219}, "nodes": [2242751837, 2242751844, 4860302641, 4860302640, 2242751929, 4860302639, 2242751479, 2242751690, 2242751692, 2242751837], "tags": {"amenity": "hospital", "name": "CHR Banfora"}}, {"type": "way", "id": 215565376, "center": {"lat": 10.637639, "lon": -4.7637557}, "nodes": [2250296627, 2250296629, 2250296576, 2250296578, 2250296602, 5447018949, 2250296627], "tags": {"amenity": "hospital"}}, {"type": "way", "id": 215572206, "center": {"lat": 10.634308, "lon": -4.7512991}, "nodes": [2250369124, 2250369126, 2250369112, 2250369111, 2250369124], "tags": {"amenity": "hospital"}}, {"type": "way", "id": 220115628, "center": {"lat": 13.0858708, "lon": -1.1031742}, "nodes": [2292372017, 2292372022, 3659148259, 2292372016, 2292372015, 2292372017], "tags": {"amenity": "hospital", "barrier": "wall", "healthcare": "hospital", "name": "Centre Hospitalier R\u00e9gional de Kaya"}}, {"type": "way", "id": 221045722, "center": {"lat": 13.068265, "lon": -3.0714227}, "nodes": [2301008144, 2301008150, 2301008140, 2301008135, 2301008133, 2301008144], "tags": {"amenity": "hospital", "name": "CMA de Tougan"}}, {"type": "way", "id": 221045726, "center": {"lat": 13.0698399, "lon": -3.0760206}, "nodes": [2301008161, 2301008167, 2301008154, 2301008146, 2301008161], "tags": {"amenity": "hospital", "name": "District Sanitaire de Tougan"}}, {"type": "way", "id": 229345768, "center": {"lat": 10.2776562, "lon": -0.8254839}, "nodes": [2379575421, 2379575433, 2379575432, 2379575388, 2379575421], "tags": {"amenity": "hospital", "building": "yes", "healthcare": "hospital"}}, {"type": "way", "id": 229345769, "center": {"lat": 10.2778959, "lon": -0.8245804}, "nodes": [2379575428, 2379575426, 2379575424, 2379575419, 2379575428], "tags": {"amenity": "hospital", "building": "yes", "healthcare": "hospital"}}, {"type": "way", "id": 229345770, "center": {"lat": 10.2776677, "lon": -0.8263288}, "nodes": [2379575390, 2379575430, 2379575400, 2379575382, 2379575390], "tags": {"amenity": "hospital", "building": "yes", "healthcare": "hospital"}}, {"type": "way", "id": 231730218, "center": {"lat": 12.3334849, "lon": -1.5553035}, "nodes": [2400665199, 2400665202, 2400665204, 2400665206, 2400665199], "tags": {"amenity": "hospital", "name": "Polyclinique Nafi"}}, {"type": "way", "id": 231895920, "center": {"lat": 12.3601128, "lon": -1.4951347}, "nodes": [318100926, 2402211615, 2402211598, 9204646859, 2402211594, 2402211635, 9204646863, 9204646862, 2402211629, 2402211658, 9204646861, 9204646860, 2402211657, 2402211684, 2402211692, 2402211696, 2402211700, 2402211702, 2402211662, 2402211666, 2402211643, 9204646865, 9204646864, 318100926], "tags": {"amenity": "hospital", "building": "yes", "healthcare": "hospital", "name": "Clinique Sandof", "source": "bing 2010"}}, {"type": "way", "id": 232007301, "center": {"lat": 12.6958267, "lon": -2.7241275}, "nodes": [2403501975, 2403501977, 2403501979, 2403501981, 2403501975], "tags": {"amenity": "hospital", "building": "yes", "name": "maternit\u00e9 de K\u00e9ra"}}, {"type": "way", "id": 243221003, "center": {"lat": 12.8542594, "lon": -5.5022762}, "nodes": [2506401659, 2506401660, 2506401658, 2506401661, 2506401659], "tags": {"amenity": "hospital", "emergency": "no", "name": "Centre de Sant\u00e9 Communautaire CSCOM DE Samabogo", "survey:date": "2023-04-07"}}, {"type": "way", "id": 244152652, "center": {"lat": 12.7506853, "lon": -8.0982571}, "nodes": [2515010747, 2515010748, 2515010749, 2515010750, 7401659861, 2515010747], "tags": {"amenity": "hospital", "name": "CSCOM"}}, {"type": "way", "id": 246216289, "center": {"lat": 12.6889612, "lon": -2.1909894}, "nodes": [2532830099, 2536186246, 2532830072, 2532830059, 2532829996, 2532830032, 2536186259, 2532830945, 2532831497, 2532831529, 2532831563, 2532832588, 2532832781, 2532832792, 2532832755, 2532832718, 2532832672, 2532832409, 2532832349, 2532832170, 2532831899, 2532831643, 2532831622, 2532831532, 2532831537, 2532831523, 2532831356, 2532831235, 2532831212, 2532831192, 2532831168, 2532831157, 2532831090, 2532831104, 2532831079, 2532831065, 2532831028, 2532830621, 2532830099], "tags": {"amenity": "hospital", "name": "H\u00f4pital Saint Camille"}}, {"type": "way", "id": 250458402, "center": {"lat": 12.2568055, "lon": -2.365602}, "nodes": [2568955519, 2568955587, 2889211658, 2568955540, 2568955519], "tags": {"amenity": "hospital", "barrier": "wall", "healthcare": "hospital", "name": "Centre Hospitalier regional de Koudougou"}}, {"type": "way", "id": 251031775, "center": {"lat": 12.3786673, "lon": -1.4999882}, "nodes": [3280462218, 2573285048, 2573285046, 2573285045, 3280462218], "tags": {"amenity": "hospital", "building": "hospital", "healthcare": "hospital", "healthcare:cholera": "no", "name": "Infirm\u00e9rie de l'universit\u00e9", "operator:type": "government", "source": "survey"}}, {"type": "way", "id": 257735566, "center": {"lat": 12.3732545, "lon": -1.5074374}, "nodes": [4337108613, 2632094310, 2632094404, 2632094417, 2632094429, 2632094447, 2632094394, 2632094399, 2632094355, 2632094350, 2632094374, 2632094369, 4337108613], "tags": {"amenity": "hospital", "description": "Anciennement Centre M\u00e9dical Fran\u00e7ais. Permet de se faire soigner par des m\u00e9decins occidentaux, avec feuille de soins pour se faire rembourser par la S\u00e9cu", "healthcare": "hospital", "name": "Centre M\u00e9dical Internationnal (CMI);CMI (Centre M\u00e9dical International)"}}, {"type": "way", "id": 263950712, "center": {"lat": 12.3824282, "lon": -1.4900067}, "nodes": [2696298069, 2696298144, 2696298142, 2696298143, 2696298069], "tags": {"amenity": "hospital", "healthcare": "hospital", "name": "Clinique FRANY"}}, {"type": "way", "id": 284100822, "center": {"lat": 12.3944084, "lon": -1.5251786}, "nodes": [2878651214, 346899717, 2878651211, 2878651210, 2878651213, 2878651212, 2878651214], "tags": {"amenity": "hospital", "building": "hospital"}}, {"type": "way", "id": 289706443, "center": {"lat": 13.2180448, "lon": -2.3597881}, "nodes": [2932550628, 2932550624, 2932550618, 2932550619, 2932550628], "tags": {"amenity": "hospital", "barrier": "wall", "name": "CMA de Gourcy"}}, {"type": "way", "id": 305365860, "center": {"lat": 12.9087619, "lon": -1.0841554}, "nodes": [3099860136, 3099860137, 5968451005, 3099860138, 3099860139, 3099860140, 3099860141, 3099860142, 3099860143, 3099860144, 3099860136], "tags": {"amenity": "hospital", "emergency": "yes", "name": "Boussouma Hospital"}}, {"type": "way", "id": 309903689, "center": {"lat": 12.7498956, "lon": -1.6742632}, "nodes": [3152387510, 3152387512, 3152387509, 3152387507, 3152387510], "tags": {"amenity": "hospital", "building": "yes", "designation": "Clinic", "emergency": "no", "name": "Clinic", "source": "Bing"}}, {"type": "way", "id": 309903702, "center": {"lat": 12.7502534, "lon": -1.6753878}, "nodes": [1836007677, 3152387519, 3152387516, 3152387515, 1836007677], "tags": {"amenity": "hospital", "building": "hospital", "healthcare": "hospital", "name": "Maternity Ward", "source": "Bing"}}, {"type": "way", "id": 313406831, "center": {"lat": 12.6346522, "lon": -7.9105593}, "nodes": [1060741987, 5647935178, 5647935179, 5647935180, 2421467424, 1060742325, 9255120651, 3211182418, 3193739861, 2421467452, 9255120652, 9255120653, 2421467453, 2421467384, 9255120642, 9255120643, 9255120644, 9255120645, 2421467385, 1060741987], "tags": {"amenity": "hospital", "health_facility:type": "hospital", "healthcare": "hospital", "name": "H\u00f4pital du Mali", "pcode": "ML08H06U005", "source": "OMS Survey", "start_date": "7-Sep-2011", "who:code_csref": "ML08H06", "who:distance": "0", "who:nbre_village": "0"}}, {"type": "way", "id": 314695939, "center": {"lat": 12.6513592, "lon": -7.9958566}, "nodes": [2157549644, 2157549649, 2157549651, 9243942542, 2157549647, 2157549646, 9243942543, 5146369602, 5146369600, 2157549644], "tags": {"amenity": "hospital", "dispensing": "yes", "electricity": "grid", "emergency": "yes", "health_amenity:type": "emergency_department;imaging_equipment;intensive_care_unit;laboratory;x_ray", "healthcare": "dentist;doctor;hospital;laboratory;optometrist;pharmacy", "healthcare:speciality": "anaesthetics;blood_check;cardiology;child_psychiatry;dermatology;diagnostic_radiology;emergency;gastroenterology;general;gynaecology;radiology;trauma", "insurance:health": "public", "name": "Centre Hospitalo Universitaire Gabriel Tour\u00e9", "name:de": "Universit\u00e4tsklinikum Gabriel Tour\u00e9", "name:en": "Gabriel Tour\u00e9 University Hospital Centre", "name:es": "Centro Hospitalario Universitario Gabriel Tour\u00e9", "opening_hours": "24/7", "operational_status": "operational", "water_source": "powered_pump", "wheelchair": "yes"}}, {"type": "way", "id": 315526763, "center": {"lat": 12.567842, "lon": -8.0863589}, "nodes": [3216479530, 3216479531, 3216479532, 3216479533, 3216479530], "tags": {"amenity": "hospital"}}, {"type": "way", "id": 315559030, "center": {"lat": 12.744914, "lon": -8.0676742}, "nodes": [1118901540, 1057377431, 6294539227, 4176546330, 4176546334, 1118901540], "tags": {"amenity": "hospital", "healthcare": "hospital", "name": "Reanimacion Hospital de Kati"}}, {"type": "way", "id": 316788730, "center": {"lat": 12.5886678, "lon": -7.9555517}, "nodes": [3229678637, 3229678638, 3229678636, 5225075952, 3229678637], "tags": {"amenity": "hospital", "healthcare": "centre", "name": "CMIE Commune VI"}}, {"type": "way", "id": 317706950, "center": {"lat": 12.3937712, "lon": -5.4597759}, "nodes": [3239973161, 3239969860, 10795615430, 10795615431, 10795615432, 10795615433, 3239969839, 3239969842, 10795615444, 3239969850, 3239969852, 3239973161], "tags": {"amenity": "hospital", "healthcare": "hospital", "name": "Annexe du Centre de sant\u00e9 de r\u00e9f\u00e9rence de Koutiala"}}, {"type": "way", "id": 317777191, "center": {"lat": 12.4732305, "lon": -7.9369462}, "nodes": [3240801849, 3240801851, 3240801850, 3240801844, 3240801845, 3240801846, 3240801847, 3240801848, 3240801849], "tags": {"amenity": "hospital", "name": "Centre de sante communautaire de Banankoro"}}, {"type": "way", "id": 325162015, "center": {"lat": 14.6470936, "lon": -3.1121667}, "nodes": [3318280960, 3318280961, 3318280955, 3318280954, 3318280958, 3318280959, 3318280956, 3318280957, 3318280960], "tags": {"amenity": "hospital", "building": "yes", "name": "CSCOM de BAMBA"}}, {"type": "way", "id": 325205437, "center": {"lat": 14.5858966, "lon": -3.0816593}, "nodes": [3318622812, 3318623079, 3318623075, 5503134074, 5503134075, 3318623074, 3318622812], "tags": {"amenity": "hospital", "barrier": "fence", "healthcare": "hospital", "name": "CSCOM de Diankabou"}}, {"type": "way", "id": 325972615, "center": {"lat": 11.1480701, "lon": -3.0744184}, "nodes": [3325837452, 3325851798, 3325852120, 3325852121, 3325851795, 3325851779, 3325851783, 3325851782, 3325851780, 3325851770, 3325837452], "tags": {"amenity": "hospital", "barrier": "wall", "health_facility:type": "hospital", "healthcare": "hospital", "name": "Centre Medical avec Antenne chirurgical de Dano;CMA de Dano", "operator:type": "government", "source": "bing;knowledge"}}, {"type": "way", "id": 342937156, "center": {"lat": 11.1704942, "lon": -4.301255}, "nodes": [3498833071, 3498833067, 3498833069, 3498833070, 3498833066, 3498833068, 3498833071], "tags": {"amenity": "hospital", "emergency": "yes", "healthcare": "hospital", "name": "H\u00f4pital Sanousouro"}}, {"type": "way", "id": 343160686, "center": {"lat": 11.2024861, "lon": -4.319826}, "nodes": [3500544668, 3500544690, 3500544673, 3500545593, 6271064053, 3500544663, 3500544672, 3500545602, 3500544685, 3500544668], "tags": {"amenity": "hospital", "barrier": "wall", "name": "Centre M\u00e9dical avec Antenne chirurgicale du sect22", "short_name": "CMA du 22"}}, {"type": "way", "id": 343920080, "center": {"lat": 11.8077695, "lon": -1.363567}, "nodes": [3507054612, 3507054680, 3507054631, 5770868148, 3507052321, 3507054612], "tags": {"amenity": "hospital", "barrier": "wall"}}, {"type": "way", "id": 358441576, "center": {"lat": 11.2049345, "lon": -4.3024823}, "nodes": [3633583482, 3633583481, 3633583479, 3633583480, 3633583482], "tags": {"amenity": "hospital", "building": "yes", "name": "Siloe", "operator": "Eglise des Assembl\u00e9es de Dieu de Colma"}}, {"type": "way", "id": 376095734, "center": {"lat": 15.3751308, "lon": -4.2582487}, "nodes": [3794607325, 3794607331, 3794607333, 3794607335, 3794607337, 3794607338, 3794607334, 3794607330, 3794607329, 3794607326, 3794607327, 3794607324, 3794607325], "tags": {"amenity": "hospital", "name": "CSCOM"}}, {"type": "way", "id": 376374106, "center": {"lat": 12.9658943, "lon": -2.2680903}, "nodes": [3798111084, 3798111085, 3798111083, 3798111082, 3798111081, 3798111080, 3798121698, 3798111077, 3798111061, 3798121670, 3798110851, 3798110850, 3798111058, 3798111062, 3798111084], "tags": {"amenity": "hospital", "barrier": "wall", "name": "CMA de Yako"}}, {"type": "way", "id": 376489745, "center": {"lat": 12.356886, "lon": -1.5450238}, "nodes": [340027782, 3799009396, 3799009381, 3799009377, 340027782], "tags": {"amenity": "hospital", "building": "yes", "healthcare": "hospital", "name": "Clinique", "source": "bing"}}, {"type": "way", "id": 377151990, "center": {"lat": 13.22842, "lon": -2.963558}, "nodes": [3805269109, 3805269071, 3078613815, 3078613816, 3805269109], "tags": {"amenity": "hospital", "id:uuid": "urn:tdh_csps_plg_id:niankore", "source": "Bing;Tdh;survey", "survey:date": "2015-10-23"}}, {"type": "way", "id": 377333389, "center": {"lat": 12.3835648, "lon": -1.5066309}, "nodes": [3807091214, 3807092648, 3807092848, 3807092961, 3807092962, 3807092692, 3807092667, 3807092592, 3807091255, 3807091256, 3807091246, 3807091243, 3807091239, 3807091228, 3807091214], "tags": {"amenity": "hospital", "emergency": "yes", "healthcare": "hospital", "name": "CHU Yalgado Ou\u00e9draogo", "wikidata": "Q30261334"}}, {"type": "way", "id": 377731609, "center": {"lat": 12.6321861, "lon": -7.9207054}, "nodes": [3811238452, 3811238453, 3811238451, 3811238450, 3811238452], "tags": {"addr:city": "Bamako", "addr:quarter": "Commune VI", "addr:suburb": "Missabougou", "amenity": "hospital", "consent": "yes", "handwashing": "yes", "handwashing:soap": "yes", "handwashing_number": "15", "handwashing_station_distance": "yes", "handwashing_usability": "15", "healthcare": "hospital", "latrine_emptying_service": "no", "name": "AsacoMI", "opening_hours": "24/7", "operator": "community", "patient_female": "20", "patient_male": "13", "phone": "76278351", "sanitation": "yes", "staff_count": "28", "staff_count:doctors": "2", "toilets:female": "yes", "toilets:num_chambers": "4", "toilets:staff": "yes", "wash_maintenance": "yes", "wash_maintenance_frequency": "once_a_day", "wash_management": "no", "wash_ngo_support": "no", "water_point": "yes", "water_point_improved": "Channeled_on_the_ground_but_not_up_to_the_building_SOMAGEP", "water_point_location": "yes", "water_point_number": "1", "water_point_type": "improved", "water_point_usability": "1", "wheelchair": "yes"}}, {"type": "way", "id": 399932197, "center": {"lat": 12.5713863, "lon": -3.9679274}, "nodes": [4025955447, 4025955445, 4025955446, 4025955448, 4025955447], "tags": {"amenity": "hospital", "name": "Maternit\u00e9 de Goni"}}, {"type": "way", "id": 406732167, "center": {"lat": 10.8824417, "lon": -1.0856657}, "nodes": [4087708963, 4087708964, 4087708965, 4087708966, 4087708967, 4087708968, 4087708969, 4087708970, 4087708971, 4087708972, 4087708973, 4087708963], "tags": {"addr:city": "Navrongo", "addr:postcode": "P.O Box 34 Navrongo", "amenity": "hospital", "healthcare": "hospital", "healthcare:speciality": "general;paediatrics;psychiatry;ophthalmology;dermatology;radiology;emergency;maternity", "name": "War Memorial Hospital", "operator": "Ministry of Health", "operator:type": "government"}}, {"type": "way", "id": 406732178, "center": {"lat": 10.0561922, "lon": -2.4974}, "nodes": [4087709081, 4087709082, 8616220570, 8616220563, 4087709083, 4087709084, 4087709085, 4087709086, 4087709087, 4087709088, 4087709081], "tags": {"addr:city": "Wa", "addr:street": "Tendaamba Crescent", "amenity": "hospital", "healthcare": "hospital", "name": "Wa Municipal Hospital"}}, {"type": "way", "id": 406732179, "center": {"lat": 10.0872271, "lon": -2.5212674}, "nodes": [6616202786, 8223841419, 8223816315, 8223841418, 8223816316, 8223841417, 4087709090, 4087709091, 8223841421, 8223841420, 8223816312, 8223816313, 8223816311, 8223816314, 4087709092, 6616202786], "tags": {"amenity": "hospital", "healthcare": "hospital", "name": "New Upper West Regional Hospital Site"}}, {"type": "way", "id": 406732183, "center": {"lat": 11.0602425, "lon": -0.2329527}, "nodes": [4087709126, 9237587595, 4087709127, 4087709128, 4087709129, 9237587594, 9237587593, 4087709130, 4087709131, 4087709126], "tags": {"amenity": "hospital", "name": "Bawku Presbyterian Hospital"}}, {"type": "way", "id": 410553124, "center": {"lat": 15.1615438, "lon": -7.296259}, "nodes": [4123619018, 4123619005, 4123619007, 4123619002, 4123619001, 4123618061, 4123618062, 4123618046, 4123618047, 4123618048, 4123618054, 4123618050, 4123618052, 4123618045, 4123618049, 4123618053, 4123618056, 4123618065, 4123618063, 4123618085, 4123618087, 4123618995, 4123618993, 4123619000, 4123618991, 4123618998, 4123618994, 4123619015, 4123619016, 4123619024, 4123619021, 4123619020, 4123619022, 4123619017, 4123619019, 4123619018], "tags": {"amenity": "hospital", "name": "CENTRE DE SANTE DE REFERENCE DE NARA"}}, {"type": "way", "id": 412501968, "center": {"lat": 12.4610972, "lon": -3.4655633}, "nodes": [4088827570, 4139127438, 4139127439, 4139127440, 4139127441, 5275509447, 4139127442, 4088827570], "tags": {"amenity": "hospital", "barrier": "wall", "healthcare": "hospital", "name": "CHR DEDOUGOU"}}, {"type": "way", "id": 421885626, "center": {"lat": 12.587837, "lon": -8.0535775}, "nodes": [4216301191, 4216301190, 4216301186, 4216301185, 4216301191], "tags": {"amenity": "hospital", "health_facility:type": "hospital", "name": "H\u00f4pital Mali Gavardo", "pcode": "ML08H04H002", "source": "OMS Survey", "start_date": "1-Jan-2011", "who:code_csref": "ML08H04", "who:distance": "0", "who:nbre_village": "0"}}, {"type": "way", "id": 422311377, "center": {"lat": 12.5872232, "lon": -8.0678014}, "nodes": [4220552934, 4220552936, 4220552939, 6317309477, 6317309472, 4220552938, 6317310127, 6317310113, 6317310128, 4220552934], "tags": {"alt_name": "H\u00f4pital Marocain", "amenity": "hospital", "barrier": "wall", "landuse": "grass", "name": "Clinique Pr\u00e9natale Mohamed VI"}}, {"type": "way", "id": 422817659, "center": {"lat": 13.4020363, "lon": -2.5930378}, "nodes": [6973945684, 4225442748, 4225442754, 4225442757, 6973945684], "tags": {"amenity": "hospital", "building": "yes", "healthcare": "hospital", "name": "CSPS de Zogor\u00e9"}}, {"type": "way", "id": 426568420, "center": {"lat": 12.6442176, "lon": -8.0204072}, "nodes": [4258551423, 4258551424, 1050837765, 1050837858, 4258551422, 4258551423], "tags": {"amenity": "hospital", "fixme": "Please check... POI node was misplaced and I moved it here - the most likely actual position nearby from what I see in Bing imagery...", "health_facility:type": "hospital", "healthcare": "hospital", "name": "\u00c9cole fondamentale", "pcode": "ML08H04H001", "source": "OMS Survey", "start_date": "24-Nov-1998", "who:code_csref": "ML08H04", "who:distance": "0", "who:nbre_village": "0"}}, {"type": "way", "id": 432579149, "center": {"lat": 12.4719786, "lon": -7.9382741}, "nodes": [4315826957, 4315826958, 4315826959, 4315826960, 4315826957], "tags": {"amenity": "hospital", "name": "Clinic"}}, {"type": "way", "id": 436546443, "center": {"lat": 12.8776668, "lon": -0.489762}, "nodes": [7142721503, 4344357899, 4344357896, 4344357893, 4344357892, 4344357894, 4344357895, 4344357898, 7142721503], "tags": {"amenity": "hospital", "healthcare": "hospital", "name": "CSPS de Belga", "operator": "MS"}}, {"type": "way", "id": 454523987, "center": {"lat": 13.5430261, "lon": -2.3939861}, "nodes": [4510760177, 4592124888, 4592125089, 4592125090, 4592125091, 4592125092, 4592124839, 4592124840, 4592125093, 4592125094, 4510760183, 4510760184, 4510760186, 4510760185, 8567047797, 4510760182, 8567047795, 4510760181, 4510760180, 4510760179, 4510760178, 4510760177], "tags": {"amenity": "hospital", "barrier": "wall", "name": "Centre Hospitalier Universitaire de Ouahigouya", "name:fr": "Centre Hospitalier Universitaire de Ouahigouya", "opening_hours": "24/7", "source": "bing"}}, {"type": "way", "id": 461732517, "center": {"lat": 12.0541533, "lon": -1.6022801}, "nodes": [4571972191, 4571972190, 4571972189, 4571971788, 4571971787, 4571971786, 4571971785, 4571971784, 4571972191], "tags": {"amenity": "hospital", "barrier": "wall", "healthcare": "hospital", "name": "CMA", "source": "bing;survey"}}, {"type": "way", "id": 467789802, "center": {"lat": 12.2551866, "lon": -2.3612704}, "nodes": [4623916241, 4623916242, 4623916243, 2465776883, 4623916244, 4623916232, 4359016579, 4359016580, 4623916241], "tags": {"amenity": "hospital", "name": "CREN - Centro Recupero e Educazione alla Nutrizione"}}, {"type": "way", "id": 476185402, "center": {"lat": 13.6070284, "lon": -2.2179443}, "nodes": [4698262188, 4698262200, 4698262225, 4698262218, 4698262188], "tags": {"amenity": "hospital", "barrier": "fence"}}, {"type": "way", "id": 494444555, "center": {"lat": 11.0850168, "lon": -2.1007733}, "nodes": [4862041474, 4862041478, 4862041475, 4862041477, 4862041474], "tags": {"amenity": "hospital", "architect": "Di\u00e9b\u00e9do Francis K\u00e9r\u00e9", "contact:email": "info@cliniquesedogo.com", "contact:phone": "+226 25416247;+226 78707465", "name": "Centre Medico Chirurgical Clinique Dr. Sedogo", "opening_hours": "Mo-Fr 07:00-14:00; PH off", "operator": "operieren-in-afrika.de", "website": "http://www.cliniquesedogo.com/"}}, {"type": "way", "id": 498899166, "center": {"lat": 12.0670366, "lon": -3.5021936}, "nodes": [6373880186, 4902397244, 4902397245, 4902397246, 6373880186], "tags": {"amenity": "hospital", "building": "yes", "healthcare": "hospital", "name": "Centre de Sant\u00e9 et de Promotion Sociale de Lah"}}, {"type": "way", "id": 502912257, "center": {"lat": 10.4747761, "lon": -8.6612353}, "nodes": [4932604448, 4932604449, 4932604450, 4932604451, 4932604448], "tags": {"amenity": "hospital", "name": "Health Center"}}, {"type": "way", "id": 561223713, "center": {"lat": 12.645377, "lon": -8.0023451},