{"version": 0.6, "generator": "Overpass API 0.7.61.5 4133829e", "osm3s": {"timestamp_osm_base": "2023-10-31T20:52:36Z", "copyright": "The data included in this document is from www.openstreetmap.org. The data is made available under ODbL."}, "elements": [{"type": "node", "id": 337882856, "lat": 12.5434181, "lon": -70.058194, "tags": {"amenity": "hospital", "healthcare": "hospital", "name": "Respaldo Dr Kingsale", "name:en": "Respaldo Dr Kingsale"}}, {"type": "node", "id": 348221330, "lat": 19.4609532, "lon": -70.7661727, "tags": {"amenity": "hospital", "name": "Policl\u00ednica El Flumen"}}, {"type": "node", "id": 354439393, "lat": 19.7668899, "lon": -70.5114396, "tags": {"addr:city": "Sosua", "addr:country": "DO", "addr:street": "Pedro Clisante", "amenity": "hospital", "created_by": "Potlatch 0.10f", "is_in": "El Batey", "name": "Plaza Medica"}}, {"type": "node", "id": 370193666, "lat": 19.4532772, "lon": -70.7030259, "tags": {"addr:city": "Santiago", "addr:country": "DO", "addr:street": "Independencia", "amenity": "hospital", "name": "Cl\u00ednica Dr. Bonilla"}}, {"type": "node", "id": 614403649, "lat": 19.450206, "lon": -72.685424, "tags": {"addr:country": "HT", "addr:street": "Rue Chrisostome Himbert", "amenity": "hospital", "healthcare": "hospital", "hfac_type": "hospital", "name": "HOPITAL LA PROVIDENCE", "operator": "MSPP", "paho:commune": "Gona\u00efves", "paho:commune_id": "11", "paho:department": "ARTIBONITE", "paho:district_id": "1", "paho:id": "5110498", "paho:region_id": "5", "paho:type": "PUB", "pcode": "51100", "phone": "509-274-0322", "sahana_id": "97", "source:health_facility": "ME/MSPP2010; 2005 MSPP database with geocodes", "source:sahana": "http://haiti.sahanafoundation.org/prod/hms/hospital"}}, {"type": "node", "id": 615094329, "lat": 18.5087003, "lon": -72.6302745, "tags": {"addr:country": "HT", "amenity": "hospital", "earthquake:damage": "partially_collapsed", "name": "Le Sourire", "source:amenity": "MINUSTAH GIS and UN Cartographic Section"}}, {"type": "node", "id": 616064948, "lat": 18.1919778, "lon": -73.7448006, "tags": {"addr:country": "HT", "amenity": "hospital", "healthcare": "hospital", "name": "Dispensaire \"N.D. des Malades\"", "source": "txu-oclc-51277857-cayes-1987"}}, {"type": "node", "id": 616525375, "lat": 18.5406142, "lon": -72.3163221, "tags": {"addr:country": "HT", "amenity": "hospital", "fixme": "find exact position: rue marcadieux bourdon", "healthcare": "hospital", "hfac_bed": "yes", "hfac_type": "field hospital", "name": "French Hospital", "source": "http://haiti.ushahidi.com/reports/view/911"}}, {"type": "node", "id": 616838855, "lat": 18.5059105, "lon": -72.6250088, "tags": {"addr:country": "HT", "amenity": "hospital", "name": "Help Hospital", "source": "MINUSTAH GIS and UN Cartographic Section"}}, {"type": "node", "id": 616956858, "lat": 19.6653281, "lon": -71.8393163, "tags": {"addr:country": "HT", "amenity": "hospital", "name": "Croix-Rouge", "name:en": "Red Cross", "name:fr": "Croix-Rouge", "source:name": "MINUSTAH GIS and UN Cartographic Section"}}, {"type": "node", "id": 617253073, "lat": 18.5933987, "lon": -72.2778834, "tags": {"addr:country": "HT", "amenity": "hospital", "hfac_bed": "yes", "hfac_type": "field hospital", "name": "Orthopedic clinic"}}, {"type": "node", "id": 617333140, "lat": 19.5514818, "lon": -71.7248407, "tags": {"alt_name": "American Hospital", "amenity": "hospital", "name": "Universal Medical Centre", "source": "MINUSTAH GIS and UN Cartographic Section", "source:name": "MINUSTAH GIS and UN Cartographic Section"}}, {"type": "node", "id": 617900405, "lat": 18.5440483, "lon": -72.3362825, "tags": {"addr:city": "Port-Au-Prince", "addr:country": "HT", "addr:housenumber": "36", "addr:street": "Rue Piquant", "amenity": "hospital", "hfac_bed": "yes", "hfac_type": "field hospital", "name": "H\u00f4pital de l'Ofatma (Cit\u00e9 Militaire)", "phone": "509-222-3846; 509-222-7853", "sahana_id": "121", "source": "PAHO", "source:addr": "https://spreadsheets.google.com/ccc?key=0ArlMTYEgfvwsdERtTkxRUVVqRXdpVzlDSlFnb3F1UHc&hl=en", "source:ref": "https://spreadsheets.google.com/ccc?key=0ArlMTYEgfvwsdERtTkxRUVVqRXdpVzlDSlFnb3F1UHc&hl=en"}}, {"type": "node", "id": 617946880, "lat": 18.5443022, "lon": -72.3255801, "tags": {"addr:country": "HT", "addr:full": "Ave Poupelard (apres Ruelle Chretien)", "addr:housenumber": "102", "addr:street": "Rue Poupelard", "amenity": "hospital", "hfac_bed": "yes", "hfac_type": "field hospital", "name": "Clinique de la Sante", "source:addr": "https://spreadsheets.google.com/ccc?key=0ArlMTYEgfvwsdERtTkxRUVVqRXdpVzlDSlFnb3F1UHc&hl=en"}}, {"type": "node", "id": 618048480, "lat": 18.513256, "lon": -72.2856666, "tags": {"addr:city": "P\u00e9tion-ville", "addr:country": "HT", "addr:full": "27 Rue Darguin, Petion-Ville, Haiti", "addr:housenumber": "27", "addr:street": "Rue Darguin", "amenity": "hospital", "hfac_bed": "yes", "hfac_type": "field hospital", "name": "Citymed Petion-Ville", "odbl": "clean", "sahana_id": "38", "short_name": "Citymed", "source": "http://haiti.sahanafoundation.org/prod/hms/hospital"}}, {"type": "node", "id": 618134714, "lat": 18.5429383, "lon": -72.318955, "tags": {"addr:country": "HT", "addr:housenumber": "21", "addr:street": "Rue Momplaisir", "amenity": "hospital", "hfac_bed": "yes", "hfac_type": "field hospital", "name": "Maternit\u00e9 de Christ Roi", "note": "approx location - taken from info in http://wiki.sahana.lk/doku.php/haiti:geolocatehospitalchallenge", "sahana_id": "32", "source": "http://wiki.sahana.lk/doku.php/haiti:geolocatehospitalchallenge"}}, {"type": "node", "id": 618160041, "lat": 18.5372333, "lon": -72.3192505, "tags": {"addr:country": "HT", "addr:full": "Angle Route De Bourdon & Rue Herard 1ere", "amenity": "hospital", "hfac_bed": "yes", "hfac_type": "field hospital", "name": "Centre Materno-Chirurgical", "sahana_id": "31"}}, {"type": "node", "id": 618217217, "lat": 19.8332992, "lon": -72.933299, "tags": {"addr:country": "HT", "amenity": "hospital", "end_date": "2010-02-06", "fixme": "Wanted to label as hospital for recovery efforts, even though it is a clinic.", "is_in:city": "Passe Catatois", "is_in:department": "Nord-Ouest", "name": "Clinic de Reference", "note:fixme": "suggested re-tagging to amenity=field_clinic though key-value pair not currently in use.", "source": "Medical Mission Exchange", "source_ref": "http://www.mmex.org/mission_view.aspx?MissionId=2812", "start_date": "2010-01-23", "website": "http://www.mmex.org/mission_view.aspx?MissionId=2812"}}, {"type": "node", "id": 618275486, "lat": 18.4338667, "lon": -72.8602367, "tags": {"addr:country": "HT", "amenity": "hospital", "name": "Complexe Materno-Medico", "source": "MINUSTAH GIS"}}, {"type": "node", "id": 618277493, "lat": 18.4287774, "lon": -72.8577771, "tags": {"addr:country": "HT", "amenity": "hospital", "name": "Sante Pep La", "source": "MINUSTAH GIS"}}, {"type": "node", "id": 618292223, "lat": 19.333333, "lon": -72.116666, "tags": {"addr:country": "HT", "amenity": "hospital", "health_facility:type": "hospital", "name": "PIGNON HOSPITAL LA JEUNE", "paho:commune": "PIGNON", "paho:commune_id": "44", "paho:department": "NORD", "paho:district_id": "4", "paho:id": "3449003", "paho:region_id": "3", "pcode": "95654", "sahana_id": "48", "source:health_facility": "HHS_20100120", "source:sahana": "http://haiti.sahanafoundation.org/prod/hms/hospital"}}, {"type": "node", "id": 618294844, "lat": 18.4333781, "lon": -72.8648528, "tags": {"addr:country": "HT", "amenity": "hospital", "name": "Rehabilitation de l'Hopital", "source": "MINUSTAH GIS"}}, {"type": "node", "id": 618397735, "lat": 18.5525232, "lon": -72.3058531, "tags": {"addr:country": "HT", "amenity": "hospital", "hfac_bed": "yes", "hfac_type": "field hospital", "name": "Hospital Grande Rivi\u00e8re du Nord", "note": "not certain, should be somewhere between this streets", "source:addr": "https://spreadsheets.google.com/ccc?key=0ArlMTYEgfvwsdERtTkxRUVVqRXdpVzlDSlFnb3F1UHc&hl=en"}}, {"type": "node", "id": 618399409, "lat": 18.5650394, "lon": -72.3192374, "tags": {"addr:country": "HT", "amenity": "hospital", "hfac_bed": "yes", "hfac_type": "field hospital", "name": "H\u00f4pital Raboteau", "name:en": "Hospital Raboteau", "note": "somewhere around"}}, {"type": "node", "id": 618810342, "lat": 18.5383163, "lon": -72.3328648, "tags": {"addr:city": "Port-au-Prince", "addr:country": "HT", "addr:full": "Avenue Christophe No. 120", "addr:housenumber": "120", "addr:street": "Avenue Christophe", "amenity": "hospital", "hfac_bed": "yes", "hfac_type": "field hospital", "name": "H\u00f4pital-Maternit\u00e9 Sapiens", "phone": "+509 2458349", "sahana_id": "57"}}, {"type": "node", "id": 618841933, "lat": 18.5393224, "lon": -72.4069173, "tags": {"addr:country": "HT", "amenity": "hospital", "hfac_bed": "yes", "hfac_type": "field hospital", "name": "MSF Orthopedic Hospital Carrefour", "source": "msf-holland"}}, {"type": "node", "id": 618856139, "lat": 18.5500394, "lon": -72.3401356, "tags": {"addr:country": "HT", "amenity": "hospital", "hfac_bed": "yes", "hfac_type": "field hospital", "name": "St. Vincent", "sahana_id": "88", "source": "crisiscampboston"}}, {"type": "node", "id": 618860861, "lat": 19.4500354, "lon": -72.6903956, "tags": {"addr:city": "Gonaives", "addr:country": "HT", "addr:full": "C/O 16, Rue Freres Simmonds, Cit\u00e9 Militaire Pap", "amenity": "hospital", "healthcare": "hospital", "name": "Hospital Raboteau", "sahana_id": "17"}}, {"type": "node", "id": 619019027, "lat": 19.7512964, "lon": -72.4293955, "tags": {"addr:country": "HT", "addr:full": "C/O Rev. F. Gilles/Eglise Wesleyen Fauch\u00e9", "amenity": "hospital", "name": "Hospital Eglise Wesleyan Fauch\u00e9", "sahana_id": "25", "source": "http://haiti.sahanafoundation.org/prod/hms/hospital"}}, {"type": "node", "id": 619335288, "lat": 19.0486984, "lon": -72.4649872, "tags": {"addr:country": "HT", "amenity": "hospital", "name": "Hospital La Saline (Pediatrie Sociale)", "ref:sahana_id": "74", "source": "Sahana Foundation", "source_ref": "http://haiti.sahanafoundation.org/prod/hms/hospital/74"}}, {"type": "node", "id": 619393177, "lat": 18.5308777, "lon": -72.3374004, "tags": {"addr:country": "HT", "addr:housenumber": "124", "addr:street": "Rue Capois", "amenity": "hospital", "contact:phone": "+50928131310;+50931045656", "hfac_bed": "yes", "hfac_type": "field hospital", "name": "H\u00f4pital Saint \u00c9sprit", "operational_status": "open", "operational_status_quality": "confirmed", "operator:type": "private_for_profit", "sahana_id": "118", "source": "http://haiti.sahanafoundation.org/prod/hms/hospital"}}, {"type": "node", "id": 619399223, "lat": 18.5808572, "lon": -72.2294365, "tags": {"FIXME": "exact position unknown", "addr:country": "HT", "amenity": "hospital", "hfac_bed": "yes", "hfac_type": "field hospital", "name": "Hospital Bonneau St. Joseph", "sahana_id": "63", "source": "http://haiti.sahanafoundation.org/prod/hms/hospital"}}, {"type": "node", "id": 619429737, "lat": 18.2996009, "lon": -73.6589662, "tags": {"addr:country": "HT", "amenity": "hospital", "name": "Hospital Bonne Fin", "sahana_id": "62", "source": "http://haiti.sahanafoundation.org/prod/hms/hospital"}}, {"type": "node", "id": 619432540, "lat": 18.3588163, "lon": -73.2411154, "tags": {"addr:city": "Fond des N\u00e8gres", "addr:country": "HT", "amenity": "hospital", "name": "Hospital Bethel Fonds-des-N\u00e8gres / Arm\u00e9e du Salut", "sahana_id": "60", "source": "http://haiti.sahanafoundation.org/prod/hms/hospital"}}, {"type": "node", "id": 619432542, "lat": 18.4755337, "lon": -73.2226541, "tags": {"addr:country": "HT", "amenity": "hospital", "name": "Centre de Sant\u00e9 la Visitation Petite Rivi\u00e8re de Nippes", "sahana_id": "56", "source": "http://haiti.sahanafoundation.org/prod/hms/hospital;bing", "source:name": "http://www.miragoane.net/sante.php"}}, {"type": "node", "id": 619438221, "lat": 18.2796755, "lon": -72.3883425, "tags": {"addr:country": "HT", "amenity": "hospital", "name": "Hospital La Sainte Famille", "sahana_id": "73", "source": "http://haiti.sahanafoundation.org/prod/hms/hospital"}}, {"type": "node", "id": 619438222, "lat": 18.3216824, "lon": -72.1911124, "tags": {"addr:country": "HT", "amenity": "hospital", "name": "Hopital Maternite Mathieu", "sahana_id": "46", "source": "http://haiti.sahanafoundation.org/prod/hms/hospital"}}, {"type": "node", "id": 619438224, "lat": 18.5384409, "lon": -72.2899722, "tags": {"addr:country": "HT", "amenity": "hospital", "hfac_bed": "yes", "hfac_type": "field hospital", "name": "College Excelsior", "note": "2010-01-26: The location in Sahana is wrong. According to the address in Sahana, this is likely the correct location.", "sahana_id": "45", "source": "http://haiti.sahanafoundation.org/prod/hms/hospital"}}, {"type": "node", "id": 619438226, "lat": 18.3127671, "lon": -72.1620423, "tags": {"addr:country": "HT", "amenity": "hospital", "name": "Hospital De La Communaut\u00e9", "sahana_id": "67", "source": "http://haiti.sahanafoundation.org/prod/hms/hospital"}}, {"type": "node", "id": 619465393, "lat": 18.8170512, "lon": -73.0146453, "tags": {"addr:country": "HT", "amenity": "hospital", "name": "Centre M\u00e9dico-Social Populorum Progressio", "sahana_id": "55", "source": "http://haiti.sahanafoundation.org/prod/hms/hospital"}}, {"type": "node", "id": 619465400, "lat": 19.300793, "lon": -72.6465009, "tags": {"addr:country": "HT", "amenity": "hospital", "name": "Hospital Bon Berger", "phone": "509-234-1030", "sahana_id": "20", "source": "Sahana", "source_ref": "http://haiti.sahanafoundation.org/prod/hms/hospital"}}, {"type": "node", "id": 619467472, "lat": 18.98606, "lon": -72.2922608, "tags": {"addr:country": "HT", "addr:street": "Rue Oswald Durand", "amenity": "hospital", "is_in": "Port-Au-Prince", "name": "Centre De Psychiatrie Et De Neurologie Mars", "ref:sahana_id": "35", "source": "Sahana Foundation", "source_ref": "http://haiti.sahanafoundation.org/prod/hms/hospital/35"}}, {"type": "node", "id": 619467473, "lat": 18.9860497, "lon": -72.2922504, "tags": {"addr:country": "HT", "amenity": "hospital", "is_in": "Bombardopolis", "name": "Hospital Bombardopolis", "ref:sahana_id": "36", "source": "Sahana Foundation", "source_ref": "http://haiti.sahanafoundation.org/prod/hms/hospital/36"}}, {"type": "node", "id": 619498544, "lat": 19.4501181, "lon": -72.6888861, "tags": {"addr:country": "HT", "amenity": "hospital", "health_facility:bed": "20", "name": "Hospital Docteur Baudin", "phone": "509-286-0041", "sahana_id": "18", "source": "http://haiti.sahanafoundation.org/prod/hms/hospital"}}, {"type": "node", "id": 619507450, "lat": 19.9418384, "lon": -72.7636398, "tags": {"addr:country": "HT", "amenity": "hospital", "name": "Hospital Beraca La Pointe", "sahana:is_in:city": "Port-De-Paix", "sahana:name": "Hospital Beraca La Pointe", "sahana_id": "59", "source": "http://haiti.sahanafoundation.org/prod/hms/hospital/59"}}, {"type": "node", "id": 619520243, "lat": 18.5499899, "lon": -72.3000045, "tags": {"addr:country": "HT", "amenity": "hospital", "hfac_bed": "yes", "hfac_type": "field hospital", "name": "Citymed", "sahana_id": "33", "source": "http://haiti.sahanafoundation.org/prod/hms/hospital"}}, {"type": "node", "id": 620146442, "lat": 18.5295703, "lon": -72.3677251, "tags": {"addr:country": "HT", "amenity": "hospital", "description": "Huge Quadratic Tent with Red Cross Logo on it and \"Comite International Geneve\" written", "hfac_bed": "yes", "hfac_type": "field hospital", "note": "FIXME: verify that this really used as a hospital", "operator": "Red Cross"}}, {"type": "node", "id": 620628543, "lat": 18.5071164, "lon": -72.627121, "tags": {"addr:country": "HT", "amenity": "hospital", "name": "field clinic"}}, {"type": "node", "id": 621052801, "lat": 18.5628232, "lon": -72.2733615, "tags": {"Surgical": "4 OR's", "addr:country": "HT", "addr:full": "Ave Mais Gate,Route Petite Place Cazeau, Caradeux", "addr:housenumber": "42", "addr:street": "Avenue Mais Gat\u00e9", "amenity": "hospital", "damage": "None", "hfac_bed": "yes", "hfac_type": "field hospital", "name": "King's Hospital", "paho:commune": "Port-au-Prince", "paho:commune_id": "11", "paho:damage": "Moderate", "paho:damage:date": "01.14.2010", "paho:damage:source": "UNEP", "paho:department": "OUEST", "paho:district_id": "1", "paho:id": "1119071", "paho:operational_status": "operational", "paho:operational_status:date": "2010-02-03", "paho:operational_status:source": "Health Cluster Report", "paho:region_id": "1", "pcode": "95800", "source": "CNIGS/OIM/FOCS", "source:health_facility": "Shoreland 03.17"}}, {"type": "node", "id": 623234622, "lat": 18.570833, "lon": -72.314722, "tags": {"addr:country": "HT", "addr:street": "National Route 1 (Ac\u00e9rie d'Haiti)", "amenity": "hospital", "hfac_bed": "yes", "hfac_type": "field hospital", "name": "ISRAELI FIELD HOSPITAL", "paho:commune": "DELMAS", "paho:commune_id": "12", "paho:department": "OUEST", "paho:district_id": "1", "paho:id": "1129043", "paho:region_id": "1", "pcode": "95681", "sahana_id": "124", "source:health_facility": "HHS_20100120", "source:sahana": "http://haiti.sahanafoundation.org/prod/hms/hospital"}}, {"type": "node", "id": 623667048, "lat": 18.1831128, "lon": -72.7552706, "tags": {"addr:country": "HT", "addr:full": "C/O Rue Dehoux No. 81, Pap", "amenity": "hospital", "health_facility:MCH": "yes", "health_facility:access": "public", "health_facility:bed": "yes", "health_facility:type": "health_center", "name": "CENTRE DE SANTE DE BAINET", "name:en": "Hospital Bainet", "name:fr": "Centre de sant\u00e9 de Bainet", "paho:commune": "BAINET", "paho:commune_id": "21", "paho:department": "SUD EST", "paho:district_id": "3", "paho:id": "2210604", "paho:region_id": "2", "paho:type": "PUB", "pcode": "22101", "source": "https://spreadsheets.google.com/ccc?key=0ArlMTYEgfvwsdERtTkxRUVVqRXdpVzlDSlFnb3F1UHc&hl=en", "source:health_facility": "ME/MSPP2010; 2005 MSPP database with geocodes", "source:health_facility:MCH": "CDC/USAID PMTCT Baseline", "source:health_facility:access": "CDC/USAID PMTCT Baseline", "source:name:fr": "CDC/USAIC PMTCT Baseline", "source_ref": "CDC/USAID PMTCT Baseline;http://www.webcitation.org/5nIoWpjyz"}}, {"type": "node", "id": 624666202, "lat": 18.6333088, "lon": -74.300012, "tags": {"addr:country": "HT", "addr:street": "Ville de Abricots", "amenity": "hospital", "fixme": "likely not here", "is_in:city": "Abricots", "name": "Maternit\u00e9 des Abricots", "ref:sahana_id": "1", "source": "Sahana Foundation", "source_ref": "http://haiti.sahanafoundation.org/prod/hms/hospital/1"}}, {"type": "node", "id": 627421342, "lat": 18.8945227, "lon": -71.8367562, "tags": {"addr:country": "HT", "amenity": "hospital", "health_facility:type": "dispensary", "name": "DISPENSAIRE ROY - SEC", "paho:commune": "Bellad\u00e8re", "paho:commune_id": "32", "paho:department": "CENTRE", "paho:district_id": "4", "paho:id": "6320398", "paho:region_id": "6", "paho:type": "PUB", "pcode": "63203", "source": "2005 MSPP database with geocodes", "source:health_facility": "ME/MSPP2010; 2005 MSPP database with geocodes"}}, {"type": "node", "id": 627440273, "lat": 18.9033193, "lon": -72.2773315, "tags": {"addr:country": "HT", "amenity": "hospital", "health_facility:type": "dispensary", "name": "DP DE BOSSOU", "paho:commune": "LA CHAPELLE", "paho:commune_id": "33", "paho:department": "ARTIBONITE", "paho:district_id": "7", "paho:id": "5339001", "paho:region_id": "5", "pcode": "95300", "source": "2005 MSPP database with geocodes", "source:health_facility": "2005 MSPP database with geocodes"}}, {"type": "node", "id": 627553829, "lat": 18.97779, "lon": -72.406422, "tags": {"addr:country": "HT", "amenity": "hospital", "health_facility:type": "dispensary", "name": "DP DE CHRISTANT (SOE)", "paho:commune": "VERRETTES", "paho:commune_id": "32", "paho:department": "ARTIBONITE", "paho:district_id": "7", "paho:id": "5329003", "paho:region_id": "5", "pcode": "95311", "source": "2005 MSPP database with geocodes", "source:health_facility": "2005 MSPP database with geocodes"}}, {"type": "node", "id": 627553839, "lat": 19.0817043, "lon": -72.4953088, "tags": {"addr:country": "HT", "amenity": "hospital", "health_facility:type": "dispensary", "name": "DP DE DESCHAPELLES", "paho:commune": "VERRETTES", "paho:commune_id": "32", "paho:department": "ARTIBONITE", "paho:district_id": "7", "paho:id": "5320393", "paho:region_id": "5", "paho:type": "PRI", "pcode": "53205", "source": "2005 MSPP database with geocodes", "source:health_facility": "ME/MSPP2010; 2005 MSPP database with geocodes"}}, {"type": "node", "id": 627553842, "lat": 18.9918303, "lon": -72.3896272, "tags": {"addr:country": "HT", "amenity": "hospital", "health_facility:bed": "no", "health_facility:type": "health_center", "name": "DP DE DESARMES (SOE)", "paho:commune": "VERRETTES", "paho:commune_id": "32", "paho:department": "ARTIBONITE", "paho:district_id": "7", "paho:id": "5320375", "paho:region_id": "5", "paho:type": "MIX", "pcode": "53204", "source": "2005 MSPP database with geocodes", "source:health_facility": "ME/MSPP2010; 2005 MSPP database with geocodes"}}, {"type": "node", "id": 627553847, "lat": 19.0287897, "lon": -72.4203014, "tags": {"addr:country": "HT", "amenity": "hospital", "health_facility:type": "dispensary", "healthcare": "hospital", "name": "DP COMMUNAUTAIRE DE MARIN", "paho:commune": "VERRETTES", "paho:commune_id": "32", "paho:department": "ARTIBONITE", "paho:district_id": "7", "paho:id": "5329002", "paho:region_id": "5", "pcode": "95294", "source": "2005 MSPP database with geocodes", "source:health_facility": "2005 MSPP database with geocodes"}}, {"type": "node", "id": 627559658, "lat": 18.9512576, "lon": -72.7056794, "tags": {"addr:country": "HT", "amenity": "hospital", "health_facility:type": "dispensary", "name": "Dispensaire de Mont-Rouis", "paho:commune": "Saint Marc", "paho:commune_id": "31", "paho:department": "ARTIBONITE", "paho:district_id": "6", "paho:id": "5310392", "paho:region_id": "5", "paho:type": "PUB", "pcode": "53107", "source": "2005 MSPP database with geocodes", "source:health_facility": "ME/MSPP2010; 2005 MSPP database with geocodes"}}, {"type": "node", "id": 627559660, "lat": 18.9826559, "lon": -72.6460783, "tags": {"addr:country": "HT", "amenity": "hospital", "health_facility:type": "dispensary", "name": "DP DE GRESSOT", "paho:commune": "Saint Marc", "paho:commune_id": "31", "paho:department": "ARTIBONITE", "paho:district_id": "6", "paho:id": "5310352", "paho:region_id": "5", "paho:type": "COM", "pcode": "53105", "source": "2005 MSPP database with geocodes", "source:health_facility": "ME/MSPP2010; 2005 MSPP database with geocodes"}}, {"type": "node", "id": 627559663, "lat": 19.0490626, "lon": -72.7148285, "tags": {"addr:country": "HT", "amenity": "hospital", "health_facility:type": "dispensary", "name": "DP MAX FERDINAND", "paho:commune": "Saint Marc", "paho:commune_id": "31", "paho:department": "ARTIBONITE", "paho:district_id": "6", "paho:id": "5319005", "paho:region_id": "5", "pcode": "95281", "source": "2005 MSPP database with geocodes", "source:health_facility": "2005 MSPP database with geocodes"}}, {"type": "node", "id": 627559667, "lat": 19.0802385, "lon": -72.674784, "tags": {"addr:country": "HT", "amenity": "hospital", "health_facility:type": "dispensary", "name": "DP DE CHARETTE", "paho:commune": "Saint Marc", "paho:commune_id": "31", "paho:department": "ARTIBONITE", "paho:district_id": "6", "paho:id": "5310387", "paho:region_id": "5", "paho:type": "COM", "pcode": "53103", "source": "2005 MSPP database with geocodes", "source:health_facility": "ME/MSPP2010; 2005 MSPP database with geocodes"}}, {"type": "node", "id": 627561326, "lat": 18.78636, "lon": -73.063577, "tags": {"addr:country": "HT", "amenity": "hospital", "health_facility:bed": "no", "health_facility:type": "health_center", "name": "DISPENSAIRE SAINT LOUIS", "paho:commune": "Pte \u00e0 Raquette", "paho:commune_id": "52", "paho:department": "OUEST", "paho:district_id": "7", "paho:id": "1520354", "paho:region_id": "1", "paho:type": "PRI", "pcode": "15205", "source": "2005 MSPP database with geocodes", "source:health_facility": "ME/MSPP2010; 2005 MSPP database with geocodes"}}, {"type": "node", "id": 627575321, "lat": 19.1492669, "lon": -72.5042016, "tags": {"addr:country": "HT", "amenity": "hospital", "health_facility:type": "dispensary", "healthcare": "hospital", "name": "DP DE SEGUR", "paho:commune": "Petite Rivi\u00e8re", "paho:commune_id": "42", "paho:department": "ARTIBONITE", "paho:district_id": "7", "paho:id": "5420364", "paho:region_id": "5", "paho:type": "PUB", "pcode": "54208", "source": "2005 MSPP database with geocodes", "source:health_facility": "ME/MSPP2010; 2005 MSPP database with geocodes"}}, {"type": "node", "id": 627575322, "lat": 19.16529, "lon": -72.636064, "tags": {"addr:country": "HT", "amenity": "hospital", "health_facility:type": "dispensary", "healthcare": "hospital", "name": "DP CLEMENTINE ET LORISMENE", "paho:commune": "Saint Marc", "paho:commune_id": "31", "paho:department": "ARTIBONITE", "paho:district_id": "6", "paho:id": "5319003", "paho:region_id": "5", "pcode": "95303", "source": "2005 MSPP database with geocodes", "source:health_facility": "2005 MSPP database with geocodes"}}, {"type": "node", "id": 627575324, "lat": 19.2370232, "lon": -72.6416546, "tags": {"addr:country": "HT", "amenity": "hospital", "health_facility:type": "dispensary", "healthcare": "hospital", "name": "DP PA NOU AN", "paho:commune": "GRANDE SALINE", "paho:commune_id": "43", "paho:department": "ARTIBONITE", "paho:district_id": "6", "paho:id": "5439001", "paho:region_id": "5", "pcode": "95289", "source": "2005 MSPP database with geocodes", "source:health_facility": "2005 MSPP database with geocodes"}}, {"type": "node", "id": 627575325, "lat": 19.2563533, "lon": -72.6897179, "tags": {"addr:country": "HT", "amenity": "hospital", "health_facility:type": "dispensary", "healthcare": "hospital", "name": "DP BEREE DE DROUIN", "paho:commune": "GRANDE SALINE", "paho:commune_id": "43", "paho:department": "ARTIBONITE", "paho:district_id": "6", "paho:id": "5430370", "paho:region_id": "5", "paho:type": "PUB", "pcode": "54301", "source": "2005 MSPP database with geocodes", "source:health_facility": "ME/MSPP2010; 2005 MSPP database with geocodes"}}, {"type": "node", "id": 627575327, "lat": 19.3010197, "lon": -72.6511505, "tags": {"addr:country": "HT", "amenity": "hospital", "health_facility:type": "dispensary", "name": "DP DE DESCAREAUX", "paho:commune": "DESDUNES", "paho:commune_id": "44", "paho:department": "ARTIBONITE", "paho:district_id": "6", "paho:id": "5449002", "paho:region_id": "5", "pcode": "95287", "source": "2005 MSPP database with geocodes", "source:health_facility": "2005 MSPP database with geocodes"}}, {"type": "node", "id": 627575328, "lat": 19.3300182, "lon": -72.6757445, "tags": {"addr:country": "HT", "amenity": "hospital", "hfac_type": "dispensary", "name": "DP AUX SOURCES", "paho:commune": "DESDUNES", "paho:commune_id": "44", "paho:department": "ARTIBONITE", "paho:district_id": "6", "paho:id": "5440356", "paho:region_id": "5", "paho:type": "COM", "pcode": "54403", "source": "2005 MSPP database with geocodes", "source:health_facility": "ME/MSPP2010; 2005 MSPP database with geocodes"}}, {"type": "node", "id": 627575330, "lat": 19.184485, "lon": -72.5428496, "tags": {"addr:country": "HT", "amenity": "hospital", "health_facility:type": "dispensary", "name": "DP DE JEAN DENIS", "paho:commune": "Petite Rivi\u00e8re", "paho:commune_id": "42", "paho:department": "ARTIBONITE", "paho:district_id": "7", "paho:id": "5420369", "paho:region_id": "5", "paho:type": "COM", "pcode": "54209", "source": "2005 MSPP database with geocodes", "source:health_facility": "ME/MSPP2010; 2005 MSPP database with geocodes"}}, {"type": "node", "id": 627585369, "lat": 19.6627432, "lon": -73.0211734, "tags": {"addr:country": "HT", "amenity": "hospital", "health_facility:type": "dispensary", "name": "DISPENSAIRE ILODEP", "paho:commune": "ANSE ROUGE", "paho:commune_id": "23", "paho:department": "ARTIBONITE", "paho:district_id": "1", "paho:id": "5230395", "paho:region_id": "5", "paho:type": "PRI", "pcode": "52304", "source": "2005 MSPP database with geocodes", "source:health_facility": "ME/MSPP2010; 2005 MSPP database with geocodes"}}, {"type": "node", "id": 627585382, "lat": 19.5537656, "lon": -72.9015711, "tags": {"addr:country": "HT", "amenity": "hospital", "health_facility:type": "dispensary", "name": "DP DE CORIDON", "paho:commune": "ANSE ROUGE", "paho:commune_id": "23", "paho:department": "ARTIBONITE", "paho:district_id": "1", "paho:id": "5230394", "paho:region_id": "5", "paho:type": "PUB", "pcode": "52302", "source": "2005 MSPP database with geocodes", "source:health_facility": "ME/MSPP2010; 2005 MSPP database with geocodes"}}, {"type": "node", "id": 627585386, "lat": 19.5898729, "lon": -72.8865222, "tags": {"addr:country": "HT", "amenity": "hospital", "health_facility:type": "dispensary", "name": "DISPENSAIRE FIGUIER", "paho:commune": "ANSE ROUGE", "paho:commune_id": "23", "paho:department": "ARTIBONITE", "paho:district_id": "1", "paho:id": "5230397", "paho:region_id": "5", "paho:type": "PRI", "pcode": "52303", "source": "2005 MSPP database with geocodes", "source:health_facility": "ME/MSPP2010; 2005 MSPP database with geocodes"}}, {"type": "node", "id": 627585393, "lat": 19.6338508, "lon": -72.9182543, "tags": {"addr:country": "HT", "amenity": "hospital", "health_facility:type": "dispensary", "name": "DP DE SOURCE CHAUDE", "operator": "MSPP", "organization": "MSPP", "paho:commune": "ANSE ROUGE", "paho:commune_id": "23", "paho:department": "ARTIBONITE", "paho:district_id": "1", "paho:id": "5230396", "paho:region_id": "5", "paho:type": "PUB", "pcode": "52306", "source": "2005 MSPP database with geocodes", "source:health_facility": "ME/MSPP2010; 2005 MSPP database with geocodes"}}, {"type": "node", "id": 627585396, "lat": 19.6100212, "lon": -72.615843, "tags": {"addr:country": "HT", "amenity": "hospital", "health_facility:type": "dispensary", "name": "CENTRE DE SANTE LABRANLE", "operator": "COMMUNAUTAIRE", "organization": "COMMUNAUTAIRE", "paho:commune": "Gona\u00efves", "paho:commune_id": "11", "paho:department": "ARTIBONITE", "paho:district_id": "1", "paho:id": "5110399", "paho:region_id": "5", "paho:type": "PRI", "pcode": "51103", "source": "2005 MSPP database with geocodes", "source:health_facility": "ME/MSPP2010; 2005 MSPP database with geocodes"}}, {"type": "node", "id": 627824909, "lat": 18.3333884, "lon": -72.4719083, "tags": {"addr:country": "HT", "amenity": "hospital", "health_facility:type": "dispensary", "name": "DP DE MARBIAL", "paho:commune": "JACMEL", "paho:commune_id": "11", "paho:department": "SUD EST", "paho:district_id": "1", "paho:id": "2110373", "paho:region_id": "2", "paho:type": "PUB", "pcode": "21105", "source:health_facility": "ME/MSPP2010; 2005 MSPP database with geocodes"}}, {"type": "node", "id": 627824911, "lat": 18.3271383, "lon": -72.4627889, "tags": {"addr:country": "HT", "amenity": "hospital", "health_facility:type": "dispensary", "name": "Rx Dispensaire Sainte-Th\u00e9r\u00e8se de Marbial", "paho:commune": "JACMEL", "paho:commune_id": "11", "paho:department": "SUD EST", "paho:district_id": "1", "paho:id": "2110377", "paho:region_id": "2", "paho:type": "PRI", "pcode": "21113", "source:health_facility": "ME/MSPP2010;2005 MSPP database with geocodes"}}, {"type": "node", "id": 627827768, "lat": 18.3272179, "lon": -72.4985583, "tags": {"addr:country": "HT", "amenity": "hospital", "health_facility:type": "dispensary", "name": "DP De La voute", "paho:commune": "Jacmel", "paho:commune_id": "11", "paho:department": "SUD EST", "paho:district_id": "1", "paho:id": "2110380", "paho:region_id": "2", "paho:type": "PUB", "pcode": "21106", "source:health_facility": "ME/MSPP2010; 2005 MSPP database with geocodes"}}, {"type": "node", "id": 627831188, "lat": 18.2810415, "lon": -72.5179246, "tags": {"addr:country": "HT", "amenity": "hospital", "hfac_type": "MCH", "name": "DP DE LAFOND", "paho:commune": "JACMEL", "paho:commune_id": "11", "paho:department": "SUD EST", "paho:district_id": "1", "paho:id": "2110368", "paho:region_id": "2", "paho:type": "PUB", "pcode": "21110", "source:health_facility": "ME/MSPP2010; 2005 MSPP database with geocodes"}}, {"type": "node", "id": 627831192, "lat": 18.2272372, "lon": -72.4663587, "tags": {"addr:country": "HT", "amenity": "hospital", "hfac_type": "MCH", "name": "DP DE CYVADIER", "paho:commune": "JACMEL", "paho:commune_id": "11", "paho:department": "SUD EST", "paho:district_id": "1", "paho:id": "2110358", "paho:region_id": "2", "paho:type": "PUB", "pcode": "21103", "source:health_facility": "ME/MSPP2010; 2005 MSPP database with geocodes"}}, {"type": "node", "id": 627831193, "lat": 18.2600922, "lon": -72.5084955, "tags": {"addr:city": "jacmel", "addr:country": "HT", "addr:street": "tomabrun", "amenity": "hospital", "health_facility:bed": "no", "health_facility:type": "health_center", "name": "DP DES ORANGERS", "paho:commune": "JACMEL", "paho:commune_id": "11", "paho:department": "SUD EST", "paho:district_id": "1", "paho:id": "2110361", "paho:region_id": "2", "paho:type": "PUB", "pcode": "21101", "source": "hot_c.osm-ha_iom", "source:health_facility": "ME/MSPP2010; 2005 MSPP database with geocodes"}}, {"type": "node", "id": 627833222, "lat": 18.2159906, "lon": -72.6236591, "tags": {"addr:city": "jacmel", "addr:country": "HT", "addr:street": "la croix", "amenity": "hospital", "contact_person": "gille marie eveline", "health_facility:type": "dispensary", "name": "dispensaire de la croix", "operator": "mspp", "paho:commune": "jacmel", "paho:commune_id": "11", "paho:department": "SUD EST", "paho:district_id": "1", "paho:id": "2119002", "paho:region_id": "2", "pcode": "95310", "phone": "37936079", "projet": "FGH_UNCRV", "source": "hot _c.osm-ha_iom", "source2": "GPS;MISSION DE TERRAIN", "source:health_facility": "2005 MSPP database with geocodes"}}, {"type": "node", "id": 627833223, "lat": 18.2583907, "lon": -72.6079283, "tags": {"addr:country": "HT", "amenity": "hospital", "health_facility:type": "dispensary", "name": "DP DE LAVANNEAU", "paho:commune": "JACMEL", "paho:commune_id": "11", "paho:department": "SUD EST", "paho:district_id": "1", "paho:id": "2110391", "paho:region_id": "2", "paho:type": "PUB", "pcode": "21107", "source:health_facility": "ME/MSPP2010; 2005 MSPP database with geocodes"}}, {"type": "node", "id": 627833224, "lat": 18.3069923, "lon": -72.7096268, "tags": {"addr:country": "HT", "amenity": "hospital", "health_facility:type": "dispensary", "name": "DP ST FRANCOIS XAVIER DE BAUDIN", "paho:commune": "La Vall\u00e9e", "paho:commune_id": "14", "paho:department": "SUD EST", "paho:district_id": "1", "paho:id": "2149002", "paho:region_id": "2", "pcode": "95274", "source:health_facility": "2005 MSPP database with geocodes"}}, {"type": "node", "id": 627833225, "lat": 18.3143963, "lon": -72.6595403, "tags": {"addr:country": "HT", "amenity": "hospital", "health_facility:type": "dispensary", "name": "DISPENSAIRE COMMUNAUTAIRE", "paho:commune": "La Vall\u00e9e", "paho:commune_id": "14", "paho:department": "SUD EST", "paho:district_id": "1", "paho:id": "2149001", "paho:region_id": "2", "pcode": "95277", "source:health_facility": "2005 MSPP database with geocodes"}}, {"type": "node", "id": 627835019, "lat": 18.2646947, "lon": -73.5420782, "tags": {"addr:country": "HT", "amenity": "hospital", "health_facility:type": "dispensary", "name": "DP SAINT PATRICK", "paho:commune": "Saint Louis du Sud", "paho:commune_id": "32", "paho:department": "SUD", "paho:district_id": "1", "paho:id": "7320386", "paho:region_id": "7", "paho:type": "MIX", "pcode": "73202", "source": "survey", "source:health_facility": "ME/MSPP2010; 2005 MSPP database with geocodes"}}, {"type": "node", "id": 627835023, "lat": 18.2909923, "lon": -73.5703972, "tags": {"addr:country": "HT", "amenity": "hospital", "health_facility:type": "dispensary", "name": "DP SAINTE ANNE DE SUCRERIE HENRY", "paho:commune": "Saint Louis du Sud", "paho:commune_id": "32", "paho:department": "SUD", "paho:district_id": "1", "paho:id": "7320353", "paho:region_id": "7", "paho:type": "MIX", "pcode": "73203", "source:health_facility": "ME/MSPP2010; 2005 MSPP database with geocodes"}}, {"type": "node", "id": 627835025, "lat": 18.3172872, "lon": -73.3779597, "tags": {"addr:country": "HT", "amenity": "hospital", "health_facility:type": "dispensary", "name": "DP MEN ANSANM DE SAINTE THERESE", "paho:commune": "AQUIN", "paho:commune_id": "31", "paho:department": "SUD", "paho:district_id": "1", "paho:id": "7319007", "paho:region_id": "7", "pcode": "95306", "source:health_facility": "2005 MSPP database with geocodes"}}, {"type": "node", "id": 627835027, "lat": 18.1900042, "lon": -73.1040864, "tags": {"addr:country": "HT", "amenity": "hospital", "health_facility:type": "dispensary", "healthcare": "hospital", "name": "DP DE MOUILLAGE FOUQUET", "paho:commune": "AQUIN", "paho:commune_id": "31", "paho:department": "SUD", "paho:district_id": "1", "paho:id": "7310390", "paho:region_id": "7", "paho:type": "PUB", "pcode": "73107", "source:health_facility": "ME/MSPP2010; 2005 MSPP database with geocodes"}}, {"type": "node", "id": 627836129, "lat": 19.8323744, "lon": -73.2664886, "tags": {"addr:country": "HT", "amenity": "hospital", "health_facility:type": "dispensary", "name": "DP DE COTE DE FER", "paho:commune": "JEAN RABEL", "paho:commune_id": "34", "paho:department": "NORD OUEST", "paho:district_id": "1", "paho:id": "9349003", "paho:region_id": "9", "pcode": "95015", "source": "bing 2010", "source:health_facility": "2005 MSPP database with geocodes"}}, {"type": "node", "id": 627836962, "lat": 18.5749215, "lon": -73.7083098, "tags": {"addr:country": "HT", "amenity": "hospital", "health_facility:type": "dispensary", "name": "Dispensaire \"Les Basses\"", "operator": "MSPP", "paho:commune": "BARADERES", "paho:commune_id": "52", "paho:department": "NIPPES", "paho:district_id": "3", "paho:id": "10219001", "paho:region_id": "10", "pcode": "95282", "source:health_facility": "2005 MSPP database with geocodes"}}, {"type": "node", "id": 627837385, "lat": 19.6162125, "lon": -71.7799262, "tags": {"amenity": "hospital", "health_facility:type": "dispensary", "name": "DISPENSAIRE DE FERRIER", "operator": "MSPP", "paho:commune": "FERRIER", "paho:commune_id": "12", "paho:department": "NORD EST", "paho:district_id": "1", "paho:id": "4120042", "paho:region_id": "4", "paho:type": "MIX", "pcode": "41201", "source:health_facility": "ME/MSPP2010; 2005 MSPP database with geocodes"}}, {"type": "node", "id": 627837945, "lat": 19.6124122, "lon": -72.0268822, "tags": {"addr:country": "HT", "amenity": "hospital", "health_facility:type": "health_center", "name": "Centre de Sant\u00e9 de Trou-du-Nord", "operator": "MSPP", "paho:commune": "TROU DU NORD", "paho:commune_id": "31", "paho:department": "NORD EST", "paho:district_id": "4", "paho:id": "4310048", "paho:region_id": "4", "pcode": "95003", "sahana_id": "93", "source:health_facility": "2005 MSPP database with geocodes", "source:sahana": "http://haiti.sahanafoundation.org/prod/hms/hospital/93"}}, {"type": "node", "id": 627838206, "lat": 19.556371, "lon": -71.9756669, "tags": {"addr:country": "HT", "amenity": "hospital", "health_facility:type": "dispensary", "name": "DISPENSAIRE DE ROCHES PLATES", "operator": "MSPP", "paho:commune": "TROU DU NORD", "paho:commune_id": "31", "paho:department": "NORD EST", "paho:district_id": "4", "paho:id": "4310049", "paho:region_id": "4", "pcode": "95004", "source:health_facility": "2005 MSPP database with geocodes"}}, {"type": "node", "id": 627838282, "lat": 19.521187, "lon": -71.9219997, "tags": {"addr:country": "HT", "amenity": "hospital", "health_facility:type": "dispensary", "name": "Dispensaire des Perches", "operator": "MSPP", "paho:commune": "PERCHES", "paho:commune_id": "13", "paho:department": "NORD EST", "paho:district_id": "1", "paho:id": "4130043", "paho:region_id": "4", "pcode": "95019", "source:health_facility": "2005 MSPP database with geocodes"}}, {"type": "node", "id": 627839105, "lat": 19.5206348, "lon": -71.8819053, "tags": {"addr:country": "HT", "amenity": "hospital", "health_facility:type": "dispensary", "name": "DISPENSAIRE D'ACUL SAMEDI", "operator": "MSPP / CDS", "paho:commune": "FORT LIBERTE", "paho:commune_id": "11", "paho:department": "NORD EST", "paho:district_id": "1", "paho:id": "4110041", "paho:region_id": "4", "paho:type": "PUB", "pcode": "41102", "source": "Bing", "source:health_facility": "ME/MSPP2010; 2005 MSPP database with geocodes"}}, {"type": "node", "id": 627844233, "lat": 19.497521, "lon": -71.8106291, "tags": {"addr:country": "HT", "amenity": "hospital", "health_facility:type": "dispensary", "name": "DISPENSAIRE D'ACUL DES PINS", "operator": "MSPP", "paho:commune": "OUANAMINTHE", "paho:commune_id": "21", "paho:department": "NORD EST", "paho:district_id": "2", "paho:id": "4210045", "paho:region_id": "4", "paho:type": "PUB", "pcode": "42102", "source:health_facility": "ME/MSPP2010; 2005 MSPP database with geocodes"}}, {"type": "node", "id": 627845039, "lat": 18.0602275, "lon": -73.8848275, "tags": {"addr:country": "HT", "amenity": "hospital", "health_facility:type": "dispensary", "name": "DP DE Dumont", "paho:commune": "Arniquet", "paho:commune_id": "23", "paho:department": "SUD", "paho:district_id": "6", "paho:id": "7210379", "paho:region_id": "7", "pcode": "95301", "ref:MSPP": "722202", "source:health_facility": "MSPP2015; 2005 MSPP database with geocodes"}}, {"type": "node", "id": 627845043, "lat": 18.2292752, "lon": -74.0636986, "tags": {"addr:country": "HT", "amenity": "hospital", "health_facility:type": "dispensary", "name": "DP DE DAMASSIN", "paho:commune": "COTEAUX", "paho:commune_id": "41", "paho:department": "SUD", "paho:district_id": "2", "paho:id": "7410371", "paho:region_id": "7", "pcode": "95293", "source:health_facility": "2005 MSPP database with geocodes"}}, {"type": "node", "id": 627845045, "lat": 18.1319855, "lon": -73.9468789, "tags": {"addr:country": "HT", "amenity": "hospital", "health_facility:type": "dispensary", "healthcare": "hospital", "name": "Dispensaire de Carpentier", "paho:commune": "Arniquet", "paho:commune_id": "23", "paho:department": "SUD", "paho:district_id": "6", "paho:id": "7210362", "paho:region_id": "7", "pcode": "95284", "source:health_facility": "2005 MSPP database with geocodes"}}, {"type": "node", "id": 627845046, "lat": 18.1799597, "lon": -74.0033327, "tags": {"addr:country": "HT", "amenity": "hospital", "health_facility:type": "dispensary", "healthcare": "hospital", "name": "DP LILIAN DE ROCHE A BATEAU", "paho:commune": "Roche \u00e0 Bateau", "paho:commune_id": "43", "paho:department": "SUD", "paho:district_id": "2", "paho:id": "7430366", "paho:region_id": "7", "paho:type": "MIX", "pcode": "74301", "source:health_facility": "ME/MSPP2010; 2005 MSPP database with geocodes"}}, {"type": "node", "id": 627845049, "lat": 18.3177499, "lon": -74.093333, "tags": {"addr:country": "HT", "amenity": "hospital", "health_facility:type": "dispensary", "healthcare": "hospital", "name": "DP SAINTE ANNE DE RENDEL", "paho:commune": "CHARDONNIERES", "paho:commune_id": "51", "paho:department": "SUD", "paho:district_id": "3", "paho:id": "7510376", "paho:region_id": "7", "paho:type": "MIX", "pcode": "75102", "source:health_facility": "ME/MSPP2010; 2005 MSPP database with geocodes"}}, {"type": "node", "id": 627845052, "lat": 18.5952867, "lon": -74.137917, "tags": {"addr:country": "HT", "amenity": "hospital", "health_facility:type": "dispensary", "healthcare": "hospital", "name": "DISPENSAIRE DE LATIBOLIERE", "operator": "MSPP", "paho:commune": "J\u00e9r\u00e9mie", "paho:commune_id": "11", "paho:department": "GRANDE ANSE", "paho:district_id": "2", "paho:id": "8110363", "paho:region_id": "8", "paho:type": "PUB", "pcode": "81104", "source:health_facility": "ME/MSPP2010; 2005 MSPP database with geocodes"}}, {"type": "node", "id": 627845410, "lat": 19.409217, "lon": -71.7809727, "tags": {"amenity": "hospital", "health_facility:type": "health_center", "name": "CENTRE MEDICOSOCIAL DE MONT-ORGANISE", "operator": "MSPP/CDS", "paho:commune": "Mont Organis\u00e9", "paho:commune_id": "23", "paho:department": "NORD EST", "paho:district_id": "2", "paho:id": "4239001", "paho:region_id": "4", "pcode": "95002", "sahana_id": "78", "source:health_facility": "2005 MSPP database with geocodes", "source:sahana": "http://haiti.sahanafoundation.org/prod/hms/hospital/78"}}, {"type": "node", "id": 627847077, "lat": 18.67478, "lon": -71.952891, "tags": {"addr:country": "HT", "amenity": "hospital", "health_facility:bed": "no", "health_facility:type": "health_center", "name": "Centre de Sante Saint Pierre", "paho:commune": "Cornillon", "paho:commune_id": "34", "paho:department": "OUEST", "paho:district_id": "9", "paho:id": "1340035", "paho:region_id": "1", "paho:type": "PUB", "pcode": "13402", "source": "hot_iom_c.osm-ha", "source:health_facility": "ME/MSPP2010; 2005 MSPP database with geocodes"}}, {"type": "node", "id": 627847079, "lat": 18.6755232, "lon": -71.9515504, "tags": {"addr:country": "HT", "amenity": "hospital", "health_facility:type": "dispensary", "name": "Centre de Sante de Cornillon", "paho:commune": "Cornillon", "paho:commune_id": "34", "paho:department": "OUEST", "paho:district_id": "9", "paho:id": "1340034", "paho:region_id": "1", "paho:type": "PUB", "pcode": "13401", "source": "hot_iom_c.osm-ha", "source:health_facility": "ME/MSPP2010; 2005 MSPP database with geocodes"}}, {"type": "node", "id": 627851742, "lat": 18.6209816, "lon": -72.2788828, "tags": {"addr:country": "HT", "amenity": "hospital", "hfac_bed": "yes", "hfac_type": "field hospital", "name": "Centre m\u00e9dico-social", "operator": "FONDATION BON SAMARITAIN EN ACTION", "paho:commune": "Cx des Bouquets", "paho:commune_id": "31", "paho:department": "OUEST", "paho:district_id": "9", "paho:id": "1319002", "paho:region_id": "1", "pcode": "95010", "source:health_facility": "2005 MSPP database with geocodes"}}, {"type": "node", "id": 627852504, "lat": 18.6156635, "lon": -72.2878495, "tags": {"addr:country": "HT", "addr:housenumber": "48", "addr:street": "Rue Eben-Ezer", "amenity": "hospital", "hfac_bed": "yes", "hfac_type": "field hospital", "name": "Centre Hospitalier Foyer Saint Camille", "operator": "ORDRE RELIGIEUX DES SERVITEURS DES MALADES -CAMILLIENS", "paho:commune": "Cx des Bouquets", "paho:commune_id": "31", "paho:department": "OUEST", "paho:district_id": "9", "paho:id": "1310023", "paho:region_id": "1", "paho:type": "PRI", "pcode": "13109", "source:health_facility": "ME/MSPP2010; 2005 MSPP database with geocodes"}}, {"type": "node", "id": 627853924, "lat": 18.6126168, "lon": -72.3100619, "tags": {"addr:country": "HT", "amenity": "hospital", "hfac_bed": "yes", "hfac_type": "field hospital", "name": "CENTRE SANTE LUCELIA BONTEMPS", "operator": "FILLES DE LA CHARITE ST VINCENT DE PAUL", "paho:commune": "Cx des Bouquets", "paho:commune_id": "31", "paho:department": "OUEST", "paho:district_id": "9", "paho:id": "1310021", "paho:region_id": "1", "paho:type": "PRI", "pcode": "13106", "source:health_facility": "ME/MSPP2010; 2005 MSPP database with geocodes"}}, {"type": "node", "id": 627854377, "lat": 18.6152497, "lon": -72.2467539, "tags": {"addr:country": "HT", "amenity": "hospital", "hfac_bed": "yes", "hfac_type": "field hospital", "name": "CENTRE DE SANTE PETITS AMIS DE JESUS", "paho:commune": "Cx des Bouquets", "paho:commune_id": "31", "paho:department": "OUEST", "paho:district_id": "9", "paho:id": "1310027", "paho:region_id": "1", "paho:type": "PRI", "pcode": "13113", "source:health_facility": "ME/MSPP2010; 2005 MSPP database with geocodes"}}, {"type": "node", "id": 627854657, "lat": 18.6115488, "lon": -72.2131078, "tags": {"addr:country": "HT", "amenity": "hospital", "hfac_bed": "yes", "hfac_type": "field hospital", "name": "HOPITAL DE BEUDET", "operator": "MSPP", "paho:commune": "Cx des Bouquets", "paho:commune_id": "31", "paho:damage": "Damaged", "paho:damage:date": "01.19.2010", "paho:damage:source": "PAHO/PIH", "paho:department": "OUEST", "paho:district_id": "9", "paho:id": "1310017", "paho:region_id": "1", "paho:type": "PUB", "pcode": "13102", "source:health_facility": "ME/MSPP2010; 2005 MSPP database with geocodes"}}, {"type": "node", "id": 627854940, "lat": 18.5815334, "lon": -72.2455633, "tags": {"addr:country": "HT", "amenity": "hospital", "hfac_bed": "yes", "hfac_type": "field hospital", "name": "DP DE BAS BOEN", "paho:commune": "Cx des Bouquets", "paho:commune_id": "31", "paho:department": "OUEST", "paho:district_id": "9", "paho:id": "1310016", "paho:region_id": "1", "paho:type": "PUB", "pcode": "13101", "source:health_facility": "ME/MSPP2010; 2005 MSPP database with geocodes"}}, {"type": "node", "id": 628597779, "lat": 18.5861449, "lon": -72.0781965, "tags": {"addr:country": "HT", "amenity": "hospital", "hfac_bed": "yes", "hfac_type": "field hospital", "name": "DISPENSAIRE DE SAVANNE CABRI", "operator": "MEBA", "paho:commune": "GANTHIER", "paho:commune_id": "33", "paho:department": "OUEST", "paho:district_id": "9", "paho:id": "1330032", "paho:region_id": "1", "paho:type": "PRI", "pcode": "13303", "source:health_facility": "ME/MSPP2010; 2005 MSPP database with geocodes"}}, {"type": "node", "id": 628597969, "lat": 18.5880441, "lon": -72.176675, "tags": {"addr:country": "HT", "amenity": "hospital", "hfac_bed": "yes", "hfac_type": "field hospital", "name": "CENTRE DE SANTE H.E.L.P. INC DE VAUDREUIL", "paho:commune": "Cx des Bouquets", "paho:commune_id": "31", "paho:department": "OUEST", "paho:district_id": "9", "paho:id": "1310020", "paho:region_id": "1", "paho:type": "PRI", "pcode": "13105", "source:health_facility": "ME/MSPP2010; 2005 MSPP database with geocodes"}}, {"type": "node", "id": 628597988, "lat": 18.5824059, "lon": -72.2219622, "tags": {"addr:country": "HT", "amenity": "hospital", "hfac_bed": "yes", "hfac_type": "field hospital", "name": "CENTRE DE SANTE LIFE LINE", "paho:commune": "Cx des Bouquets", "paho:commune_id": "31", "paho:department": "OUEST", "paho:district_id": "9", "paho:id": "1310025", "paho:region_id": "1", "paho:type": "PRI", "pcode": "13111", "source:health_facility": "ME/MSPP2010; 2005 MSPP database with geocodes"}}, {"type": "node", "id": 628598232, "lat": 18.5757176, "lon": -72.2270416, "tags": {"addr:country": "HT", "amenity": "hospital", "hfac_bed": "yes", "hfac_type": "field hospital", "name": "CENTRE DE SANTE DE CROIX-DES-BOUQUETS", "paho:commune": "Cx des Bouquets", "paho:commune_id": "31", "paho:department": "OUEST", "paho:district_id": "9", "paho:id": "1310018", "paho:region_id": "1", "paho:type": "PUB", "pcode": "13103", "source:health_facility": "ME/MSPP2010; 2005 MSPP database with geocodes"}}, {"type": "node", "id": 628598387, "lat": 18.542574, "lon": -72.19255, "tags": {"addr:country": "HT", "addr:street": "10 Roche Blanche / Rue Capois", "amenity": "hospital", "hfac_bed": "yes", "hfac_type": "field hospital", "name": "CENTRE DE SANTE OPERATION DOUBLE HARVEST", "operator": "DOUBLE HARVEST", "paho:commune": "Cx des Bouquets", "paho:commune_id": "31", "paho:department": "OUEST", "paho:district_id": "9", "paho:id": "1310019", "paho:region_id": "1", "paho:type": "PUB", "pcode": "13104", "source:health_facility": "ME/MSPP2010; 2005 MSPP database with geocodes"}}, {"type": "node", "id": 628598401, "lat": 18.5394677, "lon": -72.1377833, "tags": {"addr:country": "HT", "amenity": "hospital", "hfac_bed": "yes", "hfac_type": "field hospital", "name": "DP de FOPECG", "paho:commune": "GANTHIER", "paho:commune_id": "33", "paho:department": "OUEST", "paho:district_id": "9", "paho:id": "1330033", "paho:region_id": "1", "paho:type": "PRI", "pcode": "13304", "source:health_facility": "ME/MSPP2010; 2005 MSPP database with geocodes"}}, {"type": "node", "id": 628603431, "lat": 18.5360112, "lon": -72.1666266, "tags": {"addr:country": "HT", "amenity": "hospital", "contact_person": "Jean webens Jecroix", "hfac_bed": "yes", "hfac_type": "field hospital", "humanitarian_use": "cholera_treatment_centre", "name": "centre de sante communautaire de turb\u00e9", "operational_status": "open", "operational_status_quality": "confirmed", "operator_type": "government_facility-not_public", "paho:commune": "Cx des Bouquets", "paho:commune_id": "31", "paho:department": "OUEST", "paho:district_id": "9", "paho:id": "1310022", "paho:region_id": "1", "paho:type": "PRI", "pcode": "13107", "phone": "3458-8039", "source:health_facility": "ME/MSPP2010; 2005 MSPP database with geocodes"}}, {"type": "node", "id": 628603897, "lat": 18.4918429, "lon": -71.9522131, "tags": {"amenity": "hospital", "damage": "Damage to compound was minimal. Compound is being supplied with personnel and equipment through Santo Domingo.", "health_facility:bed": "yes", "health_facility:operational_status": "operational", "health_facility:type": "health_center", "medical_service_description": "Site is both a fully operational field hospital for post operative recovery and care as well as a separate IDP camp outside of the compound.", "name": "L'Eau de Vie de F.P", "name:fr": "Dispensaire de Fonds Parisien", "note": "Site at Fond Parisien (FP) is operated by Harvard Humanitarian Initiative and University of Chicago. [...] Last known census of the FP hospital was approx 750 at beginning of the week 2/7/2010.", "operator": "IFM", "paho:commune": "GANTHIER", "paho:commune_id": "33", "paho:department": "OUEST", "paho:district_id": "9", "paho:id": "1330030", "paho:region_id": "1", "paho:type": "PRI", "pcode": "13301", "source": "Michael Edwards, Michael Sorensen (http://sites.google.com/a/netspective.org/haiti-health-facilities/home/master-spreadsheet-discussion/view-submitted-corrections-issues )", "source:health_facility": "ME/MSPP2010; 2005 MSPP database with geocodes"}}, {"type": "node", "id": 628604822, "lat": 18.3937867, "lon": -71.8543066, "tags": {"amenity": "hospital", "health_facility:bed": "yes", "health_facility:type": "health_center", "name": "Centre de Sant\u00e9 de Fonds-Verettes", "operator": "MSPP", "paho:commune": "Fonds Verrettes", "paho:commune_id": "35", "paho:department": "OUEST", "paho:district_id": "9", "paho:id": "1350036", "paho:region_id": "1", "paho:type": "PUB", "pcode": "13501", "source:health_facility": "ME/MSPP2010; 2005 MSPP database with geocodes"}}, {"type": "node", "id": 628605103, "lat": 18.3226047, "lon": -71.7752287, "tags": {"amenity": "hospital", "health_facility:type": "dispensary", "name": "DP DE FORET DES PINS", "paho:commune": "Fonds Verrettes", "paho:commune_id": "35", "paho:department": "OUEST", "paho:district_id": "9", "paho:id": "1350037", "paho:region_id": "1", "paho:type": "PUB", "pcode": "13502", "source:health_facility": "ME/MSPP2010; 2005 MSPP database with geocodes"}}, {"type": "node", "id": 628605135, "lat": 18.3059513, "lon": -71.832702, "tags": {"amenity": "hospital", "health_facility:type": "dispensary", "name": "NOTRE DAME DES PINS D'ORIANIE", "paho:commune": "Fonds Verrettes", "paho:commune_id": "35", "paho:department": "OUEST", "paho:district_id": "9", "paho:id": "1350038", "paho:region_id": "1", "paho:type": "PRI", "pcode": "13503", "source:health_facility": "ME/MSPP2010; 2005 MSPP database with geocodes"}}, {"type": "node", "id": 628605227, "lat": 18.5623161, "lon": -72.5861388, "tags": {"addr:country": "HT", "amenity": "hospital", "hfac_bed": "no", "hfac_type": "health_center", "name": "BIRE (NEW MISSION)", "paho:commune": "L\u00e9ogane", "paho:commune_id": "21", "paho:department": "OUEST", "paho:district_id": "5", "paho:id": "1210015", "paho:region_id": "1", "paho:type": "PRI", "pcode": "12109", "source:health_facility": "ME/MSPP2010; 2005 MSPP database with geocodes"}}, {"type": "node", "id": 628611646, "lat": 18.535889, "lon": -72.56015, "tags": {"addr:country": "HT", "amenity": "hospital", "hfac_type": "health_center", "name": "CENTRE DE SANTE BON BERGER", "operator": "ASSOCIATION DES FEMMES D'OEUVRER AUX ENFANTS DEMUNIS", "paho:commune": "L\u00e9ogane", "paho:commune_id": "21", "paho:department": "OUEST", "paho:district_id": "5", "paho:id": "1219002", "paho:region_id": "1", "pcode": "95005", "source:health_facility": "2005 MSPP database with geocodes"}}, {"type": "node", "id": 628616211, "lat": 18.5143442, "lon": -72.6085214, "tags": {"addr:country": "HT", "amenity": "hospital", "hfac_type": "health_center", "name": "Asile Saint Vincent de Paul", "operator": "MSPP", "paho:commune": "L\u00e9ogane", "paho:commune_id": "21", "paho:department": "OUEST", "paho:district_id": "5", "paho:id": "1219001", "paho:region_id": "1", "pcode": "95008", "source:health_facility": "2005 MSPP database with geocodes"}}, {"type": "node", "id": 628618271, "lat": 18.5131377, "lon": -72.6097024, "tags": {"addr:country": "HT", "amenity": "hospital", "hfac_type": "hospital", "name": "HOPITAL CARDINAL LEGER", "paho:commune": "L\u00e9ogane", "paho:commune_id": "21", "paho:department": "OUEST", "paho:district_id": "5", "paho:id": "1210007", "paho:region_id": "1", "paho:type": "PRI", "pcode": "12104", "ref:MSPP": "121204", "source:health_facility": "ME/MSPP2010; 2005 MSPP database with geocodes"}}, {"type": "node", "id": 628619417, "lat": 18.5122252, "lon": -72.6052279, "tags": {"addr:country": "HT", "amenity": "hospital", "hfac_type": "hospital", "name": "Sanatorium de Leogane", "paho:commune": "L\u00e9ogane", "paho:commune_id": "21", "paho:department": "OUEST", "paho:district_id": "5", "paho:id": "1210009", "paho:region_id": "1", "paho:type": "PUB", "pcode": "12106", "source:health_facility": "ME/MSPP2010; 2005 MSPP database with geocodes"}}, {"type": "node", "id": 628630380, "lat": 18.4928307, "lon": -72.5900394, "tags": {"addr:country": "HT", "amenity": "hospital", "hfac_bed": "no", "hfac_type": "health_center", "name": "CENTRE MEDICO - COMMUNAUTAIRE DE DARBONE", "operator": "EGLISE EPISCOPALE / MSPP", "paho:commune": "L\u00e9ogane", "paho:commune_id": "21", "paho:department": "OUEST", "paho:district_id": "5", "paho:id": "1210005", "paho:region_id": "1", "paho:type": "MIX", "pcode": "12102", "source:health_facility": "ME/MSPP2010; 2005 MSPP database with geocodes"}}, {"type": "node", "id": 628631596, "lat": 18.4271546, "lon": -72.6427739, "tags": {"addr:country": "HT", "amenity": "hospital", "hfac_bed": "no", "hfac_type": "health_center", "name": "CENTRE DE SANTE FARNESE LOUIS CHARLES DE PASQUA", "note": "buildings visible in imagery from NOAA, 2010-01-24", "paho:commune": "L\u00e9ogane", "paho:commune_id": "21", "paho:department": "OUEST", "paho:district_id": "5", "paho:id": "1210006", "paho:region_id": "1", "paho:type": "PRI", "pcode": "12103", "source:health_facility": "ME/MSPP2010; 2005 MSPP database with geocodes"}}, {"type": "node", "id": 628632105, "lat": 18.3897813, "lon": -72.579632, "tags": {"addr:country": "HT", "amenity": "hospital", "hfac_type": "dispensary", "name": "DISPENSAIRE ST ANTOINE DE FOND D'OIE", "note": "building visible in GeoEye1, 2010-01-16", "operator": "ASSOCIATION PAYSAN FOND OIES (APF)", "paho:commune": "L\u00e9ogane", "paho:commune_id": "21", "paho:department": "OUEST", "paho:district_id": "5", "paho:id": "1210012", "paho:region_id": "1", "paho:type": "PRI", "pcode": "12110", "source:health_facility": "ME/MSPP2010; 2005 MSPP database with geocodes"}}, {"type": "node", "id": 628632997, "lat": 18.373423, "lon": -72.6210287, "tags": {"addr:country": "HT", "amenity": "hospital", "hfac_bed": "no", "hfac_type": "health_center", "name": "DISPENSAIRE PETIT HARPON", "operator": "L'EGLISE EPISCOPALE / HOPITAL STE CROIX", "paho:commune": "L\u00e9ogane", "paho:commune_id": "21", "paho:department": "OUEST", "paho:district_id": "5", "paho:id": "1210014", "paho:region_id": "1", "paho:type": "PRI", "pcode": "12112", "source:health_facility": "ME/MSPP2010; 2005 MSPP database with geocodes"}}, {"type": "node", "id": 628643254, "lat": 19.8919497, "lon": -72.6175787, "tags": {"addr:country": "HT", "amenity": "hospital", "health_facility:bed": "yes", "health_facility:type": "health_center", "humanitarian_use": "oral_rehydratation_centre", "is_in:city": "Anse A Foleur", "name": "Centre de Sante de Anse \u00e0 Foleur", "name:en": "Anse A Foleur Health Center", "name:fr": "Centre de Sante de Anse \u00e0 Foleur", "operational_status": "open", "operator": "MSPP", "paho:commune": "Anse \u00e0 Foleur", "paho:commune_id": "22", "paho:department": "NORD OUEST", "paho:district_id": "6", "paho:id": "9220149;9229001", "paho:region_id": "9", "paho:type": "PUB", "pcode": "92201;95661", "phone": "509-288-2151", "practicability": "truck_+_trailer_greater_than_20mt", "sahana_id": "21", "source:health_facility": "HHS_20100120;ME/MSPP2010; 2005 MSPP database with geocodes", "source:sahana": "<diff\u00e9rent>,SIGHA_WC", "survey_information_access": "unrestricted", "telecom:land_line": "no"}}, {"type": "node", "id": 628643719, "lat": 19.845726, "lon": -72.6137259, "tags": {"addr:country": "HT", "amenity": "hospital", "health_facility:type": "dispensary", "name": "DP DE DITTY", "paho:commune": "Anse \u00e0 Foleur", "paho:commune_id": "22", "paho:department": "NORD OUEST", "paho:district_id": "6", "paho:id": "9220135", "paho:region_id": "9", "paho:type": "MIX", "pcode": "92202", "source:health_facility": "ME/MSPP2010; 2005 MSPP database with geocodes"}}, {"type": "node", "id": 628644539, "lat": 19.812163, "lon": -72.57187, "tags": {"addr:country": "HT", "amenity": "hospital", "health_facility:type": "dispensary", "healthcare": "hospital", "name": "DISPENSAIRE DE PETIT BOURG DE BORGNE", "paho:commune": "BORGNE", "paho:commune_id": "51", "paho:department": "NORD", "paho:district_id": "5", "paho:id": "3510111", "paho:region_id": "3", "paho:type": "PUB", "pcode": "35102", "source:health_facility": "ME/MSPP2010; 2005 MSPP database with geocodes"}}, {"type": "node", "id": 628644585, "lat": 19.7802422, "lon": -72.3795735, "tags": {"addr:country": "HT", "amenity": "hospital", "health_facility:type": "health_center", "name": "CENTRE DE SANTE DE BAS- LIMBE", "operator": "MSPP/ICC", "paho:commune": "BAS LIMBE", "paho:commune_id": "62", "paho:department": "NORD", "paho:district_id": "5", "paho:id": "3620110", "paho:region_id": "3", "pcode": "95081", "source:health_facility": "2005 MSPP database with geocodes"}}, {"type": "node", "id": 628644978, "lat": 19.7649733, "lon": -72.1973639, "tags": {"addr:country": "HT", "amenity": "hospital", "health_facility:type": "dispensary", "name": "CENTRE DISPENSAIRE NOTRE DAME DE LOURDES CARENAGE", "paho:commune": "Cap Ha\u00eftien", "paho:commune_id": "11", "paho:department": "NORD", "paho:district_id": "1", "paho:id": "3110125", "paho:region_id": "3", "paho:type": "MIX", "pcode": "31103", "source:health_facility": "ME/MSPP2010; 2005 MSPP database with geocodes"}}, {"type": "node", "id": 628645021, "lat": 19.7610047, "lon": -72.2028024, "tags": {"FIXME": "unknown_health_facility", "addr:country": "HT", "amenity": "hospital", "health_facility:type": "specialized_hospital", "name": "CENTRE FOSREF", "operator": "FOSREF", "paho:commune": "Cap Ha\u00eftien", "paho:commune_id": "11", "paho:department": "NORD", "paho:district_id": "1", "paho:id": "3110120", "paho:region_id": "3", "paho:type": "PUB", "pcode": "31110", "source:health_facility": "ME/MSPP2010; 2005 MSPP database with geocodes"}}, {"type": "node", "id": 628645141, "lat": 19.7548535, "lon": -72.2050486, "tags": {"FIXME": "unknown_health_facility", "addr:country": "HT", "amenity": "hospital", "health_facility:type": "specialized_hospital", "name": "DISPENSAIRE CARITAS", "operator": "CARITAS", "paho:commune": "Cap Ha\u00eftien", "paho:commune_id": "11", "paho:department": "NORD", "paho:district_id": "1", "paho:id": "3110123", "paho:region_id": "3", "paho:type": "MIX", "pcode": "31111", "source:health_facility": "ME/MSPP2010; 2005 MSPP database with geocodes"}}, {"type": "node", "id": 628645142, "lat": 19.7548167, "lon": -72.2052203, "tags": {"addr:country": "HT", "amenity": "hospital", "health_facility:type": "dispensary", "name": "Dispensaire de Sacre-Coeur", "paho:commune": "Cap Ha\u00eftien", "paho:commune_id": "11", "paho:department": "NORD", "paho:district_id": "1", "paho:id": "3110121", "paho:region_id": "3", "paho:type": "MIX", "pcode": "31105", "source:health_facility": "ME/MSPP2010; 2005 MSPP database with geocodes"}}, {"type": "node", "id": 628645371, "lat": 19.7411151, "lon": -72.1941764, "tags": {"addr:country": "HT", "amenity": "hospital", "health_facility:bed": "no", "health_facility:type": "health_center", "name": "Centre de Sant\u00e9 du Fort Saint Michel", "paho:commune": "Cap Ha\u00eftien", "paho:commune_id": "11", "paho:department": "NORD", "paho:district_id": "1", "paho:id": "3110115", "paho:region_id": "3", "paho:type": "PUB", "pcode": "31102", "source:health_facility": "ME/MSPP2010; 2005 MSPP database with geocodes"}}, {"type": "node", "id": 628645379, "lat": 19.7327323, "lon": -72.1833009, "tags": {"FIXME": "unknown_health_facility", "addr:country": "HT", "amenity": "hospital", "health_facility:type": "dispensary", "name": "CEMAD CENTRE MEDICAL AIDE DIVINE", "paho:commune": "Cap Ha\u00eftien", "paho:commune_id": "11", "paho:department": "NORD", "paho:district_id": "1", "paho:id": "3110122", "paho:region_id": "3", "paho:type": "PRI", "pcode": "31109", "source:health_facility": "ME/MSPP2010; 2005 MSPP database with geocodes"}}, {"type": "node", "id": 628645505, "lat": 19.7251301, "lon": -72.1819314, "tags": {"addr:country": "HT", "amenity": "hospital", "health_facility:bed": "no", "health_facility:type": "health_center", "name": "CENTRE DE SANTE MADELINE", "paho:commune": "Cap Ha\u00eftien", "paho:commune_id": "11", "paho:department": "NORD", "paho:district_id": "1", "paho:id": "3110124", "paho:region_id": "3", "paho:type": "MIX", "pcode": "31108", "source:health_facility": "ME/MSPP2010; 2005 MSPP database with geocodes"}}, {"type": "node", "id": 628645909, "lat": 19.7273518, "lon": -72.119215, "tags": {"addr:country": "HT", "amenity": "hospital", "health_facility:type": "dispensary", "name": "Dispensaire Bord de Mer Limonade", "paho:commune": "LIMONADE", "paho:commune_id": "13", "paho:department": "NORD", "paho:district_id": "2", "paho:id": "3130127", "paho:region_id": "3", "paho:type": "PRI", "pcode": "31302", "source": "Bing", "source:health_facility": "ME/MSPP2010; 2005 MSPP database with geocodes"}}, {"type": "node", "id": 628647042, "lat": 19.7196138, "lon": -72.2522038, "tags": {"addr:country": "HT", "amenity": "hospital", "health_facility:bed": "no", "health_facility:type": "health_center", "name": "CENTRE MEDICAL BETHESDA DE VAUDREUIL", "paho:commune": "PLAINE DU NORD", "paho:commune_id": "22", "paho:department": "NORD", "paho:district_id": "3", "paho:id": "3220107", "paho:region_id": "3", "paho:type": "PRI", "pcode": "32205", "source": "survey", "source:health_facility": "ME/MSPP2010; 2005 MSPP database with geocodes"}}, {"type": "node", "id": 628647043, "lat": 19.7183865, "lon": -72.2524555, "tags": {"addr:country": "HT", "amenity": "hospital", "health_facility:type": "dispensary", "name": "Centre de Sante St Francois de Sales", "paho:commune": "PLAINE DU NORD", "paho:commune_id": "22", "paho:department": "NORD", "paho:district_id": "3", "paho:id": "3220102", "paho:region_id": "3", "paho:type": "PRI", "pcode": "32206", "source:health_facility": "ME/MSPP2010; 2005 MSPP database with geocodes"}}, {"type": "node", "id": 628647310, "lat": 19.7105233, "lon": -72.266042, "tags": {"addr:country": "HT", "amenity": "hospital", "health_facility:type": "dispensary", "name": "Dispensaire Zo Meda de Morne Rouge", "operator": "MSPP", "paho:commune": "PLAINE DU NORD", "paho:commune_id": "22", "paho:department": "NORD", "paho:district_id": "3", "paho:id": "3220100", "paho:region_id": "3", "paho:type": "PUB", "pcode": "32203", "source:health_facility": "ME/MSPP2010; 2005 MSPP database with geocodes"}}, {"type": "node", "id": 628649450, "lat": 19.677599, "lon": -72.27091, "tags": {"addr:country": "HT", "amenity": "hospital", "health_facility:bed": "no", "health_facility:type": "health_center", "name": "CENTRE DE SANTE JEHOVAH JIREH", "paho:commune": "PLAINE DU NORD", "paho:commune_id": "22", "paho:department": "NORD", "paho:district_id": "3", "paho:id": "3220106", "paho:region_id": "3", "paho:type": "PRI", "pcode": "32208", "source:health_facility": "ME/MSPP2010; 2005 MSPP database with geocodes"}}, {"type": "node", "id": 628649451, "lat": 19.6768392, "lon": -72.2701891, "tags": {"addr:country": "HT", "amenity": "hospital", "health_facility:type": "health_center", "name": "CENTRE MEDICO SOCIAL", "paho:commune": "PLAINE DU NORD", "paho:commune_id": "22", "paho:department": "NORD", "paho:district_id": "3", "paho:id": "3229001", "paho:region_id": "3", "pcode": "95075", "source:health_facility": "2005 MSPP database with geocodes"}}, {"type": "node", "id": 628649757, "lat": 19.6438748, "lon": -72.1807403, "tags": {"addr:country": "HT", "amenity": "hospital", "health_facility:type": "dispensary", "name": "DISPENSAIRE SAINTE BERNADETTE DE CADUSH", "paho:commune": "QUARTIER MORIN", "paho:commune_id": "12", "paho:department": "NORD", "paho:district_id": "2", "paho:id": "3120132", "paho:region_id": "3", "paho:type": "PRI", "pcode": "31205", "source:health_facility": "ME/MSPP2010; 2005 MSPP database with geocodes"}}, {"type": "node", "id": 628649760, "lat": 19.6418221, "lon": -72.181108, "tags": {"addr:country": "HT", "amenity": "hospital", "health_facility:type": "dispensary", "name": "DISPENSAIRE DE CADUSH", "paho:commune": "QUARTIER MORIN", "paho:commune_id": "12", "paho:department": "NORD", "paho:district_id": "2", "paho:id": "3120129", "paho:region_id": "3", "paho:type": "PUB", "pcode": "31202", "source:health_facility": "ME/MSPP2010; 2005 MSPP database with geocodes"}}, {"type": "node", "id": 628649830, "lat": 19.6162043, "lon": -72.2585898, "tags": {"addr:country": "HT", "amenity": "hospital", "health_facility:type": "dispensary", "name": "DISPENSAIRE DE ROBILLARD", "operator": "MSPP", "paho:commune": "PLAINE DU NORD", "paho:commune_id": "22", "paho:department": "NORD", "paho:district_id": "3", "paho:id": "3220101", "paho:region_id": "3", "paho:type": "PUB", "pcode": "32204", "source:health_facility": "ME/MSPP2010; 2005 MSPP database with geocodes"}}, {"type": "node", "id": 628650196, "lat": 19.6225118, "lon": -72.1852564, "tags": {"addr:country": "HT", "amenity": "hospital", "health_facility:type": "dispensary", "name": "DISPENSAIRE DE GRAND PRE", "paho:commune": "QUARTIER MORIN", "paho:commune_id": "12", "paho:department": "NORD", "paho:district_id": "2", "paho:id": "3120117", "paho:region_id": "3", "paho:type": "PRI", "pcode": "31206", "source:health_facility": "ME/MSPP2010; 2005 MSPP database with geocodes"}}, {"type": "node", "id": 628650832, "lat": 19.6114825, "lon": -72.172815, "tags": {"addr:country": "HT", "amenity": "hospital", "health_facility:type": "dispensary", "name": "CLINIQUE METHODISTE LATANNERIE", "operator": "EGLISE METHODISTE", "paho:commune": "GRANDE RIVIERE DU NORD", "paho:commune_id": "31", "paho:department": "NORD", "paho:district_id": "2", "paho:id": "3310116", "paho:region_id": "3", "paho:type": "PRI", "pcode": "33102", "source:health_facility": "ME/MSPP2010; 2005 MSPP database with geocodes"}}, {"type": "node", "id": 628651199, "lat": 19.5266857, "lon": -72.2446294, "tags": {"addr:country": "HT", "amenity": "hospital", "health_facility:bed": "no", "health_facility:type": "health_center", "name": "Centre de Sant\u00e9 de Dondon", "operator": "CBP(COMITE BIENFAISANCE DE PIGNON)", "paho:commune": "DONDON", "paho:commune_id": "42", "paho:department": "NORD", "paho:district_id": "4", "paho:id": "3420112", "paho:region_id": "3", "paho:type": "MIX", "pcode": "34201", "source:health_facility": "ME/MSPP2010; 2005 MSPP database with geocodes"}}, {"type": "node", "id": 628651466, "lat": 19.5260736, "lon": -72.2417845, "tags": {"addr:country": "HT", "amenity": "hospital", "health_facility:type": "dispensary", "name": "Dispensaire Saint Joseph", "operator": "SOEURS ST JOSEPH DE ST VALLIER", "paho:commune": "DONDON", "paho:commune_id": "42", "paho:department": "NORD", "paho:district_id": "4", "paho:id": "3420113", "paho:region_id": "3", "paho:type": "PRI", "pcode": "34202", "source:health_facility": "ME/MSPP2010; 2005 MSPP database with geocodes"}}, {"type": "node", "id": 628652631, "lat": 19.4694151, "lon": -72.1142344, "tags": {"addr:country": "HT", "amenity": "hospital", "health_facility:bed": "no", "health_facility:type": "health_center", "name": "DISPENSAIRE DE BAHON", "operator": "MSPP", "paho:commune": "BAHON", "paho:commune_id": "32", "paho:department": "NORD", "paho:district_id": "2", "paho:id": "3320119", "paho:region_id": "3", "paho:type": "MIX", "pcode": "33201", "source:health_facility": "ME/MSPP2010; 2005 MSPP database with geocodes"}}, {"type": "node", "id": 628653683, "lat": 19.4104377, "lon": -72.0828684, "tags": {"addr:country": "HT", "amenity": "hospital", "health_facility:bed": "no", "health_facility:type": "health_center", "name": "Centre de Sant\u00e9 de Ranquitte", "paho:commune": "RANQUITTE", "paho:commune_id": "43", "paho:department": "NORD", "paho:district_id": "4", "paho:id": "3430133", "paho:region_id": "3", "paho:type": "MIX", "pcode": "34301", "source:health_facility": "ME/MSPP2010; 2005 MSPP database with geocodes"}}, {"type": "node", "id": 628653937, "lat": 19.3362284, "lon": -72.1141588, "tags": {"addr:country": "HT", "amenity": "hospital", "health_facility:type": "dispensary", "name": "DISPENSAIRE ST JOSEPH", "operator": "EGLISE CATHOLIQUE", "paho:commune": "PIGNON", "paho:commune_id": "44", "paho:department": "NORD", "paho:district_id": "4", "paho:id": "3440108", "paho:region_id": "3", "paho:type": "PRI", "pcode": "34402", "source:health_facility": "ME/MSPP2010; 2005 MSPP database with geocodes"}}, {"type": "node", "id": 628654409, "lat": 19.3381795, "lon": -72.0239049, "tags": {"addr:country": "HT", "amenity": "hospital", "health_facility:bed": "no", "health_facility:type": "health_center", "name": "Centre de Sant\u00e9 La Victoire", "operator": "CBP", "operator:type": "community", "paho:commune": "LA VICTOIRE", "paho:commune_id": "45", "paho:department": "NORD", "paho:district_id": "4", "paho:id": "3450109", "paho:region_id": "3", "paho:type": "MIX", "pcode": "34501", "ref:MSPP": "345101", "source": "survey", "source:health_facility": "ME/MSPP2010; 2005 MSPP database with geocodes"}}, {"type": "node", "id": 628654660, "lat": 18.4518112, "lon": -72.9681002, "tags": {"addr:country": "HT", "amenity": "hospital", "health_facility:type": "dispensary", "name": "DP DE TROU CHOUCHOU (FERME)", "operator": "MSPP", "paho:commune": "Petit Goave", "paho:commune_id": "22", "paho:department": "OUEST", "paho:district_id": "8", "paho:id": "1229002", "paho:region_id": "1", "pcode": "95100", "source:health_facility": "2005 MSPP database with geocodes"}}, {"type": "node", "id": 628654985, "lat": 18.411899, "lon": -73.0080425, "tags": {"addr:country": "HT", "amenity": "hospital", "health_facility:type": "dispensary", "name": "DP DE MADELAINE", "operator": "MSPP", "paho:commune": "Petit Goave", "paho:commune_id": "22", "paho:department": "OUEST", "paho:district_id": "8", "paho:id": "1220139", "paho:region_id": "1", "paho:type": "PUB", "pcode": "12203", "source:health_facility": "ME/MSPP2010; 2005 MSPP database with geocodes"}}, {"type": "node", "id": 628655547, "lat": 18.4167352, "lon": -72.943916, "tags": {"addr:country": "HT", "amenity": "hospital", "health_facility:type": "dispensary", "name": "Dispensaire de Vialet", "note": "original location provided by PAHO/WHO; doesn't matatch with a building on NOAA, 2010-01-18", "operator": "MSPP", "paho:commune": "Petit Goave", "paho:commune_id": "22", "paho:department": "OUEST", "paho:district_id": "8", "paho:id": "1220137", "paho:region_id": "1", "paho:type": "PUB", "pcode": "12202", "ref:MSPP": "122102", "source:health_facility": "ME/MSPP2010; 2005 MSPP database with geocodes"}}, {"type": "node", "id": 628662476, "lat": 18.3935247, "lon": -73.0158714, "tags": {"addr:country": "HT", "amenity": "hospital", "health_facility:type": "dispensary", "name": "DP ARNOUX", "operator": "MSPP", "paho:commune": "Petit Goave", "paho:commune_id": "22", "paho:department": "OUEST", "paho:district_id": "8", "paho:id": "1220140", "paho:region_id": "1", "paho:type": "PUB", "pcode": "12204", "source:health_facility": "ME/MSPP2010; 2005 MSPP database with geocodes"}}, {"type": "node", "id": 628675109, "lat": 18.4284807, "lon": -72.7693875, "tags": {"addr:city": "Grand Goave", "addr:country": "HT", "amenity": "hospital", "health_facility:bed": "yes", "health_facility:type": "health_center", "name": "CENTRE DE SANTE GEORGES GAUVIN", "operator": "MSPP", "paho:commune": "GRAND-GOAVE", "paho:commune_id": "23", "paho:department": "OUEST", "paho:district_id": "8", "paho:id": "1230145", "paho:region_id": "1", "paho:type": "PRI", "pcode": "12301", "sahana_id": "70", "source:health_facility": "ME/MSPP2010; 2005 MSPP database with geocodes", "source:sahana": "https://spreadsheets.google.com/ccc?key=0ArlMTYEgfvwsdERtTkxRUVVqRXdpVzlDSlFnb3F1UHc&hl=en"}}, {"type": "node", "id": 628680465, "lat": 18.3925869, "lon": -72.7476585, "tags": {"addr:country": "HT", "amenity": "hospital", "health_facility:bed": "no", "health_facility:type": "health_center", "name": "DP DE DANO (Danneau )", "paho:commune": "GRAND-GOAVE", "paho:commune_id": "23", "paho:department": "OUEST", "paho:district_id": "8", "paho:id": "1239002", "paho:region_id": "1", "paho:type": "PUB", "pcode": "12304", "source:health_facility": "ME/MSPP2010; 2005 MSPP database with geocodes"}}, {"type": "node", "id": 628682820, "lat": 18.3776586, "lon": -72.8239461, "tags": {"addr:country": "HT", "amenity": "hospital", "health_facility:type": "dispensary", "name": "DP APV", "paho:commune": "Petit Goave", "paho:commune_id": "22", "paho:department": "OUEST", "paho:district_id": "8", "paho:id": "1220144", "paho:region_id": "1", "paho:type": "PRI", "pcode": "12209", "source:health_facility": "ME/MSPP2010; 2005 MSPP database with geocodes"}}, {"type": "node", "id": 628684720, "lat": 18.3487899, "lon": -72.7167474, "tags": {"addr:country": "HT", "amenity": "hospital", "health_facility:bed": "no", "health_facility:type": "health_center", "name": "DP DE MEYER", "operator": "MSPP", "paho:commune": "GRAND-GOAVE", "paho:commune_id": "23", "paho:department": "OUEST", "paho:district_id": "8", "paho:id": "1230147", "paho:region_id": "1", "paho:type": "PRI", "pcode": "12302", "source:health_facility": "ME/MSPP2010; 2005 MSPP database with geocodes"}}, {"type": "node", "id": 628686577, "lat": 18.3174413, "lon": -72.8000629, "tags": {"addr:country": "HT", "amenity": "hospital", "health_facility:type": "dispensary", "name": "DP DE DUFOUR", "operator": "MSPP", "paho:commune": "GRAND-GOAVE", "paho:commune_id": "23", "paho:department": "OUEST", "paho:district_id": "8", "paho:id": "1230148", "paho:region_id": "1", "paho:type": "PRI", "pcode": "12303", "source:health_facility": "ME/MSPP2010; 2005 MSPP database with geocodes"}}, {"type": "node", "id": 628688417, "lat": 18.3037196, "lon": -72.8636364, "tags": {"addr:country": "HT", "amenity": "hospital", "health_facility:bed": "no", "health_facility:type": "health_center", "name": "CENTRE DE SANTE DES PALMES", "paho:commune": "Petit Goave", "paho:commune_id": "22", "paho:department": "OUEST", "paho:district_id": "8", "paho:id": "1220143", "paho:region_id": "1", "paho:type": "PRI", "pcode": "12205", "source:health_facility": "ME/MSPP2010; 2005 MSPP database with geocodes"}}, {"type": "node", "id": 628690332, "lat": 18.3058918, "lon": -72.9581193, "tags": {"addr:country": "HT", "amenity": "hospital", "health_facility:bed": "no", "health_facility:type": "health_center", "name": "CENTRE DE SANTE DE DELATTE", "paho:commune": "Petit Goave", "paho:commune_id": "22", "paho:department": "OUEST", "paho:district_id": "8", "paho:id": "1220142", "paho:region_id": "1", "paho:type": "PRI", "pcode": "12206", "source:health_facility": "ME/MSPP2010; 2005 MSPP database with geocodes"}}, {"type": "node", "id": 628691904, "lat": 18.1901171, "lon": -73.0035258, "tags": {"addr:country": "HT", "amenity": "hospital", "health_facility:type": "dispensary", "healthcare": "hospital", "name": "Dispensaire de C\u00f4tes-de-Fer", "paho:commune": "Cote de Fer", "paho:commune_id": "22", "paho:department": "SUD EST", "paho:district_id": "4", "paho:id": "2229001", "paho:region_id": "2", "pcode": "95098", "source:health_facility": "2005 MSPP database with geocodes"}}, {"type": "node", "id": 629026659, "lat": 18.712003, "lon": -72.34521, "tags": {"addr:country": "HT", "amenity": "hospital", "health_facility:bed": "no", "health_facility:type": "health_center", "name": "CENTRE DE SANTE ST ANTOINE DE TITANYEN", "operator": "HAITI - MED", "paho:commune": "CABARET", "paho:commune_id": "42", "paho:department": "OUEST", "paho:district_id": "4", "paho:id": "1420183", "paho:region_id": "1", "paho:type": "PRI", "pcode": "14205", "source:health_facility": "ME/MSPP2010; 2005 MSPP database with geocodes"}}, {"type": "node", "id": 629027373, "lat": 18.527659, "lon": -72.38193, "tags": {"addr:country": "HT", "amenity": "hospital", "hfac_bed": "yes", "hfac_type": "field hospital", "name": "CENTRE DE BIZOTON BIZOTON", "paho:commune": "CARREFOUR", "paho:commune_id": "13", "paho:department": "OUEST", "paho:district_id": "1", "paho:id": "1130185", "paho:region_id": "1", "paho:type": "PRI", "pcode": "11301", "sahana_id": "66", "source:health_facility": "ME/MSPP2010; 2005 MSPP database with geocodes", "source:sahana": "http://haiti.sahanafoundation.org/prod/hms/hospital"}}, {"type": "node", "id": 629028599, "lat": 18.5378691, "lon": -72.4084446, "tags": {"addr:country": "HT", "amenity": "hospital", "hfac_bed": "yes", "hfac_type": "field hospital", "name": "CENTRE MEDICAL O.M./ PES SANTE PLUS", "operator": "DR PIERRE", "paho:commune": "CARREFOUR", "paho:commune_id": "13", "paho:department": "OUEST", "paho:district_id": "1", "paho:id": "1139010", "paho:region_id": "1", "pcode": "95137", "source:health_facility": "2005 MSPP database with geocodes"}}, {"type": "node", "id": 629031270, "lat": 18.4364045, "lon": -73.2782065, "tags": {"addr:country": "HT", "amenity": "hospital", "health_facility:type": "dispensary", "name": "Dispensaire de Saint Yves", "operator": "EGLISE CATHOLIQUE", "paho:commune": "Anse \u00e0 Veau", "paho:commune_id": "51", "paho:department": "NIPPES", "paho:district_id": "3", "paho:id": "10150158", "paho:region_id": "10", "paho:type": "PUB", "pcode": "85104", "source:health_facility": "ME/MSPP2010; 2005 MSPP database with geocodes"}}, {"type": "node", "id": 629031271, "lat": 18.5035005, "lon": -73.3422367, "tags": {"addr:country": "HT", "addr:street": "Rue De L'hopital", "amenity": "hospital", "health_facility:bed": "yes", "health_facility:type": "health_center", "name": "H\u00f4pital Jules Fleury d'Anse-\u00e0-Veau", "operator": "MSPP", "paho:commune": "Anse \u00e0 Veau", "paho:commune_id": "51", "paho:department": "NIPPES", "paho:district_id": "3", "paho:id": "10150159", "paho:region_id": "10", "paho:type": "PUB", "pcode": "85101", "phone": "509-245-9906; 509-244-0935", "sahana_id": "11", "source:health_facility": "ME/MSPP2010; 2005 MSPP database with geocodes", "source:sahana": "http://haiti.sahanafoundation.org/prod/hms/hospital"}}, {"type": "node", "id": 629031272, "lat": 18.3728412, "lon": -73.4965597, "tags": {"addr:country": "HT", "amenity": "hospital", "health_facility:type": "dispensary", "name": "CENTRE DE BETHESDA PLEUVANT DE L'AZILE", "operator": "LA FAMILLE KENOLD JOSEPH MSPP", "paho:commune": "L'ASILE", "paho:commune_id": "54", "paho:department": "NIPPES", "paho:district_id": "4", "paho:id": "10160161", "paho:region_id": "10", "paho:type": "PUB", "pcode": "85402", "source:health_facility": "ME/MSPP2010; 2005 MSPP database with geocodes"}}, {"type": "node", "id": 629031273, "lat": 18.3834705, "lon": -73.4151558, "tags": {"addr:country": "HT", "alt_name": "SSPE de L'Asile", "amenity": "hospital", "health_facility:type": "dispensary", "name": "Dispensaire de L'Azile", "operator": "MSPP", "paho:commune": "L'ASILE", "paho:commune_id": "54", "paho:department": "NIPPES", "paho:district_id": "4", "paho:id": "10160160", "paho:region_id": "10", "paho:type": "PUB", "pcode": "85401", "source:health_facility": "ME/MSPP2010;2005 MSPP database with geocodes"}}, {"type": "node", "id": 629031275, "lat": 18.3727266, "lon": -73.5281201, "tags": {"amenity": "hospital", "health_facility:type": "dispensary", "name": "Dispensaire de Changeux", "operator": "MSPP", "paho:commune": "L'ASILE", "paho:commune_id": "54", "paho:department": "NIPPES", "paho:district_id": "4", "paho:id": "10160162", "paho:region_id": "10", "paho:type": "PUB", "pcode": "85403", "source:health_facility": "ME/MSPP2010; 2005 MSPP database with geocodes"}}, {"type": "node", "id": 629031277, "lat": 18.4250511, "lon": -73.2689851, "tags": {"addr:country": "HT", "amenity": "hospital", "health_facility:type": "dispensary", "name": "DISPENSAIRE DE JAVEL (FERME)", "operator": "MSPP", "paho:commune": "Anse \u00e0 Veau", "paho:commune_id": "51", "paho:department": "NIPPES", "paho:district_id": "3", "paho:id": "10150157", "paho:region_id": "10", "paho:type": "PUB", "pcode": "85103", "source:health_facility": "ME/MSPP2010; 2005 MSPP database with geocodes"}}, {"type": "node", "id": 629031278, "lat": 18.4468149, "lon": -73.3799971, "tags": {"amenity": "hospital", "health_facility:type": "dispensary", "name": "Dispensaire d'Arnaud", "operator": "HAITI MISSION", "paho:commune": "Anse \u00e0 Veau", "paho:commune_id": "51", "paho:department": "NIPPES", "paho:district_id": "3", "paho:id": "10170156", "paho:region_id": "10", "paho:type": "PUB", "pcode": "85105", "source:health_facility": "ME/MSPP2010; 2005 MSPP database with geocodes"}}, {"type": "node", "id": 629031279, "lat": 19.6670063, "lon": -73.2115326, "tags": {"addr:country": "HT", "amenity": "hospital", "health_facility:type": "dispensary", "name": "CENTRE DE SANTE BAIE DE HENNE", "operator": "MSPP", "paho:commune": "BAIE DE HENNE", "paho:commune_id": "32", "paho:department": "NORD OUEST", "paho:district_id": "2", "paho:id": "9320170", "paho:region_id": "9", "paho:type": "PUB", "pcode": "93203", "source:health_facility": "ME/MSPP2010; 2005 MSPP database with geocodes"}}, {"type": "node", "id": 629031281, "lat": 19.727117, "lon": -73.1590354, "tags": {"addr:country": "HT", "amenity": "hospital", "health_facility:type": "health_center", "name": "JOSHUA MEMORIAL CLINIC", "operator": "CAM", "paho:commune": "BAIE DE HENNE", "paho:commune_id": "32", "paho:department": "NORD OUEST", "paho:district_id": "2", "paho:id": "9329001", "paho:region_id": "9", "pcode": "95122", "source:health_facility": "2005 MSPP database with geocodes"}}, {"type": "node", "id": 629031283, "lat": 19.7060127, "lon": -73.3938075, "tags": {"addr:country": "HT", "amenity": "hospital", "health_facility:type": "dispensary", "name": "DISPENSAIRE DE DESFORGES", "paho:commune": "BOMBARDOPOLIS", "paho:commune_id": "33", "paho:department": "NORD OUEST", "paho:district_id": "2", "paho:id": "9330178", "paho:region_id": "9", "paho:type": "PRI", "pcode": "93305", "source:health_facility": "ME/MSPP2010; 2005 MSPP database with geocodes"}}, {"type": "node", "id": 629031284, "lat": 19.6944853, "lon": -73.3687981, "tags": {"addr:country": "HT", "amenity": "hospital", "health_facility:type": "dispensary", "name": "CLINIQUE MONT DES OLIVIERS", "operator": "EGLISE CATHOLIQUE", "paho:commune": "BOMBARDOPOLIS", "paho:commune_id": "33", "paho:department": "NORD OUEST", "paho:district_id": "2", "paho:id": "9330176", "paho:region_id": "9", "paho:type": "PRI", "pcode": "93303", "source:health_facility": "ME/MSPP2010; 2005 MSPP database with geocodes"}}, {"type": "node", "id": 629031285, "lat": 19.7486202, "lon": -73.2091821, "tags": {"addr:country": "HT", "amenity": "hospital", "health_facility:type": "dispensary", "name": "DISPENSAIRE DE DUPRE", "operator": "CHILD CARE", "paho:commune": "BAIE DE HENNE", "paho:commune_id": "32", "paho:department": "NORD OUEST", "paho:district_id": "2", "paho:id": "9320172", "paho:region_id": "9", "paho:type": "PRI", "pcode": "93204", "source:health_facility": "ME/MSPP2010; 2005 MSPP database with geocodes"}}, {"type": "node", "id": 629031286, "lat": 19.6993236, "lon": -73.3803291, "tags": {"addr:country": "HT", "amenity": "hospital", "health_facility:type": "dispensary", "name": "DISPENSAIRE ROCHEFORT", "operator": "COMMUNAUTE", "paho:commune": "BOMBARDOPOLIS", "paho:commune_id": "33", "paho:department": "NORD OUEST", "paho:district_id": "2", "paho:id": "9330177", "paho:region_id": "9", "paho:type": "PRI", "pcode": "93302", "source:health_facility": "ME/MSPP2010; 2005 MSPP database with geocodes"}}, {"type": "node", "id": 629031287, "lat": 19.7211433, "lon": -73.1711233, "tags": {"addr:country": "HT", "amenity": "hospital", "health_facility:type": "dispensary", "name": "DISPENSAIRE DE PETITE RIVIERE", "operator": "CHILD CARE", "paho:commune": "BAIE DE HENNE", "paho:commune_id": "32", "paho:department": "NORD OUEST", "paho:district_id": "2", "paho:id": "9320173", "paho:region_id": "9", "pcode": "95121", "source:health_facility": "2005 MSPP database with geocodes"}}, {"type": "node", "id": 629031288, "lat": 19.6929095, "lon": -73.3362431, "tags": {"addr:country": "HT", "amenity": "hospital", "health_facility:bed": "yes", "health_facility:type": "health_center", "name": "HOPITAL EVANGELIQUE DE BOMBARDOPOLIS", "operator": "INTERNATIONAL MISSIONARY FELLOSHIP", "paho:commune": "BOMBARDOPOLIS", "paho:commune_id": "33", "paho:department": "NORD OUEST", "paho:district_id": "2", "paho:id": "9330175", "paho:region_id": "9", "paho:type": "MIX", "pcode": "93301", "source:health_facility": "ME/MSPP2010; 2005 MSPP database with geocodes"}}, {"type": "node", "id": 629031289, "lat": 18.5407181, "lon": -72.4438681, "tags": {"addr:country": "HT", "amenity": "hospital", "hfac_bed": "yes", "hfac_type": "field hospital", "name": "Centre de sant\u00e9 Bon Secours", "paho:commune": "CARREFOUR", "paho:commune_id": "13", "paho:department": "OUEST", "paho:district_id": "1", "paho:id": "1139003", "paho:region_id": "1", "pcode": "95138", "source:health_facility": "2005 MSPP database with geocodes"}}, {"type": "node", "id": 629031290, "lat": 18.7788914, "lon": -72.5238943, "tags": {"addr:country": "HT", "amenity": "hospital", "health_facility:bed": "no", "health_facility:type": "health_center", "name": "CLINIQUE MERES ET ENFANTS", "paho:commune": "Arcahaie", "paho:commune_id": "41", "paho:department": "OUEST", "paho:district_id": "4", "paho:id": "1410152", "paho:region_id": "1", "paho:type": "PRI", "pcode": "14105", "source:health_facility": "ME/MSPP2010; 2005 MSPP database with geocodes"}}, {"type": "node", "id": 629031292, "lat": 18.7320972, "lon": -72.4417134, "tags": {"addr:country": "HT", "amenity": "hospital", "health_facility:bed": "no", "health_facility:type": "health_center", "name": "CENTRE DE SANTE / BELLANGER", "operator": "SADA", "paho:commune": "CABARET", "paho:commune_id": "42", "paho:department": "OUEST", "paho:district_id": "4", "paho:id": "1420182", "paho:region_id": "1", "paho:type": "PRI", "pcode": "14204", "source:health_facility": "ME/MSPP2010; 2005 MSPP database with geocodes"}}, {"type": "node", "id": 629031293, "lat": 18.7714821, "lon": -72.5131425, "tags": {"addr:country": "HT", "amenity": "hospital", "health_facility:bed": "yes", "health_facility:type": "health_center", "name": "Centre de Sant\u00e9 Nicolas Armand", "operator": "MSPP", "paho:commune": "Arcahaie", "paho:commune_id": "41", "paho:department": "OUEST", "paho:district_id": "4", "paho:id": "1410150", "paho:region_id": "1", "paho:type": "PUB", "pcode": "14101", "source:health_facility": "ME/MSPP2010; 2005 MSPP database with geocodes"}}, {"type": "node", "id": 629031294, "lat": 18.8198069, "lon": -72.5667516, "tags": {"addr:country": "HT", "amenity": "hospital", "health_facility:bed": "no", "health_facility:type": "health_center", "name": "DISPENSAIRE DE ST ART", "operator": "MSPP", "paho:commune": "Arcahaie", "paho:commune_id": "41", "paho:department": "OUEST", "paho:district_id": "4", "paho:id": "1410153", "paho:region_id": "1", "paho:type": "PUB", "pcode": "14107", "source:health_facility": "ME/MSPP2010; 2005 MSPP database with geocodes"}}, {"type": "node", "id": 629031295, "lat": 18.8207284, "lon": -72.5392531, "tags": {"addr:country": "HT", "amenity": "hospital", "health_facility:bed": "no", "health_facility:type": "health_center", "name": "SADA MATHEUX", "operator": "SADA", "paho:commune": "Arcahaie", "paho:commune_id": "41", "paho:department": "OUEST", "paho:district_id": "4", "paho:id": "1410151", "paho:region_id": "1", "paho:type": "PRI", "pcode": "14103", "source:health_facility": "ME/MSPP2010; 2005 MSPP database with geocodes"}}, {"type": "node", "id": 629031296, "lat": 18.5223046, "lon": -72.4153628, "tags": {"FIXME": "unknown_health_facility", "addr:country": "HT", "amenity": "hospital", "hfac_bed": "yes", "hfac_type": "field hospital", "name": "SANTE POUR TOUS", "operator": "PIERRE LOUIS", "paho:commune": "CARREFOUR", "paho:commune_id": "13", "paho:department": "OUEST", "paho:district_id": "1", "paho:id": "1139030", "paho:region_id": "1", "pcode": "95129", "source:health_facility": "2005 MSPP database with geocodes"}}, {"type": "node", "id": 629031297, "lat": 18.5402264, "lon": -72.401242, "tags": {"FIXME": "unknown_health_facility", "addr:country": "HT", "amenity": "hospital", "hfac_bed": "yes", "hfac_type": "field hospital", "name": "MAIN DE DIEU", "operator": "THOMAS", "paho:commune": "CARREFOUR", "paho:commune_id": "13", "paho:department": "OUEST", "paho:district_id": "1", "paho:id": "1139026", "paho:region_id": "1", "paho:type": "PRI", "pcode": "11328", "source:health_facility": "ME/MSPP2010; 2005 MSPP database with geocodes"}}, {"type": "node", "id": 629031298, "lat": 18.5198502, "lon": -72.3833556, "tags": {"addr:country": "HT", "amenity": "hospital", "hfac_bed": "yes", "hfac_type": "field hospital", "name": "CENTRE DE SANTE OPA", "paho:commune": "CARREFOUR", "paho:commune_id": "13", "paho:department": "OUEST", "paho:district_id": "1", "paho:id": "1139007", "paho:region_id": "1", "pcode": "95128", "source:health_facility": "2005 MSPP database with geocodes"}}, {"type": "node", "id": 629031299, "lat": 18.5400285, "lon": -72.4203887, "tags": {"addr:country": "HT", "amenity": "hospital", "hfac_bed": "yes", "hfac_type": "field hospital", "name": "DISPENSAIRE MARIE LOUISE DE JESUS", "operator": "Soeur Lucie", "paho:commune": "CARREFOUR", "paho:commune_id": "13", "paho:department": "OUEST", "paho:district_id": "1", "paho:id": "1130195", "paho:region_id": "1", "paho:type": "PRI", "pcode": "11321", "source:health_facility": "ME/MSPP2010; 2005 MSPP database with geocodes"}}, {"type": "node", "id": 629031300, "lat": 18.5306653, "lon": -72.4112798, "tags": {"addr:country": "HT", "amenity": "hospital", "hfac_bed": "yes", "hfac_type": "field hospital", "name": "CENTRE DE SANTE BETHESDA", "operator": "LA CROIX J", "paho:commune": "CARREFOUR", "paho:commune_id": "13", "paho:department": "OUEST", "paho:district_id": "1", "paho:id": "1139002", "paho:region_id": "1", "pcode": "95133", "source:health_facility": "2005 MSPP database with geocodes"}}, {"type": "node", "id": 629031301, "lat": 18.5333444, "lon": -72.3887547, "tags": {"addr:country": "HT", "amenity": "hospital", "hfac_bed": "yes", "hfac_type": "field hospital", "name": "Centre m\u00e9dico-social Antoine Lavoisier", "operator": "GINDEC", "paho:commune": "CARREFOUR", "paho:commune_id": "13", "paho:department": "OUEST", "paho:district_id": "1", "paho:id": "1139012", "paho:region_id": "1", "pcode": "95135", "source:health_facility": "2005 MSPP database with geocodes"}}, {"type": "node", "id": 629031302, "lat": 18.5321845, "lon": -72.4131307, "tags": {"addr:country": "HT", "amenity": "hospital", "hfac_bed": "yes", "hfac_type": "field hospital", "name": "Centre philadelphie m\u00e9dicale et dentaire", "operator": "AMAP", "paho:commune": "CARREFOUR", "paho:commune_id": "13", "paho:department": "OUEST", "paho:district_id": "1", "paho:id": "1139013", "paho:region_id": "1", "pcode": "95132", "source:health_facility": "2005 MSPP database with geocodes"}}, {"type": "node", "id": 629031303, "lat": 18.5338732, "lon": -72.4009027, "tags": {"addr:country": "HT", "amenity": "hospital", "hfac_bed": "yes", "hfac_type": "field hospital", "name": "Hopital canadien LA VIGNE", "operator": "DR HYPPOLITE JEAN WESNER", "paho:commune": "CARREFOUR", "paho:commune_id": "13", "paho:department": "OUEST", "paho:district_id": "1", "paho:id": "1139023", "paho:region_id": "1", "pcode": "95139", "source:health_facility": "2005 MSPP database with geocodes"}}, {"type": "node", "id": 629031305, "lat": 18.5286455, "lon": -72.4121623, "tags": {"addr:country": "HT", "amenity": "hospital", "hfac_bed": "yes", "hfac_type": "field hospital", "name": "Centre de sant\u00e9 La main tendue", "operator": "FONDEFH", "paho:commune": "CARREFOUR", "paho:commune_id": "13", "paho:department": "OUEST", "paho:district_id": "1", "paho:id": "1139005", "paho:region_id": "1", "pcode": "95130", "source:health_facility": "2005 MSPP database with geocodes"}}, {"type": "node", "id": 629031307, "lat": 18.5183565, "lon": -72.4126012, "tags": {"addr:country": "HT", "amenity": "hospital", "healthcare": "hospital", "hfac_bed": "yes", "hfac_type": "field hospital", "name": "CENTRE MEDICO - SOCIAL DE LA RIVIERE FROIDE", "operator": "MSPP", "paho:commune": "CARREFOUR", "paho:commune_id": "13", "paho:department": "OUEST", "paho:district_id": "1", "paho:id": "1139011", "paho:region_id": "1", "pcode": "95131", "source:health_facility": "2005 MSPP database with geocodes"}}, {"type": "node", "id": 629031309, "lat": 18.7361558, "lon": -72.4189792, "tags": {"addr:country": "HT", "amenity": "hospital", "health_facility:bed": "no", "health_facility:type": "health_center", "name": "Centre de Sant\u00e9 de Cabaret", "operator": "MSPP", "paho:commune": "CABARET", "paho:commune_id": "42", "paho:department": "OUEST", "paho:district_id": "4", "paho:id": "1420181", "paho:region_id": "1", "paho:type": "PUB", "pcode": "14202", "source:health_facility": "ME/MSPP2010; 2005 MSPP database with geocodes"}}, {"type": "node", "id": 629031312, "lat": 18.7971481, "lon": -72.3852333, "tags": {"addr:country": "HT", "amenity": "hospital", "health_facility:type": "dispensary", "name": "DISPENSAIRE DE CASALE", "paho:commune": "CABARET", "paho:commune_id": "42", "paho:department": "OUEST", "paho:district_id": "4", "paho:id": "1420154", "paho:region_id": "1", "paho:type": "PUB", "pcode": "14203", "source:health_facility": "ME/MSPP2010; 2005 MSPP database with geocodes"}}, {"type": "node", "id": 629031316, "lat": 18.7213787, "lon": -72.3739571, "tags": {"addr:country": "HT", "amenity": "hospital", "health_facility:bed": "no", "health_facility:type": "health_center", "name": "CENTRE DE SANTE SADA DE SOURCE MATELAS", "operator": "SADA", "paho:commune": "CABARET", "paho:commune_id": "42", "paho:department": "OUEST", "paho:district_id": "4", "paho:id": "1420180", "paho:region_id": "1", "paho:type": "PRI", "pcode": "14201", "source:health_facility": "ME/MSPP2010; 2005 MSPP database with geocodes"}}, {"type": "node", "id": 629031317, "lat": 19.4102119, "lon": -72.4783435, "tags": {"addr:country": "HT", "amenity": "hospital", "hfac_type": "dispensary", "name": "DISPENSAIRE DE BAYONNAIS", "operator": "MSPP", "paho:commune": "Gona\u00efves", "paho:commune_id": "11", "paho:department": "ARTIBONITE", "paho:district_id": "1", "paho:id": "5110168", "paho:region_id": "5", "paho:type": "PUB", "pcode": "51102", "source:health_facility": "ME/MSPP2010; 2005 MSPP database with geocodes"}},