{"version": 0.6, "generator": "Overpass API 0.7.61.5 4133829e", "osm3s": {"timestamp_osm_base": "2023-10-31T20:52:36Z", "copyright": "The data included in this document is from www.openstreetmap.org. The data is made available under ODbL."}, "elements": [{"type": "node", "id": 391930266, "lat": 14.1083176, "lon": -87.2084936, "tags": {"amenity": "hospital", "emergency": "yes", "healthcare": "hospital", "healthcare:speciality": "general", "name": "IHSS Bario Abajo"}}, {"type": "node", "id": 443211907, "lat": 13.7101817, "lon": -89.2025771, "tags": {"amenity": "hospital", "healthcare": "hospital", "name": "Hospital Centro de Diagn\u00f3stico", "wheelchair": "yes"}}, {"type": "node", "id": 443212089, "lat": 13.7085306, "lon": -89.2012553, "tags": {"amenity": "hospital", "healthcare": "hospital", "name": "Hospital de Emergencias"}}, {"type": "node", "id": 444629522, "lat": 13.7141411, "lon": -89.1405632, "tags": {"amenity": "hospital", "healthcare": "hospital", "healthcare:speciality": "general", "name": "Unidad de FOSALUD"}}, {"type": "node", "id": 472563369, "lat": 14.1567712, "lon": -87.0474049, "tags": {"amenity": "hospital", "name": "Hospital Adventista"}}, {"type": "node", "id": 529869122, "lat": 14.1075614, "lon": -87.1917709, "tags": {"amenity": "hospital", "emergency": "no", "name": "Centro de Salud el Manchen"}}, {"type": "node", "id": 566218708, "lat": 19.2896265, "lon": -81.3807844, "tags": {"addr:country": "KY", "amenity": "hospital", "key": "George Town Hospital", "name": "Health Services Authority", "source": "KG Ground Survey 2015"}}, {"type": "node", "id": 633117211, "lat": 13.6853511, "lon": -89.1918331, "tags": {"amenity": "hospital", "name": "Fosalud San Jacinto"}}, {"type": "node", "id": 633120249, "lat": 13.6910768, "lon": -89.1676531, "tags": {"amenity": "hospital", "name": "Unidad de Salud Amatepec"}}, {"type": "node", "id": 643433311, "lat": 19.7453326, "lon": -89.8443514, "tags": {"amenity": "hospital", "name": "Hospital de Hopelchen"}}, {"type": "node", "id": 661971230, "lat": 13.7246396, "lon": -89.3685931, "tags": {"amenity": "hospital", "name": "Hospital San Mateo"}}, {"type": "node", "id": 706680676, "lat": 10.0130712, "lon": -84.1200635, "tags": {"amenity": "hospital", "name": "Cl\u00ednica Dental Dr R. S\u00e1nchez UCR"}}, {"type": "node", "id": 732512374, "lat": 15.3934676, "lon": -87.7899389, "tags": {"amenity": "hospital", "healthcare": "hospital", "name": "Hopital El Progreso"}}, {"type": "node", "id": 732591880, "lat": 15.3980783, "lon": -87.8144287, "tags": {"amenity": "hospital", "name": "Cl\u00ednica Barrientos Maradiaga"}}, {"type": "node", "id": 761599457, "lat": 15.5086022, "lon": -88.0262829, "tags": {"amenity": "hospital", "name": "Centro de Diagn\u00f3stico Cl\u00ednico"}}, {"type": "node", "id": 772399137, "lat": 10.0637731, "lon": -84.3142895, "tags": {"amenity": "hospital", "name": "Cl\u00ednica Axis (Quiropractica)"}}, {"type": "node", "id": 806528008, "lat": 12.1052555, "lon": -85.3726721, "tags": {"amenity": "hospital", "name": "Cemeqsa"}}, {"type": "node", "id": 828504685, "lat": 12.1083099, "lon": -85.3660126, "tags": {"amenity": "hospital", "name": "Cl\u00ednica San Ramon"}}, {"type": "node", "id": 935819775, "lat": 12.1343752, "lon": -86.2819919, "tags": {"amenity": "hospital", "healthcare": "hospital", "operator": "MediCl\u00ednica"}}, {"type": "node", "id": 1098531974, "lat": 15.3113142, "lon": -89.8821681, "tags": {"amenity": "hospital"}}, {"type": "node", "id": 1098600981, "lat": 15.4159029, "lon": -89.822671, "tags": {"amenity": "hospital"}}, {"type": "node", "id": 1098610166, "lat": 15.3931371, "lon": -89.6466322, "tags": {"amenity": "hospital"}}, {"type": "node", "id": 1098610192, "lat": 15.4539921, "lon": -89.5589455, "tags": {"amenity": "hospital"}}, {"type": "node", "id": 1099996900, "lat": 15.3178698, "lon": -89.8766653, "tags": {"amenity": "hospital"}}, {"type": "node", "id": 1264393801, "lat": 15.5793424, "lon": -89.976378, "tags": {"amenity": "hospital"}}, {"type": "node", "id": 1336002140, "lat": 13.363576, "lon": -86.4005688, "tags": {"amenity": "hospital"}}, {"type": "node", "id": 1378706398, "lat": 14.8403003, "lon": -89.1538847, "tags": {"amenity": "hospital", "name": "Cruz Roja"}}, {"type": "node", "id": 1510457850, "lat": 13.6735111, "lon": -89.2421002, "tags": {"amenity": "hospital", "name": "Cl\u00ednica Comunal", "source": "KG Ground Survey 2016"}}, {"type": "node", "id": 1551187823, "lat": 13.8433706, "lon": -89.7448357, "tags": {"amenity": "hospital", "name": "Cl\u00ednica Veterinaria el Efuerzo"}}, {"type": "node", "id": 1551215081, "lat": 13.84448, "lon": -89.745517, "tags": {"amenity": "hospital", "name": "Seguro Social de Juayua ISSS"}}, {"type": "node", "id": 1691350075, "lat": 14.0962905, "lon": -87.1934482, "tags": {"amenity": "hospital", "name": "Laboratorios Clinicos express"}}, {"type": "node", "id": 1719342702, "lat": 12.1173765, "lon": -86.2481266, "tags": {"amenity": "hospital", "designation": "Medicina Oriental", "emergency": "no", "healthcare": "hospital", "name": "Tanyari"}}, {"type": "node", "id": 1748811798, "lat": 12.1149245, "lon": -86.2651668, "tags": {"amenity": "hospital", "name": "Hospital Monte Espa\u00f1a", "source": "survey"}}, {"type": "node", "id": 1785289760, "lat": 11.129037, "lon": -84.7771691, "tags": {"amenity": "hospital", "emergency": "yes", "name": "Hospital Luis Felipe Moncada", "old_name": "Hospital Salvadorita"}}, {"type": "node", "id": 1797752903, "lat": 12.1253479, "lon": -86.2700001, "tags": {"amenity": "hospital", "name": "UCA Clinic"}}, {"type": "node", "id": 1827676412, "lat": 12.5319659, "lon": -85.7095461, "tags": {"amenity": "hospital", "emergency": "yes", "name": "Centro de Salud Santa Lucia"}}, {"type": "node", "id": 1827990522, "lat": 13.2063049, "lon": -86.1120433, "tags": {"amenity": "hospital", "name": "Centro de Salud Odorico D Andrea"}}, {"type": "node", "id": 1917639995, "lat": 13.8703412, "lon": -89.8518391, "tags": {"amenity": "hospital", "designation": "Unidad de Salud", "emergency": "yes", "name": "Unidad de Salud"}}, {"type": "node", "id": 1941944318, "lat": 13.6701638, "lon": -89.2780711, "tags": {"amenity": "hospital", "healthcare": "hospital", "name": "Edificio Anexo Hospital San Rafael"}}, {"type": "node", "id": 1974005866, "lat": 13.7226235, "lon": -88.3623518, "tags": {"amenity": "hospital", "name": "Centro Asistencial de Salud"}}, {"type": "node", "id": 1979401740, "lat": 14.6348692, "lon": -89.985394, "tags": {"amenity": "hospital", "emergency": "yes", "name": "Hospital Nicolasa Cruz"}}, {"type": "node", "id": 2071092970, "lat": 13.6786622, "lon": -89.1991674, "tags": {"amenity": "hospital", "emergency": "no", "name": "Asilo de Ancianos Sara Zald\u00edvar"}}, {"type": "node", "id": 2072315429, "lat": 13.9834149, "lon": -89.5611765, "tags": {"amenity": "hospital", "name": "Centro M\u00e9dico"}}, {"type": "node", "id": 2072455927, "lat": 13.7072503, "lon": -89.2011858, "tags": {"amenity": "hospital", "emergency": "no", "healthcare": "hospital", "name": "Instituto de Ojos"}}, {"type": "node", "id": 2072455931, "lat": 13.7080581, "lon": -89.2010356, "tags": {"amenity": "hospital", "emergency": "yes", "healthcare": "hospital", "helipad": "no", "name": "Hospital Centro Pedi\u00e1trico"}}, {"type": "node", "id": 2111142069, "lat": 16.9138719, "lon": -89.8979578, "tags": {"amenity": "hospital", "emergency": "yes", "name": "Hospital Privado"}}, {"type": "node", "id": 2117357673, "lat": 13.6378306, "lon": -89.3793289, "tags": {"amenity": "hospital"}}, {"type": "node", "id": 2124165116, "lat": 12.4148479, "lon": -85.7512458, "tags": {"amenity": "hospital", "designation": "Puesto M\u00e9dico", "emergency": "no", "name": "Centro De Salud", "source": "MINSA"}}, {"type": "node", "id": 2141466262, "lat": 12.4150088, "lon": -85.7452114, "tags": {"amenity": "hospital"}}, {"type": "node", "id": 2145581425, "lat": 15.7346677, "lon": -89.0785221, "tags": {"amenity": "hospital"}}, {"type": "node", "id": 2163840202, "lat": 15.6637633, "lon": -89.0123366, "tags": {"amenity": "hospital", "name": "Centro M\u00e9dico"}}, {"type": "node", "id": 2201419558, "lat": 13.7590595, "lon": -86.0233589, "tags": {"amenity": "hospital"}}, {"type": "node", "id": 2269953889, "lat": 14.6343673, "lon": -89.9850945, "tags": {"amenity": "hospital", "designation": "Radiologist", "emergency": "no", "name": "Clini Rad"}}, {"type": "node", "id": 2340083843, "lat": 15.114584, "lon": -89.3539493, "tags": {"amenity": "hospital", "emergency": "yes"}}, {"type": "node", "id": 2340083845, "lat": 15.1163655, "lon": -89.3559556, "tags": {"amenity": "hospital", "emergency": "yes"}}, {"type": "node", "id": 2342008660, "lat": 12.135459, "lon": -86.2838892, "tags": {"amenity": "hospital", "emergency": "yes", "healthcare": "hospital", "name": "Hospital de Especialidades"}}, {"type": "node", "id": 2342575864, "lat": 16.097891, "lon": -86.897612, "tags": {"amenity": "hospital", "name": "Utila Community Clinic"}}, {"type": "node", "id": 2372652368, "lat": 12.1638868, "lon": -84.2190622, "tags": {"addr:city": "Rama", "addr:street": "5a Calle NE", "amenity": "hospital", "emergency": "yes", "healthcare": "hospital"}}, {"type": "node", "id": 2387635842, "lat": 13.8094304, "lon": -89.228967, "tags": {"amenity": "hospital", "emergency": "no", "healthcare": "hospital", "name": "UNIDAD DE SALUD DE NEJAPA"}}, {"type": "node", "id": 2397753644, "lat": 12.1251147, "lon": -86.2244902, "tags": {"amenity": "hospital", "healthcare": "hospital", "name": "Centro de salud Primero de Mayo"}}, {"type": "node", "id": 2449663456, "lat": 12.4373014, "lon": -86.8768785, "tags": {"amenity": "hospital", "name": "Farmacia Le\u00f3n"}}, {"type": "node", "id": 2491505142, "lat": 12.1383102, "lon": -86.2385345, "tags": {"amenity": "hospital", "name": "Puesto de Salud M\u00e1rtires de Julio"}}, {"type": "node", "id": 2539247394, "lat": 11.9151976, "lon": -86.1434597, "tags": {"amenity": "hospital", "name": "Hospital Cruz Azul"}}, {"type": "node", "id": 2560859511, "lat": 11.4916488, "lon": -85.8520629, "tags": {"amenity": "hospital", "name": "Centro de Salud Guadelupe"}}, {"type": "node", "id": 2601969391, "lat": 13.4771514, "lon": -88.1829557, "tags": {"amenity": "hospital", "name": "Hospital de Especialidades"}}, {"type": "node", "id": 2633057081, "lat": 12.1433371, "lon": -86.232672, "tags": {"amenity": "hospital", "building": "yes", "name": "M\u00e9dicos Unidos", "note": "CERRADO"}}, {"type": "node", "id": 2633184884, "lat": 12.8354446, "lon": -85.4605396, "tags": {"amenity": "hospital", "name": "Hospital Primario San Jos\u00e9"}}, {"type": "node", "id": 2782561554, "lat": 12.1247968, "lon": -86.3107371, "tags": {"amenity": "hospital", "name": "Cruz Roja"}}, {"type": "node", "id": 2782561950, "lat": 12.1386075, "lon": -86.3089043, "tags": {"amenity": "hospital", "name": "Hospital Psiqui\u00e1trico Nacional", "operator": "Ministerio de Salud"}}, {"type": "node", "id": 2782574038, "lat": 12.105608, "lon": -86.2225437, "tags": {"amenity": "hospital", "healthcare": "hospital", "name": "Centro de Salud Salom\u00f3n Moreno"}}, {"type": "node", "id": 2809112460, "lat": 13.3382435, "lon": -87.8426338, "tags": {"amenity": "hospital", "emergency": "yes", "name": "Cl\u00ednica del ISSS"}}, {"type": "node", "id": 3108656894, "lat": 11.842517, "lon": -86.2009729, "tags": {"amenity": "hospital", "name": "HOSPITAL SANTIAGO", "source": "Map Note by anonymous"}}, {"type": "node", "id": 3143533449, "lat": 12.1692844, "lon": -83.0541104, "tags": {"amenity": "hospital", "emergency": "yes", "healthcare": "hospital", "name": "Corn Island Health Center", "source": "GPS"}}, {"type": "node", "id": 3157327771, "lat": 14.0315409, "lon": -83.3797164, "tags": {"amenity": "hospital", "healthcare": "hospital", "name": "Cruz Roja"}}, {"type": "node", "id": 3159337724, "lat": 14.8180467, "lon": -88.938533, "tags": {"amenity": "hospital"}}, {"type": "node", "id": 3159585371, "lat": 14.8186966, "lon": -88.9366574, "tags": {"amenity": "hospital"}}, {"type": "node", "id": 3175000579, "lat": 14.0333802, "lon": -83.4049186, "tags": {"amenity": "hospital", "healthcare": "hospital", "name": "Hospital Consultorio El Verbo", "operator": "Iglesia el Verbo"}}, {"type": "node", "id": 3177970030, "lat": 15.5160218, "lon": -88.0288374, "tags": {"addr:city": "San Pedro Sula", "addr:housenumber": "12-13 Calle", "addr:postcode": "21102", "addr:street": "10 Avenida NO", "amenity": "hospital", "healthcare": "hospital", "healthcare:speciality": "general;gynaecology;paediatrics;dermatology;psychiatry;urology", "name": "Cl\u00ednicas los Andes"}}, {"type": "node", "id": 3223652852, "lat": 15.8281482, "lon": -88.7522132, "tags": {"amenity": "hospital", "healthcare": "hospital", "name": "Farmacia y Cl\u00ednica Cat\u00f3lica", "source": "Reconocimiento cartogr\u00e1fico por KG 2016."}}, {"type": "node", "id": 3223652853, "lat": 15.8276708, "lon": -88.7483434, "tags": {"amenity": "hospital", "healthcare": "hospital", "name": "Centro de Salud"}}, {"type": "node", "id": 3284561522, "lat": 15.3122675, "lon": -88.4397402, "tags": {"amenity": "hospital", "name": "hospital"}}, {"type": "node", "id": 3299656690, "lat": 13.7067767, "lon": -89.2340732, "tags": {"amenity": "hospital", "emergency": "yes", "name": "Priority Emergencias Medicas Salvadore\u00f1as", "opening_hours": "24/7"}}, {"type": "node", "id": 3308756003, "lat": 14.8016989, "lon": -89.5363949, "tags": {"amenity": "hospital", "name": "Hospital Modular de Chiquimula"}}, {"type": "node", "id": 3407489803, "lat": 15.6182834, "lon": -86.2720533, "tags": {"amenity": "hospital", "name": "Community Health Center"}}, {"type": "node", "id": 3413714208, "lat": 12.0087242, "lon": -83.7645211, "tags": {"amenity": "hospital", "healthcare": "hospital", "name": "Cruz Roja"}}, {"type": "node", "id": 3413714231, "lat": 12.0082917, "lon": -83.7647177, "tags": {"addr:city": "Bluefields", "addr:street": "Avenida F\u00e1tima", "alt_name": "Puesto de Salud Lea Bracket", "amenity": "hospital", "healthcare": "hospital", "name": "Centro de Salud Lea Bracket", "operator:type": "public"}}, {"type": "node", "id": 3745063559, "lat": 18.6785087, "lon": -88.3886381, "tags": {"amenity": "hospital", "healthcare": "hospital", "name": "Hospital Integral de Bacalar", "source": "INEGI"}}, {"type": "node", "id": 3794782914, "lat": 14.0136776, "lon": -88.9419111, "tags": {"amenity": "hospital", "emergency": "yes", "name": "Unidad de Salud - San Miguel de Mercedes"}}, {"type": "node", "id": 3888086356, "lat": 11.9827219, "lon": -86.0789187, "tags": {"amenity": "hospital", "name": "Puesto de salud de La Villa"}}, {"type": "node", "id": 3921138442, "lat": 14.7402203, "lon": -83.9711824, "tags": {"addr:city": "Waspam", "amenity": "hospital", "name": "Hospital"}}, {"type": "node", "id": 3946179233, "lat": 14.4566612, "lon": -87.6354162, "tags": {"addr:street": "Calle Cero Este", "airconditioned": "yes", "amenity": "hospital", "emergency": "yes", "healthcare": "hospital", "name": "Hospital del Valle", "payment:cash": "yes", "payment:credit_cards": "yes", "phone": "+2772-2221", "wheelchair": "yes"}}, {"type": "node", "id": 3969266274, "lat": 13.3374071, "lon": -87.8395559, "tags": {"amenity": "hospital", "name": "Hospital Nacional", "source": "KG Ground Survey 2016"}}, {"type": "node", "id": 3971789068, "lat": 13.6950674, "lon": -88.102132, "tags": {"amenity": "hospital", "source": "KG Ground Survey 2016"}}, {"type": "node", "id": 3972359344, "lat": 13.4807254, "lon": -88.4654792, "tags": {"amenity": "hospital", "name": "Hospital ISSS", "source": "Centro Nacional de Registros"}}, {"type": "node", "id": 3972513408, "lat": 13.8029439, "lon": -89.165915, "tags": {"amenity": "hospital", "name": "Unidad de Salud", "source": "KG Ground Survey 2016"}}, {"type": "node", "id": 3972809679, "lat": 13.5121895, "lon": -88.3469412, "tags": {"addr:city": "Chinameca", "amenity": "hospital", "name": "ISSS", "source": "KG Ground Survey 2016"}}, {"type": "node", "id": 3972809696, "lat": 13.5113885, "lon": -88.3478544, "tags": {"addr:city": "Chinameca", "amenity": "hospital", "name": "Cruz Roja", "source": "KG Ground Survey 2016"}}, {"type": "node", "id": 3972932191, "lat": 13.5377068, "lon": -88.3491298, "tags": {"amenity": "hospital", "name": "Hospital Nacional", "source": "KG Ground Survey 2016"}}, {"type": "node", "id": 3974043575, "lat": 13.3190854, "lon": -88.5720946, "tags": {"amenity": "hospital", "name": "Hospital Nacional", "source": "Centro Nacional de Registros"}}, {"type": "node", "id": 3977361473, "lat": 13.3401737, "lon": -88.4343285, "tags": {"amenity": "hospital", "emergency": "yes", "name": "Cl\u00ednica del Seguro Social"}}, {"type": "node", "id": 4001704837, "lat": 13.0833965, "lon": -86.3583144, "tags": {"amenity": "hospital", "name": "centro de salud eduardo selva"}}, {"type": "node", "id": 4026595195, "lat": 13.6297149, "lon": -86.4748131, "tags": {"amenity": "hospital", "healthcare": "hospital", "name": "Centro de Salud Ocotal"}}, {"type": "node", "id": 4033951128, "lat": 13.4718644, "lon": -88.1828448, "tags": {"amenity": "hospital", "fixme": "yes", "name": "Unidad M\u00e9dica ISSS", "note": "please verify location", "source": "Centro Nacional de Registros"}}, {"type": "node", "id": 4072664247, "lat": 13.9667512, "lon": -89.6343178, "tags": {"addr:city": "San Sebastian Salitrillo", "amenity": "hospital", "name": "Unidad de Sal\u00fad"}}, {"type": "node", "id": 4084402565, "lat": 13.7871422, "lon": -89.3724734, "tags": {"amenity": "hospital", "name": "Unidad de Salud"}}, {"type": "node", "id": 4129248326, "lat": 13.1775224, "lon": -87.6960319, "tags": {"addr:city": "Meanguera del Golfo", "amenity": "hospital", "name": "Unidad de Salud"}}, {"type": "node", "id": 4129248327, "lat": 13.1773156, "lon": -87.696161, "tags": {"addr:city": "Meanguera del Golfo", "amenity": "hospital", "name": "Unidad de Salud"}}, {"type": "node", "id": 4144720289, "lat": 11.9024526, "lon": -86.2574321, "tags": {"amenity": "hospital", "name": "Puesto de Salud Marvin Corrales", "opening_hours": "Mo-Fr"}}, {"type": "node", "id": 4158571592, "lat": 15.499738, "lon": -88.0307747, "tags": {"amenity": "hospital", "name": "Hospital Leonardo Martinez"}}, {"type": "node", "id": 4161805532, "lat": 12.8931739, "lon": -86.535774, "tags": {"amenity": "hospital", "emergency": "yes", "healthcare": "hospital", "name": "Hospital Primario El Sauce", "opening_hours": "24/7"}}, {"type": "node", "id": 4193810499, "lat": 11.8431492, "lon": -86.1973653, "tags": {"addr:street": "Calle Central", "amenity": "hospital", "name": "Servicios M\u00e9dicos Especializados Hospital Carazo"}}, {"type": "node", "id": 4194539089, "lat": 13.9929151, "lon": -89.5565094, "tags": {"addr:city": "Santa Ana", "addr:street": "1 Avenida Sur", "amenity": "hospital", "name": "Cruz Roja Salvadore\u00f1a"}}, {"type": "node", "id": 4203416843, "lat": 15.7806649, "lon": -86.7925523, "tags": {"amenity": "hospital", "healthcare": "hospital", "name": "Hospital Oft\u00e1lmico Ponce", "source": "Reconocimiento cartogr\u00e1fico por KG 2016."}}, {"type": "node", "id": 4220232489, "lat": 12.1364491, "lon": -86.2672096, "tags": {"amenity": "hospital", "name": "Centro De Salud Roberto Herrera Rios", "opening_hours": "24/7", "operator": "MINSA"}}, {"type": "node", "id": 4231628646, "lat": 13.3664129, "lon": -85.6721065, "tags": {"amenity": "hospital", "emergency": "yes", "name": "Hospital del Cu\u00e1 - H\u00e9roes y M\u00e1rtires de la Revoluci\u00f3n", "operator": "MINSA"}}, {"type": "node", "id": 4236618390, "lat": 13.6365566, "lon": -89.1232837, "tags": {"amenity": "hospital", "name": "Centro Medico SHALOM"}}, {"type": "node", "id": 4242443389, "lat": 14.631448, "lon": -89.43903, "tags": {"amenity": "hospital", "name": "Centro de Salud ", "opening_hours": "Mo-Fr 08:00-17:00"}}, {"type": "node", "id": 4270381164, "lat": 11.5114226, "lon": -85.5543834, "tags": {"amenity": "hospital", "name": "Centro de Salud", "operator": "Ometepe-Projekt Nicaragua", "website": "https://ometepe-projekt-nicaragua.de/"}}, {"type": "node", "id": 4272703090, "lat": 12.4913411, "lon": -87.178696, "tags": {"amenity": "hospital", "name": "Rvdo Jose Shendell"}}, {"type": "node", "id": 4297087489, "lat": 12.0277719, "lon": -86.2027986, "tags": {"amenity": "hospital", "name": "Hospital amistad M\u00e9xico Nicaragua"}}, {"type": "node", "id": 4342021056, "lat": 13.6852248, "lon": -89.1337796, "tags": {"addr:street": "Calle Circunvalaci\u00f3n", "amenity": "hospital", "name": "Unidad de Salud Colonia Santa Lucia"}}, {"type": "node", "id": 4363772912, "lat": 14.2076344, "lon": -89.3529889, "tags": {"amenity": "hospital", "name": "Unidad de Salud"}}, {"type": "node", "id": 4396908589, "lat": 14.025957, "lon": -84.6194405, "tags": {"addr:city": "Bonanza", "alt_name": "Hospital Municipal", "amenity": "hospital", "name": "Hospital Esteban J\u00e1enz Serrano"}}, {"type": "node", "id": 4428362826, "lat": 13.0837417, "lon": -85.998391, "tags": {"addr:city": "Jinotega", "amenity": "hospital", "healthcare": "hospital", "name": "Centro de Salud San Judas"}}, {"type": "node", "id": 4434939289, "lat": 14.6017029, "lon": -87.8443318, "tags": {"amenity": "hospital", "name": "Hospital Evangelico", "name:es": "Hospital Evangelico"}}, {"type": "node", "id": 4441309147, "lat": 13.6867511, "lon": -89.2106029, "tags": {"amenity": "hospital", "name": "ISSS Monserrat"}}, {"type": "node", "id": 4446729548, "lat": 13.5679965, "lon": -89.1178576, "tags": {"addr:city": "Olocuilta", "amenity": "hospital", "name": "Unidad de Salud"}}, {"type": "node", "id": 4492890299, "lat": 18.0936935, "lon": -88.5626063, "tags": {"amenity": "hospital", "healthcare": "hospital", "name": "Emergency Room"}}, {"type": "node", "id": 4543244889, "lat": 12.968568, "lon": -86.2359797, "tags": {"addr:street": "Calle Central", "amenity": "hospital", "name": "Centr\u00f3 de salud La Trinidad", "name:es": "Centr\u00f3 de salud La Trinidad", "opening_hours": "Mo-Fr 07:00-17:00"}}, {"type": "node", "id": 4574372689, "lat": 16.5071555, "lon": -89.4183488, "tags": {"amenity": "hospital", "name": "Centro de Salud, Dolores Peten", "name:es": "Centro de Salud, Dolores Peten", "opening_hours": "Mo-Fr 08:00-16:30"}}, {"type": "node", "id": 4588576096, "lat": 14.036823, "lon": -83.3793835, "tags": {"amenity": "hospital", "healthcare": "hospital", "name": "Casa Albergue Nueva Vida (Sida Cl\u00ednica)"}}, {"type": "node", "id": 4592749093, "lat": 15.6144355, "lon": -87.9580247, "tags": {"FIXME": "Need exact location.", "addr:street": "Autopista SPS-Puerto Cortes N->S", "amenity": "hospital", "name": "Seguro Social Choloma Cortes", "name:es": "Seguro Social Choloma Cortes", "opening_hours": "24/7"}}, {"type": "node", "id": 4593508802, "lat": 13.1123117, "lon": -84.1875773, "tags": {"addr:street": "central", "amenity": "hospital", "name": "Puesto de salud", "name:es": "Puesto de salud", "opening_hours": "Mo-Fr 08:00-04:00"}}, {"type": "node", "id": 4600859790, "lat": 13.3832008, "lon": -86.4837481, "tags": {"amenity": "hospital", "name": "hospital primario monse\u00f1or Videa", "name:en": "hospital monse\u00f1or Videa"}}, {"type": "node", "id": 4609673502, "lat": 15.4999005, "lon": -88.038406, "tags": {"amenity": "hospital", "name": "Hospital Benda\u00f1a"}}, {"type": "node", "id": 4658168590, "lat": 13.521976, "lon": -85.549934, "tags": {"addr:street": "NN-66 El Cu\u00e1 - San Jos\u00e9 de Bocay", "amenity": "hospital", "name": "Ni\u00f1os M\u00e1rtires de Ayapa", "name:es": "Ni\u00f1os M\u00e1rtires de Ayapa", "opening_hours": "24/7"}}, {"type": "node", "id": 4673822989, "lat": 16.7399183, "lon": -89.901378, "tags": {"amenity": "hospital", "name": "Puesto de Salud Eben Ezer, San Francisco", "name:es": "Puesto de Salud Eben Ezer, San Francisco"}}, {"type": "node", "id": 4673823489, "lat": 16.624101, "lon": -89.8746376, "tags": {"amenity": "hospital", "name": "Puesto de Salud, San Valent\u00edn", "name:es": "Puesto de Salud, San Valent\u00edn"}}, {"type": "node", "id": 4673824089, "lat": 16.5529209, "lon": -89.9420575, "tags": {"amenity": "hospital", "name": "Puesto de salud, Cooperativa Tecun Uman", "name:es": "Puesto de salud, Cooperativa Tecun Uman"}}, {"type": "node", "id": 4680561090, "lat": 16.5856769, "lon": -89.8454408, "tags": {"amenity": "hospital", "name": "Puesto de Salud, Santa Teresa", "name:es": "Puesto de Salud, Santa Teresa"}}, {"type": "node", "id": 4741922526, "lat": 14.5990698, "lon": -87.8396053, "tags": {"addr:street": "2 Calle NO", "amenity": "hospital", "name": "Centro de Especialidades Medicas", "name:es": "Centro de Especialidades Medicas", "phone": "27736429"}}, {"type": "node", "id": 4775057927, "lat": 13.6229267, "lon": -87.8940705, "tags": {"amenity": "hospital", "name": "Hospital de Especialidades Santa Rosa de Lima", "name:es": "Hospital de Especialidades Santa Rosa de Lima"}}, {"type": "node", "id": 4844268703, "lat": 18.5513207, "lon": -88.2587518, "tags": {"addr:street": "Calle Sonora", "amenity": "hospital", "healthcare": "hospital", "name": "State run Medical Clinic"}}, {"type": "node", "id": 4870533222, "lat": 15.5082646, "lon": -88.0321194, "tags": {"amenity": "hospital", "name": "Centro de la Mujer Monte de Sion", "name:es": "Hospital de la Mujer Monte de Sion"}}, {"type": "node", "id": 4959276694, "lat": 13.5012659, "lon": -88.9227234, "tags": {"amenity": "hospital", "name": "Unidad de Salud"}}, {"type": "node", "id": 4988661166, "lat": 13.7248645, "lon": -86.1309409, "tags": {"amenity": "hospital"}}, {"type": "node", "id": 5002166830, "lat": 12.1157961, "lon": -86.2506547, "tags": {"amenity": "hospital", "healthcare": "hospital", "name": "Hospital Central de Managua"}}, {"type": "node", "id": 5086728399, "lat": 12.0854085, "lon": -86.2674703, "tags": {"amenity": "hospital", "healthcare": "hospital", "name": "Colegio Odontol\u00f3gico"}}, {"type": "node", "id": 5136863513, "lat": 15.3201811, "lon": -87.601815, "tags": {"amenity": "hospital", "name": "Farmacia Sim\u00e1n", "source": "Bing"}}, {"type": "node", "id": 5136863922, "lat": 15.3204481, "lon": -87.6006142, "tags": {"amenity": "hospital", "name": "Farmacia Kielsa", "source": "Bing"}}, {"type": "node", "id": 5136863934, "lat": 15.320521, "lon": -87.6004633, "tags": {"amenity": "hospital", "name": "Farmacia Bethania", "source": "Bing"}}, {"type": "node", "id": 5156154723, "lat": 12.9320054, "lon": -86.3471072, "tags": {"amenity": "hospital", "name": "Centro de Salud German Pomares"}}, {"type": "node", "id": 5169648410, "lat": 12.4536559, "lon": -86.8681096, "tags": {"amenity": "hospital", "healthcare": "hospital", "name": "Sanatorio Luisa Lacayo"}}, {"type": "node", "id": 5171369678, "lat": 11.9312217, "lon": -85.964478, "tags": {"amenity": "hospital", "name": "pnc Granada"}}, {"type": "node", "id": 5211246121, "lat": 12.5714987, "lon": -81.7092661, "tags": {"amenity": "hospital", "name": "Clarence Lynd Newball Memorial hospital"}}, {"type": "node", "id": 5246238121, "lat": 12.6280975, "lon": -87.1303961, "tags": {"amenity": "hospital", "healthcare": "hospital", "name": "Centro de diagnostico cdc"}}, {"type": "node", "id": 5335387628, "lat": 15.5994623, "lon": -87.205504, "tags": {"amenity": "hospital", "name": "Centro de Salud Isolina Ru\u00edz"}}, {"type": "node", "id": 5352835021, "lat": 12.6261142, "lon": -87.1439881, "tags": {"amenity": "hospital", "name": "Hospital Espa\u00f1a"}}, {"type": "node", "id": 5353340922, "lat": 12.6341817, "lon": -87.1393086, "tags": {"amenity": "hospital", "name": "Centro de Salud"}}, {"type": "node", "id": 5354635624, "lat": 12.6317165, "lon": -87.1390834, "tags": {"amenity": "hospital", "name": "Centro de Salud La Cazuelita"}}, {"type": "node", "id": 5379372937, "lat": 14.0500541, "lon": -88.1474975, "tags": {"amenity": "hospital", "name": "Centro de salud Nahuaterique", "name:es": "Centro de salud Nahuaterique"}}, {"type": "node", "id": 5380876521, "lat": 13.7125989, "lon": -89.1794479, "tags": {"amenity": "hospital", "name": "ISSS Atlacatl"}}, {"type": "node", "id": 5429410927, "lat": 11.8439227, "lon": -86.1955639, "tags": {"amenity": "hospital"}}, {"type": "node", "id": 5436392604, "lat": 12.4386855, "lon": -86.8766645, "tags": {"amenity": "hospital", "healthcare": "hospital", "name": "La Fraternidad"}}, {"type": "node", "id": 5436392606, "lat": 12.4386536, "lon": -86.8762722, "tags": {"amenity": "hospital", "healthcare": "hospital", "name": "Cl\u00ednica"}}, {"type": "node", "id": 5440194023, "lat": 12.6314717, "lon": -87.1318416, "tags": {"amenity": "hospital", "name": "Centro de Salud"}}, {"type": "node", "id": 5546582121, "lat": 15.4744246, "lon": -88.8288837, "tags": {"amenity": "hospital", "name": "Hospital Bethesda"}}, {"type": "node", "id": 5546582122, "lat": 15.4745197, "lon": -88.8276282, "tags": {"amenity": "hospital", "name": "Consultorio IGSS"}}, {"type": "node", "id": 5564104690, "lat": 11.2554602, "lon": -85.8696544, "tags": {"amenity": "hospital", "healthcare": "hospital"}}, {"type": "node", "id": 5583402624, "lat": 19.5712611, "lon": -88.0452601, "tags": {"amenity": "hospital", "name": "Felipe Carrillo"}}, {"type": "node", "id": 5657493022, "lat": 10.453653, "lon": -85.7619904, "tags": {"amenity": "hospital", "name": "Villa Sueno"}}, {"type": "node", "id": 5787686369, "lat": 13.3458258, "lon": -88.4394691, "tags": {"amenity": "hospital", "healthcare": "hospital", "name": "hospital de especialidades metropol"}}, {"type": "node", "id": 5825407453, "lat": 12.1486798, "lon": -86.2870553, "tags": {"addr:street": "Calle 4 de Noviembre", "amenity": "hospital", "name": "Cl\u00ednica Abrahante D\u00edaz", "name:en": "Abrahante D\u00edaz Clinic", "opening_hours": "Mo-Sa 07:00-16:00"}}, {"type": "node", "id": 5872300311, "lat": 14.52304, "lon": -89.4569848, "tags": {"amenity": "hospital", "healthcare": "hospital", "name": "HOSPITALITO DON JOSE"}}, {"type": "node", "id": 5897649837, "lat": 14.5631524, "lon": -89.3548591, "tags": {"amenity": "hospital", "healthcare": "hospital", "name": "Centro M\u00e9dico"}}, {"type": "node", "id": 5897658696, "lat": 14.5661612, "lon": -89.3502028, "tags": {"amenity": "hospital", "healthcare": "hospital", "name": "Hospital de Especialidades"}}, {"type": "node", "id": 5915117187, "lat": 12.0556637, "lon": -86.1999558, "tags": {"amenity": "hospital", "healthcare": "hospital", "name": "Farmacia SABA"}}, {"type": "node", "id": 5940110841, "lat": 13.085189, "lon": -85.99942, "tags": {"addr:city": "Jinotega", "addr:street": "4ta. Av. Sureste", "amenity": "hospital", "emergency": "yes", "healthcare": "hospital", "healthcare:speciality": "general", "name": "Hospital Blanca Ar\u00e1uz Pineda"}}, {"type": "node", "id": 5941521347, "lat": 13.482071, "lon": -86.5861159, "tags": {"amenity": "hospital", "name": "Hospital Juan Antonio Brenes"}}, {"type": "node", "id": 5968838465, "lat": 13.0899232, "lon": -86.3528193, "tags": {"amenity": "hospital", "healthcare": "hospital"}}, {"type": "node", "id": 6049281619, "lat": 13.6764995, "lon": -89.2836661, "tags": {"addr:city": "Santa Tecla", "addr:street": "7\u00aa Avenida Norte", "amenity": "hospital", "healthcare": "hospital", "name": "Farmacia Camila"}}, {"type": "node", "id": 6240801591, "lat": 12.130049, "lon": -86.2995892, "tags": {"amenity": "hospital", "healthcare": "hospital", "name": "Centro de Salud Altagracia", "operator": "MINSA"}}, {"type": "node", "id": 6252240566, "lat": 17.059581, "lon": -89.1526306, "tags": {"amenity": "hospital", "healthcare": "hospital", "name": "Hospital Melchor de Mencos"}}, {"type": "node", "id": 6276690649, "lat": 12.1182198, "lon": -86.3807594, "tags": {"amenity": "hospital", "healthcare": "hospital", "name": "Centro de Salud Cuajachillo # 2"}}, {"type": "node", "id": 6466839685, "lat": 19.7462806, "lon": -88.706003, "tags": {"amenity": "hospital", "name": "Hospital Integral Jos\u00e9 Maria Morelos"}}, {"type": "node", "id": 6468698887, "lat": 13.0771809, "lon": -86.3521384, "tags": {"amenity": "hospital", "name": "Policl\u00ednica Cruz Azul"}}, {"type": "node", "id": 6468698888, "lat": 13.0858439, "lon": -86.3562908, "tags": {"amenity": "hospital", "name": "Cl\u00ednica M\u00e9dica Previcional INSS"}}, {"type": "node", "id": 6470421087, "lat": 13.4857118, "lon": -86.5748469, "tags": {"amenity": "hospital", "name": "Centro Salud Sector 18"}}, {"type": "node", "id": 6470465385, "lat": 13.4813416, "lon": -86.5867535, "tags": {"amenity": "hospital", "name": "Cruz Roja"}}, {"type": "node", "id": 6541374857, "lat": 14.0713298, "lon": -87.1663066, "tags": {"amenity": "hospital", "healthcare": "hospital", "name": "Cl\u00ednica San Jorge"}}, {"type": "node", "id": 6557842619, "lat": 16.9133432, "lon": -89.9484691, "tags": {"amenity": "hospital", "emergency": "no", "name": "Hospital Shalom"}}, {"type": "node", "id": 6615596219, "lat": 15.5098493, "lon": -88.027174, "tags": {"amenity": "hospital", "healthcare": "hospital"}}, {"type": "node", "id": 6615596224, "lat": 15.5098226, "lon": -88.0275006, "tags": {"amenity": "hospital", "healthcare": "hospital"}}, {"type": "node", "id": 6695769759, "lat": 15.0826045, "lon": -89.5047847, "tags": {"amenity": "hospital", "healthcare": "hospital", "healthcare:speciality": "general;paediatrics", "name": "HOPE OF LIFE HOSPITAL"}}, {"type": "node", "id": 6724588989, "lat": 15.0845808, "lon": -89.5068497, "tags": {"amenity": "hospital", "healthcare": "hospital", "name": "San Lucas", "operator": "Hope Of Life", "operator:type": "religious"}}, {"type": "node", "id": 6731298756, "lat": 19.7481657, "lon": -88.7069397, "tags": {"addr:city": "Jos\u00e9 Mar\u00eda Morelos", "addr:postcode": "77890", "addr:street": "Calle 44 Benito Ju\u00e1rez", "amenity": "hospital", "healthcare": "hospital", "name": "ISSTE"}}, {"type": "node", "id": 6741376855, "lat": 14.6341686, "lon": -89.4451736, "tags": {"addr:city": "Quezaltepeque", "addr:postcode": "2009", "addr:street": "Barrio el Puente", "amenity": "hospital", "description": "Hospital", "healthcare": "hospital", "name": "Paz y Bien"}}, {"type": "node", "id": 6775076986, "lat": 14.3181843, "lon": -89.1714217, "tags": {"amenity": "hospital", "healthcare": "hospital", "name": "Centro M\u00e9dico La Palma"}}, {"type": "node", "id": 6791915892, "lat": 12.147443, "lon": -86.2893327, "tags": {"amenity": "hospital", "name": "Bodega Salud Integral"}}, {"type": "node", "id": 6791915895, "lat": 12.1390693, "lon": -86.2821327, "tags": {"amenity": "hospital", "name": "Hospital Bolonia"}}, {"type": "node", "id": 6791915986, "lat": 12.131346, "lon": -86.3136476, "tags": {"amenity": "hospital", "name": "Caja (Walquiria)", "note": "Caja (Walquiria) Administraci\u00f3n (Meyling barquero)"}}, {"type": "node", "id": 6791915989, "lat": 12.1220205, "lon": -86.3059958, "tags": {"amenity": "hospital", "name": "Hospital Fernando V\u00e9lez Paiz"}}, {"type": "node", "id": 6791915990, "lat": 12.1486049, "lon": -86.2885629, "tags": {"amenity": "hospital", "name": "meyboll salas (caja)"}}, {"type": "node", "id": 6791915991, "lat": 12.1498158, "lon": -86.249785, "tags": {"amenity": "hospital", "name": "Hospital Solidaridad (Consulta Externa)"}}, {"type": "node", "id": 6791916089, "lat": 12.1200223, "lon": -86.3064983, "tags": {"amenity": "hospital", "name": "vamex"}}, {"type": "node", "id": 6791916186, "lat": 12.1225264, "lon": -86.2258489, "tags": {"amenity": "hospital", "healthcare": "hospital", "name": "Hospital Conchita Palacios"}}, {"type": "node", "id": 6791916187, "lat": 12.1278377, "lon": -86.2249279, "tags": {"amenity": "hospital", "healthcare": "hospital", "name": "MINSA"}}, {"type": "node", "id": 6791916285, "lat": 12.1256969, "lon": -86.2256104, "tags": {"amenity": "hospital", "healthcare": "hospital", "name": "MINSA - Adquisici\u00f3n", "name:es": "MINSA - Adquisici\u00f3n"}}, {"type": "node", "id": 6791916385, "lat": 12.1246383, "lon": -86.2986303, "tags": {"amenity": "hospital", "name": "Administraci\u00f3n Do\u00f1a Luisa"}}, {"type": "node", "id": 6791916389, "lat": 12.087413, "lon": -86.2342526, "tags": {"amenity": "hospital", "name": "bodega"}}, {"type": "node", "id": 6791917487, "lat": 12.1139288, "lon": -86.265225, "tags": {"amenity": "hospital", "name": "Bodega de hospital Monte Espa\u00f1a"}}, {"type": "node", "id": 6791917489, "lat": 12.1196159, "lon": -86.3057177, "tags": {"amenity": "hospital", "name": "vamex"}}, {"type": "node", "id": 6791917492, "lat": 12.126284, "lon": -86.2256782, "tags": {"amenity": "hospital", "healthcare": "hospital", "name": "Regulaci\u00f3n de Salud"}}, {"type": "node", "id": 6907000385, "lat": 11.2625682, "lon": -85.8624049, "tags": {"amenity": "hospital", "healthcare": "hospital", "name": "Hospital Primario Gaspar Garcia Laviana", "operator": "MINSA", "operator:type": "government"}}, {"type": "node", "id": 7150347658, "lat": 14.3197488, "lon": -89.1749634, "tags": {"amenity": "hospital", "healthcare": "hospital", "healthcare:speciality": "general"}}, {"type": "node", "id": 7180000792, "lat": 12.0276514, "lon": -86.2028356, "tags": {"amenity": "hospital", "name": "Centro de Salud Ticuantepe."}}, {"type": "node", "id": 7214571468, "lat": 11.985238, "lon": -86.0997613, "tags": {"addr:city": "Masaya", "amenity": "hospital", "healthcare": "hospital", "name": "Centro de Salud Alejandro D\u00e1vila Bola\u00f1os"}}, {"type": "node", "id": 7270549849, "lat": 13.812869, "lon": -89.2302457, "tags": {"amenity": "hospital", "healthcare": "hospital", "name": "Comunal"}}, {"type": "node", "id": 7560715285, "lat": 12.1402167, "lon": -86.3083962, "tags": {"amenity": "hospital", "name": "Aldo Chavarr\u00eda M"}}, {"type": "node", "id": 7810901378, "lat": 14.2906169, "lon": -87.7941458, "tags": {"amenity": "hospital", "healthcare": "hospital"}}, {"type": "node", "id": 8289241207, "lat": 14.0120073, "lon": -87.2031556, "tags": {"amenity": "hospital", "healthcare": "hospital"}}, {"type": "node", "id": 8378979138, "lat": 14.0840401, "lon": -87.2104128, "tags": {"amenity": "hospital", "healthcare": "hospital"}}, {"type": "node", "id": 8406775563, "lat": 13.4803204, "lon": -88.221433, "tags": {"addr:city": "Colonia Ciudad Pac\u00edfica, San Miguel, El Salvador", "addr:street": "Calle Santiago Jos\u00e9 Celis", "amenity": "hospital", "emergency": "yes", "healthcare": "hospital", "name": "Hospital Josefino Vilaseca", "phone": "+503 2670 0452"}}, {"type": "node", "id": 8524988617, "lat": 14.8002835, "lon": -89.5403398, "tags": {"addr:housenumber": "11-34 B Zona1", "addr:street": "3a Calle", "amenity": "hospital", "name": "Laboratorio Quimico Biologico", "name:en": "Laboratory test COVID-19", "name:ru": "\u041b\u0430\u0431\u043e\u0440\u0430\u0442\u043e\u0440\u0438\u044f, \u0442\u0435\u0441\u0442 \u043d\u0430 covid-19", "opening_hours": "24/7"}}, {"type": "node", "id": 8568192017, "lat": 13.4325423, "lon": -86.8081432, "tags": {"amenity": "hospital", "name": "Laboratorio el Boulevard", "name:ru": "\u0422\u0435\u0441\u0442 \u043d\u0430 covid, \u043b\u0430\u0431\u043e\u0440\u0430\u0442\u043e\u0440\u0438\u044f"}}, {"type": "node", "id": 8651678217, "lat": 12.495046, "lon": -85.6394646, "tags": {"amenity": "hospital", "name": "Hospital central de boaco"}}, {"type": "node", "id": 8790493917, "lat": 12.0867584, "lon": -86.2340727, "tags": {"amenity": "hospital", "name": "Emergencia Viv\u00edan pellas"}}, {"type": "node", "id": 9005027446, "lat": 14.1002408, "lon": -87.1904257, "tags": {"amenity": "hospital", "healthcare": "hospital"}}, {"type": "node", "id": 9074175010, "lat": 13.6473788, "lon": -89.1202927, "tags": {"amenity": "hospital", "healthcare": "hospital", "name": "Hospital La Divina Providencia"}}, {"type": "node", "id": 9482314217, "lat": 13.9911578, "lon": -89.5522061, "tags": {"amenity": "hospital", "healthcare": "hospital", "name": "Hospital JABES"}}, {"type": "node", "id": 9609236384, "lat": 13.0866583, "lon": -85.9998054, "tags": {"addr:city": "Jinotega", "addr:street": "4ta. Av. Sureste", "amenity": "hospital", "emergency": "yes", "healthcare": "hospital", "healthcare:speciality": "general", "name": "Hospital Victoria Motta"}}, {"type": "node", "id": 9675990825, "lat": 12.3805709, "lon": -85.512099, "tags": {"amenity": "hospital", "name": "Cruz Roja Nicarag\u00fcense Camoapa"}}, {"type": "node", "id": 9883611019, "lat": 12.1313955, "lon": -86.3128821, "tags": {"addr:street": "Carretera Nueva a Le\u00f3n", "amenity": "hospital", "name": "Port\u00f3n Emergencia Hospital Carlos Roberto Huembes"}}, {"type": "node", "id": 9910577222, "lat": 15.5273404, "lon": -88.0334619, "tags": {"amenity": "hospital", "contact:phone": "9502-1752", "healthcare": "hospital", "healthcare:speciality": "otolaryngology;dentist;orthodontics;plastic_surgery", "name": "Hospital de Otorrinolaringologia Cabeza y Cuello", "phone": "25664209", "phone_1": "2566-4173", "website": "https://www.facebook.com/Hospital-de-Otorrinolaringolog%C3%ADa-Cabeza-y-Cuello-410719982345324/"}}, {"type": "node", "id": 9930117425, "lat": 13.7143739, "lon": -89.2039403, "tags": {"amenity": "hospital", "healthcare": "hospital", "name": "Hospital de Ni\u00f1os Benjamin Bloom"}}, {"type": "node", "id": 9963368935, "lat": 13.7030603, "lon": -88.9181225, "tags": {"addr:city": "san Ram\u00f3n", "addr:street": "calle canton san Pablo", "amenity": "hospital", "healthcare": "hospital", "healthcare:speciality": "general", "name": "Casa de salud", "name:en": "House of health", "operator": "alcaldia", "operator:type": "public"}}, {"type": "node", "id": 9970683668, "lat": 13.7673624, "lon": -88.2684175, "tags": {"amenity": "hospital", "healthcare": "hospital"}}, {"type": "node", "id": 9971203848, "lat": 13.7054475, "lon": -88.5630217, "tags": {"amenity": "hospital", "healthcare": "hospital", "name": "Unidad de Salud de San Ildefonso"}}, {"type": "node", "id": 9971208749, "lat": 13.7054291, "lon": -88.5629534, "tags": {"amenity": "hospital", "healthcare": "hospital", "name": "Unidad de Salud de San Ildefonso"}}, {"type": "node", "id": 9977371808, "lat": 14.0007091, "lon": -89.5554555, "tags": {"amenity": "hospital", "healthcare": "hospital", "name": "Clinica FOSALUD santa barbara"}}, {"type": "node", "id": 9980784378, "lat": 13.6495641, "lon": -88.8330694, "tags": {"addr:city": "Tepetit\u00e1n", "addr:street": "5a Calle Oriente", "amenity": "hospital", "emergency": "yes", "healthcare": "hospital", "healthcare:speciality": "general;paediatrics;dentist", "name": "Unidad de Salud De Tepetit\u00e1n"}}, {"type": "node", "id": 10743529975, "lat": 19.9013622, "lon": -88.8104574, "tags": {"addr:city": "Dziuche", "addr:postcode": "77800", "addr:street": "Calle 9", "amenity": "hospital", "emergency": "yes", "healthcare": "hospital", "name": "Hospital General Dziuche", "operator": "Gobierno de Quintana Roo", "operator:type": "public"}}, {"type": "node", "id": 10769165075, "lat": 10.0735861, "lon": -84.3092117, "tags": {"addr:city": "Grecia", "addr:street": "Avenida Central Le\u00f3n Cort\u00e9s Castro", "amenity": "hospital", "healthcare": "hospital", "healthcare:speciality": "general", "name": "\u00c1rea de Salud - Grecia"}}, {"type": "node", "id": 10769214227, "lat": 10.3461963, "lon": -84.4290403, "tags": {"addr:city": "Ciudad Quesada", "addr:postcode": "21001", "addr:street": "Boulevard Selva Verde", "amenity": "hospital", "emergency": "yes", "healthcare": "hospital", "healthcare:speciality": "dentist;orthodontics", "name": "Cl\u00ednica Denta Orto Norte", "operator": "Jackeline Blanco", "operator:type": "private", "phone": "+50684597797", "website": "https://www.facebook.com/clinicadentalortonorte", "wheelchair": "yes"}}, {"type": "node", "id": 10976155161, "lat": 12.1684106, "lon": -86.3430934, "tags": {"amenity": "hospital", "healthcare": "hospital", "name": "Hospitalito Zona 7", "polling_station": "yes"}}, {"type": "node", "id": 11084911605, "lat": 13.7232421, "lon": -88.9364415, "tags": {"addr:housenumber": "16", "addr:street": "1a Calle Poniente #16", "amenity": "hospital", "name": "Hospital Guadalupano", "phone": "23720003"}}, {"type": "node", "id": 11097879605, "lat": 13.7230994, "lon": -88.9361606, "tags": {"addr:housenumber": "16", "addr:street": "1a calle poniente", "amenity": "hospital", "name": "Hospital Guadalupano", "opening_hours": "24/7", "phone": "23720003"}}, {"type": "node", "id": 11108961060, "lat": 10.0243878, "lon": -84.2038596, "tags": {"amenity": "hospital", "healthcare": "hospital", "name": "Cirug\u00eda menor"}}, {"type": "node", "id": 11108961061, "lat": 10.0243531, "lon": -84.2037551, "tags": {"amenity": "hospital", "healthcare": "hospital", "name": "Rayos X"}}, {"type": "node", "id": 11108961062, "lat": 10.0241331, "lon": -84.203955, "tags": {"amenity": "hospital", "healthcare": "hospital", "name": "Inyectables"}}, {"type": "node", "id": 11108961063, "lat": 10.02411, "lon": -84.2037669, "tags": {"amenity": "hospital", "healthcare": "hospital", "name": "Laboratorio"}}, {"type": "node", "id": 11108961065, "lat": 10.0239845, "lon": -84.2040119, "tags": {"amenity": "hospital", "healthcare": "hospital", "name": "Afiliaci\u00f3n"}}, {"type": "node", "id": 11160135805, "lat": 13.0661267, "lon": -86.3499021, "tags": {"amenity": "hospital", "name": "Hospital Escuela San Juan de Dios", "name:en": "San Juan de Dios School Hospital", "opening_hours": "24/7"}}, {"type": "node", "id": 11301186990, "lat": 13.9848983, "lon": -89.5626976, "tags": {"addr:city": "Santa Ana", "addr:housenumber": "47", "addr:street": "21 Calle Poniente y 8 avenida sur", "amenity": "hospital", "healthcare": "hospital", "healthcare:speciality": "surgery;gastroenterology;homeopathy;oncology;gynaecology", "name": "umes", "operator": "dr. Linares Ortiz", "operator:type": "private", "payment:apple_pay": "yes", "payment:btc": "yes", "payment:cash": "yes", "payment:contactless": "yes", "payment:credit_cards": "yes", "payment:cryptocurrencies": "yes", "payment:google_pay": "yes", "payment:lightning": "yes", "payment:mcard": "yes", "payment:visa_debit": "yes", "wheelchair": "limited"}}, {"type": "way", "id": 31394643, "center": {"lat": 15.8148613, "lon": -87.9364613}, "nodes": [349889092, 349889094, 349889096, 349889097, 349889092], "tags": {"amenity": "hospital", "emergency": "yes", "healthcare": "hospital", "name": "Hospital de \u00c1rea Puerto Cort\u00e9s", "operator": "Secretar\u00eda de Salud", "operator:type": "government"}}, {"type": "way", "id": 32423666, "center": {"lat": 14.1040892, "lon": -87.1848344}, "nodes": [364615500, 8857297286, 8857297283, 364615501, 364615502, 11157776388, 11157776387, 364615503, 364615504, 364615505, 11157776393, 364615507, 364615508, 364615509, 364615510, 364615500], "tags": {"addr:city": "Tegucigalpa", "addr:street": "Avenida Los Proceres", "amenity": "hospital", "name": "Hospital San Felipe"}}, {"type": "way", "id": 32439893, "center": {"lat": 14.095334, "lon": -87.1903076}, "nodes": [364739975, 364739980, 4197230460, 364739983, 8898000069, 364739987, 364739989, 364739991, 8898000070, 8898000072, 8898000071, 8899780465, 364739994, 4197230461, 364739975], "tags": {"addr:city": "Tegucigalpa", "addr:street": "Avenida Juan Lindo", "amenity": "hospital", "emergency": "yes", "healthcare": "hospital", "name": "Honduras Medical Center", "source": "KG Ground Survey 2016"}}, {"type": "way", "id": 32482712, "center": {"lat": 14.0839085, "lon": -87.2103812}, "nodes": [365212022, 7123254870, 365212023, 365212024, 365212025, 365212026, 365212027, 365212028, 365212029, 365212030, 365212031, 365212032, 365212033, 365212034, 365212035, 8418197562, 365212036, 365212037, 365212038, 365212039, 365212040, 365212041, 365212022], "tags": {"amenity": "hospital", "healthcare": "hospital", "name": "I.H.S.S. Periferico La Granja (Seguro Social)", "opening_hours": "24/7", "phone": "+504 2222-1128", "website": "https://www.ihss.hn/"}}, {"type": "way", "id": 34678930, "center": {"lat": 14.0654076, "lon": -87.179715}, "nodes": [403510706, 403510707, 403510708, 4207909507, 4207909508, 403510709, 403510706], "tags": {"addr:city": "Tegucigalpa", "addr:postcode": "504", "addr:street": "Segunda Entrada Kenedy", "amenity": "hospital", "building": "yes", "healthcare": "hospital", "name": "Hospital y Cl\u00ednica de Especialidades Mospimed", "source": "KG Ground Survey 2016"}}, {"type": "way", "id": 35509781, "center": {"lat": 14.0976381, "lon": -87.2026619}, "nodes": [416310401, 416310409, 416310418, 416310427, 416310441, 416310442, 416310401], "tags": {"amenity": "hospital", "building": "hospital", "healthcare": "hospital", "helipad": "no", "hospital": "clinic", "name": "Centro de Salud Alonzo Suazo", "source": "KG Ground Survey 2016"}}, {"type": "way", "id": 37112366, "center": {"lat": 15.7742925, "lon": -86.7894361}, "nodes": [431621534, 4507109472, 4507109471, 8899946089, 8899946088, 8899946090, 1345329164, 431622134, 4507109469, 431622135, 2354847137, 2354847154, 431621538, 431621539, 431621540, 431621541, 8899946087, 5952246658, 5952246657, 5952246656, 431621534], "tags": {"addr:city": "La Ceiba", "addr:street": "Avenida Moraz\u00e1n Sur", "amenity": "hospital", "emergency": "yes", "healthcare": "hospital", "name": "Hospital Vicente D'Antoni", "wikidata": "Q28457284"}}, {"type": "way", "id": 38704053, "center": {"lat": 12.1392117, "lon": -86.2824865}, "nodes": [2466815615, 2466815603, 2466815592, 458732799, 2342017736, 458732800, 2342017742, 2466815596, 2466815607, 458732801, 2342017739, 4195504260, 4195504261, 2342017738, 2466815615], "tags": {"amenity": "hospital", "healthcare": "hospital", "name": "Hospital SUMEDICO", "reference_point": "yes", "source": "KG Ground Survey 2016"}}, {"type": "way", "id": 38706801, "center": {"lat": 12.1416011, "lon": -86.2625508}, "nodes": [458763244, 458763245, 5908901152, 5908901153, 5908901154, 458763246, 5908901155, 5908901156, 5908901161, 5908901162, 5908901160, 5908901159, 5908901158, 5908901157, 458763247, 458763248, 458763244], "tags": {"amenity": "hospital", "name": "Hospital Bautista"}}, {"type": "way", "id": 38709922, "center": {"lat": 12.1383436, "lon": -86.2739199}, "nodes": [458805247, 3009714814, 2342827693, 2342827694, 2342827695, 2476090947, 9886053566, 9886053565, 9886053564, 2342827696, 9886053563, 2342827697, 9886053562, 458805249, 458805252, 458805255, 2476090942, 9886053561, 9886053560, 458805261, 2476090940, 2476090943, 458805263, 2476090944, 3009714813, 3009714812, 458805247], "tags": {"amenity": "hospital", "emergency": "no", "healthcare": "hospital", "name": "Escuela Nacional de Enfermer\u00eda", "operator": "Hospital Militar", "operator:type": "military"}}, {"type": "way", "id": 38711892, "center": {"lat": 12.1241264, "lon": -86.2358782}, "nodes": [458858879, 458858882, 2134283993, 2134283992, 458858884, 2134284006, 2134284009, 458858886, 458858879], "tags": {"addr:city": "Bluefields", "addr:street": "46 Avenida S.E.", "amenity": "hospital", "healthcare": "hospital", "name": "Hospital Infantil La Mascota"}}, {"type": "way", "id": 38822603, "center": {"lat": 12.1243308, "lon": -86.2985886}, "nodes": [460805686, 460805716, 460805740, 460805773, 8897173774, 460805798, 2884610846, 460805820, 7466143121, 460805840, 460805867, 460805891, 460805686], "tags": {"alt_name": "Hospital Bertha Calder\u00f3n", "alt_name:en": "Women's hospital", "amenity": "hospital", "name": "Hospital de la Mujer Bertha Calder\u00f3n Roque", "official_name": "Hospital Referencia Nacional Bertha Calder\u00f3n Roque", "short_name": "Bertha Calder\u00f3n", "source": "survey; Mapillary photo"}}, {"type": "way", "id": 42158714, "center": {"lat": 13.6298857, "lon": -86.4774596}, "nodes": [524659021, 524659024, 524659027, 524659030, 524659033, 524659035, 3071070392, 524659021], "tags": {"amenity": "hospital", "healthcare": "hospital", "name": "Hospital de Ocotal"}}, {"type": "way", "id": 46107822, "center": {"lat": 13.0876002, "lon": -86.3478655}, "nodes": [587749127, 587749130, 587749129, 587749128, 587749127], "tags": {"amenity": "hospital", "name": "Centro de Salud Melania Flori\u00e1n"}}, {"type": "way", "id": 46109225, "center": {"lat": 13.0897358, "lon": -86.3571551}, "nodes": [587762818, 587762820, 587762817, 587762819, 587762818], "tags": {"addr:city": "Esteli", "addr:country": "NI", "amenity": "hospital", "building": "yes", "name": "Cl\u00ednica San Jos\u00e9"}}, {"type": "way", "id": 46109398, "center": {"lat": 13.0813944, "lon": -86.3564339}, "nodes": [587764382, 587764386, 587764383, 587764384, 587764382], "tags": {"addr:city": "Esteli", "addr:country": "NI", "amenity": "hospital", "building": "yes", "name": "Cl\u00ednica Los Robles"}}, {"type": "way", "id": 46109415, "center": {"lat": 13.0857859, "lon": -86.3565765}, "nodes": [587764457, 587764458, 3999191973, 587764476, 4170051577, 3999191970, 587764457], "tags": {"addr:city": "Esteli", "addr:country": "NI", "amenity": "hospital", "building": "yes", "name": "Cl\u00ednica San Ram\u00f3n"}}, {"type": "way", "id": 46109694, "center": {"lat": 13.0834688, "lon": -86.3584609}, "nodes": [587775790, 587775793, 587775791, 587775795, 587775790], "tags": {"addr:city": "Esteli", "addr:country": "NI", "amenity": "hospital", "building": "yes", "name": "Centro de Salude Edwardo Selva"}}, {"type": "way", "id": 46248843, "center": {"lat": 13.0661899, "lon": -86.3498201}, "nodes": [1742898447, 1742898449, 1742898440, 1742898434, 590060685, 4232241583, 590060684, 590060683, 590060676, 590060677, 1742898101, 1742898104, 1742898111, 1742898150, 1742898177, 1742898233, 571963867, 1742898280, 1742898346, 1742898356, 1742898389, 1742898422, 1742898443, 1742898445, 1742898447], "tags": {"amenity": "hospital", "barrier": "fence", "emergency": "yes", "name": "San Juan de Dios"}}, {"type": "way", "id": 46248900, "center": {"lat": 13.0856363, "lon": -86.3522722}, "nodes": [590061013, 590061014, 590061015, 590061016, 590061013], "tags": {"addr:city": "Esteli", "addr:country": "NI", "amenity": "hospital", "building": "yes", "name": "Cl\u00ednica San Jos\u00e9"}}, {"type": "way", "id": 46770852, "center": {"lat": 13.0853725, "lon": -86.3542652}, "nodes": [597697756, 597697753, 597697754, 597697755, 597697756], "tags": {"amenity": "hospital", "building": "yes", "name": "Cruz Roja Nicarag\u00fcense"}}, {"type": "way", "id": 46876663, "center": {"lat": 11.4554055, "lon": -85.8013294}, "nodes": [598518992, 598518989, 598518991, 598518990, 598518992], "tags": {"amenity": "hospital", "building": "yes", "name": "Centro de Salud", "opening_hours": "Mo-Fr 08:00-17:00"}}, {"type": "way", "id": 78045735, "center": {"lat": 11.9747182, "lon": -86.0813979}, "nodes": [916893237, 916893489, 916893601, 916893659, 916893217, 916893393, 916893569, 916893255, 916893340, 916893595, 916893685, 916893205, 916893304, 916893556, 916893642, 916893326, 916893546, 916893672, 916893240, 916893293, 916893474, 916893623, 916893198, 916893539, 916893613, 916893222, 916893316, 916893452, 916893237], "tags": {"amenity": "hospital", "building": "yes", "emergency": "yes", "healthcare": "hospital", "healthcare:speciality": "general;emergency;maternity;radiology;paediatrics;vaccination;chiropractic", "name": "Hospital Dr. Humberto Alvarado", "operator": "Ministerio de Salud", "operator:short": "MINSA", "operator:type": "public", "operator:wikidata": "Q30282287", "operator:wikipedia": "es:Ministerio de Salud (Nicaragua)", "source": "KG Ground Survey 2016"}}, {"type": "way", "id": 83715136, "center": {"lat": 10.6383469, "lon": -85.4315138}, "nodes": [975006482, 975006503, 3694497036, 975006457, 3694497032, 975006385, 975006555, 3694497050, 3694497051, 975006562, 3694497053, 3694497052, 3694497049, 975006369, 975006506, 975006421, 975006482], "tags": {"addr:city": "Liberia", "addr:street": "Calle 13", "amenity": "hospital", "emergency": "yes", "healthcare": "hospital", "name": "Hospital Dr. Enrique Baltodano Brice\u00f1o", "operator": "CCSS", "operator:type": "public"}}, {"type": "way", "id": 85416553, "center": {"lat": 10.4422809, "lon": -85.0855106}, "nodes": [990212770, 990212751, 990212713, 990212747, 990212770], "tags": {"addr:city": "Ca\u00f1as", "addr:street": "V\u00eda 142", "alt_name": "Hospital de Ca\u00f1as", "amenity": "hospital", "emergency": "yes", "healthcare": "hospital", "name": "Centro de Atenci\u00f3n Integral en Salud", "operator": "CCSS", "operator:type": "public", "operator:wikidata": "Q5174896", "operator:wikipedia": "en:Costa Rican Social Security Fund", "short_name": "CAIS"}}, {"type": "way", "id": 106624478, "center": {"lat": 10.3714936, "lon": -85.671147}, "nodes": [1226630560, 1226630565, 1226630432, 1226630494, 1226630560], "tags": {"addr:city": "Cartagena", "amenity": "hospital", "emergency": "yes", "healthcare": "hospital", "operator": "CCSS", "operator:type": "public", "operator:wikidata": "Q5174896"}}, {"type": "way", "id": 107117708, "center": {"lat": 10.2568675, "lon": -85.5845994}, "nodes": [1231561701, 1231561708, 9753222193, 9753222195, 9753222198, 9753222196, 9753222197, 9753222194, 1231561686, 9579540934, 9579540933, 1231561713, 1231561701], "tags": {"addr:city": "Santa Cruz", "addr:street": "Avenida 12", "amenity": "hospital", "designation": "Cl\u00ednica", "emergency": "yes", "healthcare": "hospital", "name": "Cl\u00ednica CCSS Santa Cruz", "operator": "CCSS", "operator:type": "public", "operator:wikidata": "Q5174896", "operator:wikipedia": "en:Costa Rican Social Security Fund"}}, {"type": "way", "id": 107886945, "center": {"lat": 10.148676, "lon": -85.454039}, "nodes": [1239042419, 8894220394, 1239042430, 9917377606, 8894220396, 8894220397, 8894220399, 8894220398, 8894220400, 1239042360, 4274845712, 1239042342, 1239042365, 1239042346, 1239042469, 1239042455, 1239042415, 1239042508, 1239042409, 1239042587, 8894220395, 1239042592, 1239042493, 1239042419], "tags": {"addr:city": "Nicoya", "addr:street": "Calle Rep\u00fablica de M\u00e9xico", "amenity": "hospital", "emergency": "yes", "healthcare": "hospital", "name": "Hospital de La Anexi\u00f3n", "operator": "CCSS", "operator:type": "public", "operator:wikidata": "Q5174896", "operator:wikipedia": "en:Costa Rican Social Security Fund"}}, {"type": "way", "id": 110139036, "center": {"lat": 12.1167698, "lon": -86.332277}, "nodes": [1258752756, 1258753112, 1258753050, 1258753123, 1258752756], "tags": {"amenity": "hospital", "name": "El Samaritano Centro de Salud (AMOS)", "website": "https://www.amoshealth.org/"}}, {"type": "way", "id": 113063252, "center": {"lat": 12.163394, "lon": -86.3577935}, "nodes": [4011324172, 1283378964, 1283378926, 1283378908, 4011324172], "tags": {"amenity": "hospital", "emergency": "yes", "healthcare": "hospital", "name": "Hospital Primario Nilda Patricia Velasco"}}, {"type": "way", "id": 118850730, "center": {"lat": 13.3635821, "lon": -86.4005669}, "nodes": [1336002143, 1336002144, 1336002141, 1336002139, 1336002133, 1336002131, 1336002137, 1336002132, 1336002135, 1336002142, 1336002143], "tags": {"amenity": "hospital", "building": "yes"}}, {"type": "way", "id": 119109365, "center": {"lat": 15.76876, "lon": -86.8090473}, "nodes": [1339159766, 4203094425, 1339160229, 11078978766, 11078978767, 1339160466, 11078978768, 11078978769, 11078978770, 1154647416, 1337504138, 1337503914, 1339247821, 1339247923, 1339159884, 1339159620, 1339159794, 1339159391, 1339159766], "tags": {"addr:city": "La Ceiba", "addr:street": "Boulevard Hospital", "amenity": "hospital", "emergency": "yes", "healthcare": "hospital", "name": "Hospital Regional Atl\u00e1ntida", "source": "Reconocimiento cartogr\u00e1fico por KG 2016."}}, {"type": "way", "id": 125359428, "center": {"lat": 15.5370839, "lon": -88.0156914}, "nodes": [1392630098, 8887443563, 1392630115, 8887301897, 8887301896, 8887301895, 8887301894, 6555194512, 8887301898, 8887443551, 8887301899, 8894884229, 1392630172, 8894884230, 8297944848, 8887443562, 8887301900, 1392630100, 8887443561, 8887443555, 8887443565, 8887443566, 1392630098], "tags": {"addr:city": "San Pedro Sula", "addr:postcode": "504", "addr:street": "Calle El Palenque", "amenity": "hospital", "emergency": "yes", "healthcare": "hospital", "name": "Hospital del Valle"}}, {"type": "way", "id": 130820813, "center": {"lat": 10.3435631, "lon": -84.4321176}, "nodes": [6042585318, 1440020276, 8904112225, 8904112230, 1440020286, 6160017773, 9826216736, 5609425908, 9839262377, 5609425907, 5609425906, 1440020284, 9820711294, 6042585318], "tags": {"addr:city": "Quesada", "addr:street": "Avenida Central", "amenity": "hospital", "emergency": "yes", "healthcare": "hospital", "name": "Hospital San Carlos", "operator": "CCSS", "operator:type": "public", "operator:wikidata": "Q5174896"}}, {"type": "way", "id": 137226205, "center": {"lat": 13.671168, "lon": -89.2782914}, "nodes": [3777252080, 3777252079, 1505300939, 7582791590, 7582791591, 7582791605, 7582779293, 7582791606, 1505300936, 7582791597, 1505300940, 3777252080], "tags": {"addr:city": "Santa Tecla", "addr:housenumber": "9-2", "addr:street": "4a Calle Oriente", "amenity": "hospital", "emergency": "yes", "healthcare": "hospital", "healthcare:speciality": "general;psychiatry;chiropractic;paediatrics;dentistry;ophthalmology;orthopaedics;gynaecology;oncology;cardiology;emergency;surgery;dermatology;radiology;maternity;geriatrics", "name": "Hospital Nacional San Rafael", "operator": "Ministerio de Salud P\u00fablica y Asistencia Social", "operator:type": "government", "phone": "+50325944000", "source": "KG Ground Survey 2016", "start_date": "August 6th, 1864", "website": "http://www.hsanrafael.salud.gob.sv/"}}, {"type": "way", "id": 140084935, "center": {"lat": 13.6884687, "lon": -89.2357836}, "nodes": [1438710235, 1534828310, 1534828313, 1534828239, 1534828233, 1534828406, 1534828501, 1534828325, 1534828402, 1534828214, 1534828488, 1534828450, 1534828499, 1534828425, 1534828463, 1534828217, 1534828492, 1534828453, 1534828370, 1534828445, 1534828339, 1534828416, 7695762005, 1534828461, 1438710234, 5262774184, 7695762002, 5262774186, 2976202332, 7695861502, 7695861501, 7695861499, 7695861498, 3772760675, 1438710222, 10290312864, 10290312865, 10290312866, 1438710230, 10290312867, 10290312868, 1438710218, 1534828363, 3772760663, 1438710235], "tags": {"amenity": "hospital", "healthcare": "hospital", "healthcare:speciality": "covid19", "name": "Hospital El Salvador", "operator": "Ministerio de Salud y Asistencia Social", "operator:type": "public", "wikidata": "Q96650506", "wikipedia": "en:Hospital El Salvador"}}, {"type": "way", "id": 147186267, "center": {"lat": 12.4336273, "lon": -86.878028}, "nodes": [4594845942, 1603986270, 1603986271, 1603986281, 4594845942], "tags": {"alt_name": "HEODRA", "amenity": "hospital", "building": "yes", "name": "Hospital Escuela Oscar Danilo Rosales"}}, {"type": "way", "id": 148756971, "center": {"lat": 12.9685292, "lon": -86.2361639}, "nodes": [1618234724, 1618234725, 1618234722, 1618234718, 1618234724], "tags": {"addr:street": "Calle Central", "amenity": "hospital", "building": "hospital", "internet_access": "wlan", "name": "Centro Recreativo Oyanca", "source": "CENRUT gpx"}}, {"type": "way", "id": 153605241, "center": {"lat": 13.5613691, "lon": -86.4898439}, "nodes": [1662583603, 1662583670, 1662583660, 1662583649, 1662583626, 1662583641, 1662583615, 1662583559, 1662583565, 1662583587, 1662583599, 1662583593, 1662583603], "tags": {"amenity": "hospital", "name": "Centro de Salude", "source": "Bing"}}, {"type": "way", "id": 155653993, "center": {"lat": 14.1103302, "lon": -87.1786716}, "nodes": [1680475832, 1680475838, 1680475834, 1680475827, 1680475832], "tags": {"amenity": "hospital", "name": "Centro de Cancer Emma Romero Callejas"}}, {"type": "way", "id": 156892328, "center": {"lat": 14.0963335, "lon": -87.1934799}, "nodes": [1691350073, 1691350075, 1691350076, 1691350071, 1691350073], "tags": {"amenity": "hospital"}}, {"type": "way", "id": 160091928, "center": {"lat": 11.2554663, "lon": -85.8696149}, "nodes": [1721662090, 1721662105, 1721662133, 1721662139, 1721662220, 1721662197, 1721662191, 1721662182, 1721662171, 1721662135, 1721662128, 1721662079, 1721662061, 1721662078, 1721662090], "tags": {"addr:city": "San Juan Del Sur", "addr:street": "Avenida El Tropez\u00f3n", "amenity": "hospital", "designation": "Public Clinic", "name": "Centro del salud", "name:en": "Centro del salud (Clinic)", "source": "KG Ground Survey 2016"}}, {"type": "way", "id": 161691710, "center": {"lat": 13.6121361, "lon": -86.4490513}, "nodes": [1736535179, 1736535204, 1736535124, 1736535118, 1736535179], "tags": {"amenity": "hospital", "building": "yes", "source": "Bing"}}, {"type": "way", "id": 162783767, "center": {"lat": 12.1158087, "lon": -86.2505309}, "nodes": [2438095485, 2438095486, 2438095489, 2338841409, 2338841406, 2338841405, 2338841404, 1746054348, 1746054219, 1746054222, 2338841402, 2438095517, 1746054338, 2338841401, 1746054207, 2438095485], "tags": {"amenity": "hospital", "emergency": "yes", "healthcare": "hospital", "name": "Hospital Central"}}, {"type": "way", "id": 168215054, "center": {"lat": 15.5219021, "lon": -88.028846}, "nodes": [1795007327, 1795007328, 8315563788, 1795007326, 1388013646, 8262655085, 1795007331, 1795007327], "tags": {"amenity": "hospital", "emergency": "yes", "name": "Hospital Militar"}}, {"type": "way", "id": 169146873, "center": {"lat": 16.913848, "lon": -89.9131988}, "nodes": [1803141849, 1803141779, 1803141766, 1803141709, 1803141721, 1803141755, 1882115463, 1803141843, 1803141718, 1803141789, 1803141866, 1803141937, 1803141927, 9290636182, 1803141786, 9290636181, 1803141889, 9290636180, 9290636187, 9290636186, 1803141905, 1803141763, 1803141832, 1803141811, 1803141849], "tags": {"amenity": "hospital", "building": "yes", "description": "Hospital Prospero Penados", "emergency": "yes", "healthcare": "hospital", "name": "Hospital San Benito", "name:en": "Regional Hospital of San Benito", "name:es": "Hospital Regional de San Benito"}}, {"type": "way", "id": 169875524, "center": {"lat": 12.5715723, "lon": -81.7090524}, "nodes": [6185115706, 6185115708, 764399681, 764399680, 1810345119, 1810345117, 1810345111, 1810345076, 1810344983, 1810344735, 1810344698, 1810344692, 1810344690, 1810344683, 1810344677, 1810344710, 1810344724, 1810344707, 1810344721, 6185115705, 6185115706], "tags": {"addr:street": "V\u00eda Circunvalar de San Andr\u00e9s", "amenity": "hospital", "emergency": "yes", "healthcare": "hospital", "name": "Hospital Clarence Lynd Newball Memorial"}}, {"type": "way", "id": 170679457, "center": {"lat": 12.1834712, "lon": -86.0959279}, "nodes": [1818360953, 8978579006, 1818360955, 3407564543, 1818360956, 1818360954, 1818360953], "tags": {"amenity": "hospital", "name": "Hospital monte Espa\u00f1a"}}, {"type": "way", "id": 172223970, "center": {"lat": 13.7108578, "lon": -89.7273168}, "nodes": [10200457168, 1831507117, 1831507123, 1831507122, 1831507114, 1831507124, 10200457169, 1831507121, 1831507120, 1831507126, 11189645597, 11189645600, 1831507113, 11194756371, 11194756372, 11194756373, 11194756374, 1831507125, 1831507118, 4011632542, 5223375043, 4645409537, 1831507112, 1831507115, 10200457166, 10200457164, 5223383428, 10200457167, 10200457168], "tags": {"amenity": "hospital", "emergency": "yes", "healthcare": "hospital", "name": "Hospital Regional ISSS", "source": "KG Ground Survey 2016"}}, {"type": "way", "id": 172294460, "center": {"lat": 15.6624972, "lon": -86.0015391}, "nodes": [1832140251, 1832140257, 1832140255, 1832140254, 1832140249, 1832140253, 1832140252, 1832140247, 1832140248, 1832140250, 1832140263, 1832140261, 1832140265, 1832140258, 1832140256, 1832140259, 1832140251], "tags": {"amenity": "hospital", "emergency": "yes", "name": "Hospital San Isidro", "source": "Bing/GPS"}}, {"type": "way", "id": 175606176, "center": {"lat": 13.7021511, "lon": -89.2070264}, "nodes": [1861706570, 11262848410, 11262848411, 11262848412, 11262848413, 11262848414, 11262848409, 11262848408, 11262848407, 1861706556, 1861706553, 11262848404, 11262848406, 11262848405, 11262848403, 11262848402, 11262848401, 11262848400, 1861706567, 1861706570], "tags": {"amenity": "hospital", "emergency": "yes", "healthcare": "hospital", "name": "Hospital Medico Quirurgico ISSS", "source": "KG Ground Survey 2016"}}, {"type": "way", "id": 184674641, "center": {"lat": 11.1100582, "lon": -85.7318954}, "nodes": [1951725806, 1951914855, 1951725815, 1951726079, 1951726059, 1951725997, 1951725828, 1951725876, 1951725852, 1951914970, 1951725862, 1951725841, 1951726016, 1951726083, 1951725870, 1951725895, 1951726032, 1951725952, 1951725940, 1951726006, 1951725812, 1951726077, 1951726056, 1951726104, 1951726075, 1951725843, 1951725903, 1951725806], "tags": {"amenity": "hospital", "designation": "Disaster Relief Unit", "emergency": "no", "name": "O Disaster Relief Unit", "source": "Indio Jones"}}, {"type": "way", "id": 187234133, "center": {"lat": 16.0932966, "lon": -88.8087498}, "nodes": [1979686118, 1979686115, 1979686116, 1979686117, 1979686119, 1979686120, 1979688876, 1979688875, 1979686118], "tags": {"amenity": "hospital", "emergency": "yes", "healthcare": "hospital", "name": "Punta Gorda Hospital", "name:es": "Hospital de Punta Gorda"}}, {"type": "way", "id": 196616567, "center": {"lat": 13.6775993, "lon": -89.2808156}, "nodes": [2069275436, 2069275437, 3761068213, 2069275435, 2069275436], "tags": {"addr:city": "Santa Tecla", "addr:street": "5a Calle Oriente", "amenity": "hospital", "healthcare": "hospital", "name": "Cruz Roja Salvadore\u00f1a", "phone": "+50322881826"}}, {"type": "way", "id": 199277541, "center": {"lat": 13.6889988, "lon": -89.2022817}, "nodes": [2092906714, 2092906720, 2092906721, 2094004467, 2094004419, 2092906726, 2092906716, 2092906719, 2092906713, 2092906725, 2092906714], "tags": {"amenity": "hospital", "emergency": "yes", "name": "ISSS 15 de Septiembre"}}, {"type": "way", "id": 204594790, "center": {"lat": 12.1548784, "lon": -86.2912563}, "nodes": [2145901562, 2145901552, 2145901556, 2145901553, 2145901561, 2145901560, 2145901559, 2145901555, 2145901554, 2145901563, 2145901558, 2145901557, 2145901562], "tags": {"amenity": "hospital", "building": "hospital", "emergency": "yes", "name": "Centro de Salud \"S\u00f3crates Flores\""}}, {"type": "way", "id": 209145392, "center": {"lat": 12.0961963, "lon": -85.3642803}, "nodes": [2193798165, 2193798167, 2193798166, 2193798164, 2193798165], "tags": {"addr:city": "juigalpa", "addr:housenumber": "nic-7", "addr:street": "NIC-7", "amenity": "hospital", "emergency": "no", "name": "Cruz Roja", "operator": "Red Cross - Pres. Auxiliadora del Carmen Guevara", "phone": "2512-2233"}}, {"type": "way", "id": 209145395, "center": {"lat": 12.0978459, "lon": -85.3638304}, "nodes": [2193798172, 2193798173, 2193798170, 2193798174, 2193798163, 2193798172], "tags": {"addr:city": "juigalpa", "addr:street": "NIC-7", "amenity": "hospital", "emergency": "yes", "name": "Hospital Regional Escuela Asunci\u00f3n", "old_name": "Ahmed Campos", "phone": "50525122332"}}, {"type": "way", "id": 222957321, "center": {"lat": 14.1036291, "lon": -87.1919511}, "nodes": [2319007249, 2319007250, 2319007251, 2319007252, 4209635780, 2319007253, 2319007254, 2319007249], "tags": {"addr:housename": "PorSsalud", "addr:street": "Ave. La Paz", "amenity": "hospital", "building": "yes", "emergency": "yes", "healthcare": "hospital", "name": "PorSalud"}}, {"type": "way", "id": 225061215, "center": {"lat": 12.122408, "lon": -86.245971}, "nodes": [2338851760, 2338851761, 2338851762, 2454834902, 8900442553, 8900442554, 2473820960, 6791916391, 8900442555, 2454834888, 3948662268, 3948662269, 2338851764, 2338851765, 2338851760], "tags": {"alt_name": "Hospital Manolo Morales", "amenity": "hospital", "ele": "1", "healthcare": "hospital", "name": "Hospital Escuela Manolo Morales", "old_name": "Hospital Roberto Calderon", "operator": "Ministerio de Salud", "operator:short": "MINSA", "operator:wikidata": "Q30282287"}}, {"type": "way", "id": 225365885, "center": {"lat": 12.1477059, "lon": -86.277026}, "nodes": [2341507455, 2341507456, 2341507457, 8034178748, 8034178745, 8034178756, 2341507458, 8034178743, 2341507459, 2341507460, 8034178753, 8034178754, 8034178759, 2341507461, 8034178755, 8034178758, 8034178742, 2341507455], "tags": {"addr:city": "Managua", "alt_name": "CENAO", "amenity": "hospital", "building": "yes", "emergency": "yes", "healthcare": "hospital", "name": "Hospital Oftalmol\u00f3gico", "official_name": "Centro Nacional de Oftalmolog\u00eda"}}, {"type": "way", "id": 225366162, "center": {"lat": 12.1486646, "lon": -86.3117625}, "nodes": [2341510102, 2341510103, 2341510104, 2462599213, 2462599326, 2341510102], "tags": {"addr:city": "Managua", "addr:street": "43a Avenida N.O.", "amenity": "hospital", "emergency": "yes", "healthcare": "hospital", "name": "Hospital Antonio Len\u00edn Fonseca", "operator": "Ministerio de Salud", "operator:short": "MINSA", "operator:type": "public", "operator:wikidata": "Q30282287", "operator:wikipedia": "es:Ministerio de Salud (Nicaragua)"}}, {"type": "way", "id": 225367293, "center": {"lat": 12.1312735, "lon": -86.3134585}, "nodes": [2469441353, 2469441357, 2469441363, 2469441365, 2469441374, 2469441379, 2469441383, 2469441387, 2469441390, 2469441391, 2469441377, 2469441353], "tags": {"addr:city": "Managua", "addr:street": "NIC-28", "alt_name": "Hospital de la Polic\u00eda Nacional", "amenity": "hospital", "emergency": "yes", "healthcare": "hospital", "name": "Hospital Carlos Roberto Huembes", "operator": "Ministerio de Salud", "operator:short": "MINSA", "operator:wikidata": "Q30282287", "operator:wikipedia": "es:Ministerio de Salud (Nicaragua)", "source": "KG Ground Survey 2016"}}, {"type": "way", "id": 228611195, "center": {"lat": 12.1949178, "lon": -84.2827911}, "nodes": [2372729674, 3132184557, 3132184556, 2372729676, 2372729677, 3132184558, 3132184559, 2372729679, 2372729674], "tags": {"addr:city": "La Esperanza", "amenity": "hospital", "building": "yes"}}, {"type": "way", "id": 228728939, "center": {"lat": 12.0577566, "lon": -84.554277}, "nodes": [2373974097, 2373974099, 2373974100, 2373974102, 2373974097], "tags": {"addr:city": "Muelle de Los Bueyes", "addr:street": "Carretera al Rama", "amenity": "hospital", "healthcare": "hospital", "name": "Hospital Muelle de Los Bueyes"}}, {"type": "way", "id": 229346879, "center": {"lat": 12.148157, "lon": -86.2894788}, "nodes": [2379581875, 2830649265, 2830649266, 2379581877, 2379581881, 2379581874, 2379581875], "tags": {"addr:city": "Managua", "addr:street": "6a Calle S.O.", "amenity": "hospital", "healthcare": "hospital", "name": "Hospital Salud Integral"}}, {"type": "way", "id": 231387499, "center": {"lat": 12.1251122, "lon": -86.2244982}, "nodes": [2397753466, 2397753465, 2397753463, 2397753464, 2397753466], "tags": {"amenity": "hospital", "emergency": "no", "healthcare": "hospital", "name": "Centro de Salud Primero de Mayo"}}, {"type": "way", "id": 231947154, "center": {"lat": 14.0977161, "lon": -87.207715}, "nodes": [2402681656, 7391369249, 8900860307, 7391369250, 7391369251, 7391369254, 7391369252, 7391369253, 2402681658, 2402681660, 8900860302, 8900860303, 8900860304, 8900860301, 8900860305, 8900860299, 8900860300, 8900860306, 2402681662, 2402681656], "tags": {"addr:city": "Comayaguela", "addr:postcode": "504", "addr:street": "7ta calle comayaguela", "amenity": "hospital", "building": "yes", "healthcare": "hospital", "name": "La Policl\u00ednica", "source": "KG Ground Survey 2016"}}, {"type": "way", "id": 231949217, "center": {"lat": 14.0977316, "lon": -87.2067109}, "nodes": [2402704153, 7391388485, 7391388487, 7391388488, 7391388486, 2685305074, 7391388490, 2685305078, 7391388521, 7391388522, 2685305080, 2402704158, 2402704160, 7391369282, 7391369283, 7391369284, 7391369281, 7391388489, 2402704153], "tags": {"addr:city": "Comayaguela", "amenity": "hospital", "building": "hospital", "building:levels": "4", "healthcare": "hospital", "name": "Cruz Roja Hondure\u00f1a"}}, {"type": "way", "id": 235344987, "center": {"lat": 14.1078643, "lon": -87.1917401}, "nodes": [2434179140, 2434179154, 2434179160, 2434179148, 2434179162, 2434179158, 2434179150, 2434179152, 2434179140], "tags": {"amenity": "hospital", "emergency": "no", "name": "Salud el Manchen"}}, {"type": "way", "id": 235344989, "center": {"lat": 14.1049488, "lon": -87.1975475}, "nodes": [2434179143, 2434179156, 2434179166, 2434179168, 8312785607, 8312785606, 2434179146, 2434179164, 2434179143], "tags": {"amenity": "hospital", "healthcare": "hospital", "name": "El Carmen"}}, {"type": "way", "id": 235348008, "center": {"lat": 14.0887713, "lon": -87.1766129}, "nodes": [2434197960, 2434197964, 2434198002, 2434198005, 2434197960], "tags": {"amenity": "hospital", "name": "Cl\u00ednica Centauro"}}, {"type": "way", "id": 235351974, "center": {"lat": 14.0813229, "lon": -87.2020094}, "nodes": [2434226576, 2434226591, 2434226587, 2434226601, 2434226583, 2434226589, 2434226584, 2434226582, 2434226597, 2434226576], "tags": {"amenity": "hospital", "name": "DIME"}}, {"type": "way", "id": 235352879, "center": {"lat": 14.0656437, "lon": -87.2276925}, "nodes": [2434234065, 2434234064, 2434234059, 2434234061, 2434234062, 2434234065], "tags": {"amenity": "hospital", "name": "Cl\u00ednica El Buen Pastor"}}, {"type": "way", "id": 235352880, "center": {"lat": 14.0796068, "lon": -87.2076039}, "nodes": [2434234056, 2434234055, 2434234057, 2434234060, 2434234054, 2434234058, 403636685, 2434234056], "tags": {"amenity": "hospital", "building": "yes", "name": "Centro Medico"}}, {"type": "way", "id": 235580048, "center": {"lat": 13.5307339, "lon": -86.2860073}, "nodes": [2436364890, 2436364892, 2436364893, 2436364894, 2436364890], "tags": {"addr:city": "Telpaneca", "amenity": "hospital", "building": "yes", "emergency": "yes", "name": "Centro de Salud"}}, {"type": "way", "id": 235585436, "center": {"lat": 13.4521949, "lon": -86.4070422}, "nodes": [2436424836, 2436424837, 2436424838, 2436424840, 2436424836], "tags": {"amenity": "hospital", "building": "yes", "emergency": "yes", "name": "Centro de Salud"}}, {"type": "way", "id": 237016911, "center": {"lat": 12.4372145, "lon": -86.8768621}, "nodes": [2449658030, 2449658032, 2449658034, 2449658036, 2449658030], "tags": {"amenity": "hospital", "building": "yes"}}, {"type": "way", "id": 239002175, "center": {"lat": 12.1467786, "lon": -86.2187372}, "nodes": [2468077780, 2468077781, 2468077782, 2468077783, 2468077784, 2468077785, 2468077786, 2468077787, 2468077788, 2468077789, 2468077790, 2627312115, 2468077791, 2468077792, 2468077793, 2468077794, 2468077795, 2468077796, 2468077797, 2468077798, 2468077799, 2468077800, 2468077801, 2468077802, 2468077803, 2468077804, 2468077780], "tags": {"amenity": "hospital", "emergency": "yes", "healthcare": "hospital", "name": "Hospital Alem\u00e1n Nicarag\u00fcense", "name:en": "German Hospital", "wikidata": "Q1630426"}}, {"type": "way", "id": 241553325, "center": {"lat": 13.8015534, "lon": -89.1778331}, "nodes": [2491607625, 2491607626, 2491607628, 2491607629, 2491607625], "tags": {"amenity": "hospital", "area": "yes", "designation": "Unidad de Salud", "emergency": "yes", "name": "Unidad de Salud de Apopa", "source": "KG Ground Survey 2016"}}, {"type": "way", "id": 241570026, "center": {"lat": 13.6927027, "lon": -89.2298538}, "nodes": [2491790089, 2491790090, 2491790091, 2491790092, 2491790089], "tags": {"amenity": "hospital", "building": "yes", "emergency": "yes", "name": "Unidad de Salud Barrios"}}, {"type": "way", "id": 251733117, "center": {"lat": 14.5499522, "lon": -87.0912657}, "nodes": [2579140761, 2579140767, 2579140768, 2579140769, 2579140761], "tags": {"amenity": "hospital", "building": "yes", "name": "Cl\u00ednica Asistencial \"La Caridad\""}}, {"type": "way", "id": 255051548, "center": {"lat": 14.6353247, "lon": -89.9857569}, "nodes": [2608015768, 2608015771, 2608015773, 2608015774, 2608015776, 2608015778, 2608015780, 2608015768], "tags": {"amenity": "hospital", "emergency": "yes", "name": "Hospital Nacional de Jalapa"}}, {"type": "way", "id": 262313881, "center": {"lat": 11.9401189, "lon": -85.9505626}, "nodes": [2940755099, 2940755100, 2679844368, 2679844370, 2940755099], "tags": {"amenity": "hospital", "emergency": "no", "name": "Centro de Salud \"La Villa\""}}, {"type": "way", "id": 262907958, "center": {"lat": 12.1288131, "lon": -86.2244553}, "nodes": [2685564626, 2685564627, 2685564628, 2685564629, 2685564626], "tags": {"addr:city": "Managua", "addr:street": "Pista La Sabana", "amenity": "hospital", "atm": "yes", "healthcare": "clinic", "name": "Clinica Salud Digna", "source": "KG Ground Survey 2016"}}, {"type": "way", "id": 262922586, "center": {"lat": 13.6402861, "lon": -86.4779071}, "nodes": [1662312073, 1662312030, 2685675627, 2685675635, 1662312073], "tags": {"amenity": "hospital", "building": "yes", "healthcare": "hospital", "name": "Centro De Salud"}}, {"type": "way", "id": 263436971, "center": {"lat": 12.1222337, "lon": -86.3047554}, "nodes": [2690523338, 2690523340, 2690523342, 2690523344, 2690523346, 2690523348, 2690523366, 2690523350, 2690523352, 2690523338], "tags": {"addr:city": "Managua", "addr:housename": "Centro Nacional deRadiologia", "amenity": "hospital", "emergency": "no", "name": "Centro Nacional de Radiologia"}}, {"type": "way", "id": 263436976, "center": {"lat": 12.1214441, "lon": -86.3061824}, "nodes": [2690523372, 2690523373, 2690523374, 2690523375, 2690523372], "tags": {"addr:city": "Managua", "addr:street": "Pista Juan Pablo II", "amenity": "hospital", "emergency": "yes", "healthcare": "hospital", "healthcare:speciality": "general;paediatrics;vaccination;dialysis;intensive;emergency;radiology;maternity", "name": "Hospital General Occidental de Managua", "operator": "MINSA", "operator:type": "government"}}, {"type": "way", "id": 264054108, "center": {"lat": 10.0001448, "lon": -83.0263135}, "nodes": [2697234584, 3925029137, 3744651904, 2697234586, 5536161526, 5536161522, 2697234587, 2697234588, 6838217077, 2697234590, 2697234591, 3744651903, 8906088906, 3744651902, 3744651901, 8906088907, 8906088908, 8906125487, 3744651900, 8906088909, 8906088910, 2697234584], "tags": {"addr:city": "Lim\u00f3n", "addr:street": "Paseo Dr. Rub\u00e9n Uma\u00f1a Chavarr\u00eda", "amenity": "hospital", "emergency": "yes", "healthcare": "hospital", "name": "Hospital Dr. Tony Facio Castro", "operator": "CCSS", "operator:type": "public", "wikidata": "Q581167"}}, {"type": "way", "id": 265303474, "center": {"lat": 10.0928388, "lon": -84.4699936}, "nodes": [2709715456, 8897556614, 11241799717, 11241803651, 8699007923, 2709715457, 11241803728, 8897950536, 8897950537, 8897599645, 8897599647, 3329189647, 8897599650, 3329189646, 2709715459, 2709715456], "tags": {"addr:city": "San Juan", "addr:street": "Avenida 11", "amenity": "hospital", "emergency": "yes", "healthcare": "hospital", "name": "Hospital Dr. Carlos Luis Valverde Vega", "name:it": "Ospedale Dott. Carlos Luis Valverde Vega", "operator": "CCSS", "operator:type": "public"}}, {"type": "way", "id": 266467045, "center": {"lat": 13.2747391, "lon": -88.5488596}, "nodes": [2720121334, 2720121335, 2720121336, 2720121337, 2720121338, 2720121339, 2720121334], "tags": {"addr:city": "Puerto El Triunfo", "amenity": "hospital", "building": "yes", "emergency": "yes", "name": "Seguro Social de Puerto El Triunfo ISSS", "wheelchair": "yes"}}, {"type": "way", "id": 266467046, "center": {"lat": 13.2762662, "lon": -88.5465234}, "nodes": [2720121340, 2720121341, 2720121342, 2720121343, 2720121340], "tags": {"addr:city": "Puerto El Triunfo", "amenity": "hospital", "building": "yes", "name": "Unidad de Salud de Puerto El Triunfo"}}, {"type": "way", "id": 268182619, "center": {"lat": 12.3384099, "lon": -83.6721621}, "nodes": [2735457870, 2735457871, 2735457856, 2735457855, 2735457862, 2735457863, 2735457870], "tags": {"addr:city": "Laguna de Perlas", "addr:street": "Calle Henry Clarence", "amenity": "hospital", "building": "yes", "emergency": "yes", "healthcare": "hospital", "name": "Julia Peralta", "name:es": "Julia Peralta", "operator": "Ministerio de Salud", "operator:short": "MINSA", "operator:type": "government", "operator:wikidata": "Q30282287", "operator:wikipedia": "es:Ministerio de Salud (Nicaragua)", "wheelchair": "yes"}}, {"type": "way", "id": 271906874, "center": {"lat": 12.9410334, "lon": -85.914709}, "nodes": [2768348629, 2768348632, 2768348634, 2768348636, 2768348638, 2768348640, 2768348642, 2768348644, 2768348629], "tags": {"amenity": "hospital", "emergency": "yes", "name": "Hospital Escuela Carlos Amador Molina", "wheelchair": "limited"}}, {"type": "way", "id": 273725752, "center": {"lat": 12.7455475, "lon": -86.1255201}, "nodes": [2785571410, 2785571381, 2785571376, 2785571407, 2785571410], "tags": {"amenity": "hospital", "name": "Hospitalito Ciudad Dar\u00edo"}}, {"type": "way", "id": 277946056, "center": {"lat": 13.9973667, "lon": -88.3780841}, "nodes": [2823836833, 2823836834, 2823836835, 2823836836, 2823836837, 2823836838, 2823836833], "tags": {"amenity": "hospital"}}, {"type": "way", "id": 279281529, "center": {"lat": 13.8336924, "lon": -89.2693519}, "nodes": [2835052899, 2835052900, 2835054701, 2835054702, 2835054703, 3199815909, 2835054704, 2835054705, 2835054706, 3199815910, 3199815911, 3199815912, 3199815913, 3199815915, 3199815914, 2835054707, 2835054708, 2835052899], "tags": {"amenity": "hospital", "name": "ISSS, Quezaltepeque"}}, {"type": "way", "id": 281466478, "center": {"lat": 12.1193168, "lon": -86.2528486}, "nodes": [2854177211, 2854177214, 2854177215, 2854177210, 2854177211], "tags": {"amenity": "hospital", "healthcare": "hospital", "name": "Cl\u00ednica Atenci\u00f3n al Hombre", "short_name": "CEPRESI"}}, {"type": "way", "id": 285332270, "center": {"lat": 13.997706, "lon": -89.5609406}, "nodes": [2889990842, 9458889862, 3868370698, 3868370699, 2889990843, 9457204544, 9457204537, 9458889860, 9457204538, 9458889863, 9457204539, 9458889864, 2889990844, 9458889874, 9458889866, 2889990845, 9458889865, 2889990842], "tags": {"addr:city": "Santa Ana", "addr:housenumber": "18", "amenity": "hospital", "healthcare": "hospital", "healthcare:speciality": "general;odontology;dentistry;surgery;internal;paediatrics;gynaecology;dermatology;orthopaedics;neurosurgery;cardiology;neurology;urology;pneumology;nephrology;infectology;endocrinology;oncology", "name": "Unidad M\u00e9dica de Santa Ana", "opening_hours": "Mo-Fr 07:00-17:00", "operator": "Instituto Salvadore\u00f1o del Seguro Social", "operator:abbr": "ISSS", "operator:type": "public", "website": "https://www.transparencia.gob.sv/institutions/27/services/5869"}}, {"type": "way", "id": 285819751, "center": {"lat": 10.0887791, "lon": -83.3409835}, "nodes": [2894475025, 2894475026, 2894475027, 2894475028, 2894475025], "tags": {"addr:city": "Bat\u00e1n", "addr:street": "V\u00eda 804", "amenity": "hospital", "emergency": "yes", "healthcare": "hospital", "name": "Cl\u00ednica CCSS Bat\u00e1n", "operator": "CCSS", "operator:type": "public"}}, {"type": "way", "id": 286669026, "center": {"lat": 14.3881042, "lon": -87.6182283}, "nodes": [2903432607, 2903432608, 2903432605, 2903432606, 2903432604, 2903432603, 2903432602, 2903432601, 2903432607], "tags": {"amenity": "hospital", "building": "yes", "healthcare": "hospital"}}, {"type": "way", "id": 286834891, "center": {"lat": 13.3470235, "lon": -87.8761042}, "nodes": [2905129453, 2905129454, 5605975118, 2905129455, 2905129456, 10687967337, 10687967339, 2905129453], "tags": {"addr:city": "La Uni\u00f3n", "amenity": "hospital", "emergency": "yes", "name": "Hospital Nacional de La Uni\u00f3n"}}, {"type": "way", "id": 287639609, "center": {"lat": 14.8479533, "lon": -88.4360396}, "nodes": [2912062022, 2912062023, 2912062024, 2912062025, 2912062022], "tags": {"amenity": "hospital", "name": "23\\8"}}, {"type": "way", "id": 287720795, "center": {"lat": 14.7838509, "lon": -88.4659796}, "nodes": [2912944191, 2912944192, 2912944193, 2912944194, 2912944191], "tags": {"amenity": "hospital"}}, {"type": "way", "id": 287720796, "center": {"lat": 14.7839333, "lon": -88.4661276}, "nodes": [2912944195, 2912944196, 2912944197, 2912944198, 2912944195], "tags": {"amenity": "hospital"}}, {"type": "way", "id": 287893004, "center": {"lat": 14.7837989, "lon": -88.4661339}, "nodes": [2914575965, 2914575966, 2914575967, 2914575968, 2914575965], "tags": {"amenity": "hospital"}}, {"type": "way", "id": 289662037, "center": {"lat": 14.7761977, "lon": -88.4603988}, "nodes": [2932095534, 2932095535, 2932095536, 2932095537, 2932095534], "tags": {"amenity": "hospital"}}, {"type": "way", "id": 290097619, "center": {"lat": 13.7019918, "lon": -89.2379355}, "nodes": [2936350738, 4024021349, 3222656408, 8896944994, 3222656405, 3222656404, 3222656403, 2936350739, 2936350740, 2936350741, 3222656406, 3222656407, 2936350742, 2936350743, 4024021345, 4702839141, 4024021344, 4702839140, 4702839148, 2936350738], "tags": {"addr:city": "San Salvador", "addr:street": "83 Avenida Sur", "amenity": "hospital", "emergency": "yes", "healthcare": "hospital", "name": "Hospital de La Mujer"}}, {"type": "way", "id": 293786679, "center": {"lat": 13.3816011, "lon": -81.3665719}, "nodes": [2973702050, 2973669856, 2973700652, 2973671353, 2973671352, 2973701050, 2973702047, 6030927192, 6030927191, 6030927190, 6030927189, 6030927188, 6030927187, 6030927186, 6030927185, 6030927184, 6030927183, 6030927182, 6030927181, 6030927180, 6030927179, 2973702050], "tags": {"amenity": "hospital", "emergency": "yes", "name": "Hospital Local de Providencia y Santa Catalina", "phone": "+57-8-5148415", "source": "Bing"}}, {"type": "way", "id": 293941427, "center": {"lat": 17.2545288, "lon": -88.7750449}, "nodes": [2975188767, 2975188768, 2975188769, 2975188770, 2975188771, 2975188772, 2975188773, 2975188774, 11302844392, 2975188775, 2975188767], "tags": {"addr:city": "Belmopan", "addr:street": "Constitution Drive", "amenity": "hospital", "emergency": "yes", "healthcare": "hospital", "name": "Western Regional Hospital", "name:es": "Hospital Regional del Oeste", "opening_hours": "Mo-Su 10:30-13:00, 16:00-19:00", "source": "KG Ground Survey 2015"}}, {"type": "way", "id": 295699807, "center": {"lat": 17.5071986, "lon": -88.1956777}, "nodes": [2994478714, 10233596326, 10233596327, 2994478715, 2994478716, 10233596328, 2994478717, 2994478718, 4976815273, 4976815445, 2994478719, 2994479023, 2994478720, 2994478721, 2994478722, 2994479024, 2994478723, 2994478724, 8894415427, 8894415426, 2994478726, 2994478714], "tags": {"amenity": "hospital", "emergency": "yes", "healthcare": "hospital", "name": "Karl Heusner Memorial Hospital", "wikidata": "Q6371904"}}, {"type": "way", "id": 307183192, "center": {"lat": 10.0717395, "lon": -84.3166927}, "nodes": [3122582994, 9936230456, 4953782543, 4953782542, 3122582995, 8467961495, 9936230455, 3122582996, 6794026510, 6794026509, 3122582993, 6793975582, 3122582994], "tags": {"addr:city": "Grecia", "addr:street": "Avenida Ismael Valerio", "amenity": "hospital", "emergency": "yes", "healthcare": "hospital", "name": "Hospital San Francisco de Asis", "operator": "CCSS", "operator:type": "public", "operator:wikidata": "Q5174896", "operator:wikipedia": "en:Costa Rican Social Security Fund", "wikidata": "Q5861495", "wikipedia": "es:Hospital San Francisco de As\u00eds"}}, {"type": "way", "id": 307816095, "center": {"lat": 15.4999117, "lon": -88.0384279}, "nodes": [3130562813, 3130562814, 3130562815, 3130562816, 3130562813], "tags": {"addr:city": "San Pedro Sula", "addr:street": "Avenida Circunvalacion", "amenity": "hospital", "emergency": "yes", "name": "HospitalBenda\u00f1a"}}, {"type": "way", "id": 309450322, "center": {"lat": 12.0086727, "lon": -83.7677958}, "nodes": [3147805990, 3147805991, 3147805992, 3147805993, 3147805990], "tags": {"addr:city": "Bluefields", "amenity": "hospital", "healthcare": "hospital", "loc_name": "Hospital de Bluefields", "name": "Hospital Regional Ernesto Sequeira Blanco", "wheelchair": "yes"}}, {"type": "way", "id": 310120945, "center": {"lat": 14.8723444, "lon": -89.0545527}, "nodes": [3154846486, 3154846487, 3154846488, 3154846489, 3154846490, 3154846491, 3154846492, 3154846493, 3154846494, 3154846495, 3154846486], "tags": {"amenity": "hospital", "name": "MATERNO INFANTIL"}}, {"type": "way", "id": 310512553, "center": {"lat": 14.8180414, "lon": -88.9385357}, "nodes": [3159337720, 3159337721, 3159337722, 3159337723, 3159337720], "tags": {"amenity": "hospital"}}, {"type": "way", "id": 310536188, "center": {"lat": 14.8186999, "lon": -88.9366546}, "nodes": [3159585367, 3159585368, 3159585369, 3159585370, 3159585367], "tags": {"amenity": "hospital", "name": "hospital"}}, {"type": "way", "id": 310880528, "center": {"lat": 14.0369808, "lon": -83.3939122}, "nodes": [3163834818, 11105773581, 11105773582, 3163834850, 3163834833, 3163834845, 3163834856, 3163834888, 8132585543, 3163834910, 3163834875, 3163834865, 3163834835, 3163834832, 3163834825, 3163834818], "tags": {"amenity": "hospital", "emergency": "yes", "healthcare": "hospital", "name": "Hospital Nuevo Amanecer"}}, {"type": "way", "id": 311345392, "center": {"lat": 13.3023606, "lon": -87.2004043}, "nodes": [3169618294, 3169618295, 3169618296, 3169618297, 7060340919, 3169618294], "tags": {"addr:city": "Choluteca", "addr:street": "4a Calle N", "amenity": "hospital", "emergency": "yes", "healthcare": "hospital", "name": "Hospital Regional del Sur"}}, {"type": "way", "id": 311426092, "center": {"lat": 14.8814746, "lon": -88.9735393}, "nodes": [3170680223, 3170680224, 3170680225, 3170680226, 3170680223], "tags": {"amenity": "hospital", "name": "Centro de Salud"}}, {"type": "way", "id": 311438795, "center": {"lat": 13.3059816, "lon": -87.1901388}, "nodes": [3170856702, 3170856703, 3170856704, 3170856705, 3170856702], "tags": {"addr:city": "Choluteca", "amenity": "hospital", "healthcare": "hospital", "name": "Hospital Ferguson"}}, {"type": "way", "id": 313912761, "center": {"lat": 13.8370337, "lon": -89.2741439}, "nodes": [3199548171, 3199548172, 3199548173, 3199548174, 3199548171], "tags": {"addr:city": "Quezaltepeque", "addr:street": "10 Calle", "amenity": "hospital", "name": "Cruz Roja de Quezaltepeque"}}, {"type": "way", "id": 313945416, "center": {"lat": 13.8327854, "lon": -89.271146}, "nodes": [3199890666, 3199890667, 3199890668, 3199890669, 3199890666], "tags": {"addr:city": "Quezaltepeque", "addr:street": "1 Avenida Sur", "amenity": "hospital", "name": "Unidad de Salud, Quezaltepeque"}}, {"type": "way", "id": 314258912, "center": {"lat": 14.3224057, "lon": -87.6781333}, "nodes": [3203061288, 3203061289, 3203061290, 3203061291, 3203061288], "tags": {"addr:city": "La Paz", "addr:street": "Bulevar Presidente", "amenity": "hospital", "healthcare": "hospital", "name": "Hospital Roberto Suazo C\u00f3rdova"}}, {"type": "way", "id": 314808435, "center": {"lat": 14.3256035, "lon": -87.682868}, "nodes": [3208535954, 3208535955, 3208535956, 3208535957, 3208535954], "tags": {"addr:city": "La Paz", "addr:postcode": "504", "amenity": "hospital", "healthcare": "hospital", "name": "Farmacia Kielsa"}}, {"type": "way", "id": 315633308, "center": {"lat": 12.589251, "lon": -87.022409}, "nodes": [3217644363, 3217644364, 9982061350, 3217644365, 3217644366, 3217644363], "tags": {"addr:city": "Chichigalpa", "amenity": "hospital", "emergency": "yes", "name": "Hospital Primario de Chichigalpa"}}, {"type": "way", "id": 316313028, "center": {"lat": 10.0240061, "lon": -84.2035235}, "nodes": [3224219946, 3224219947, 9019963470, 10296433644, 9019963517, 9019963471, 10296433642, 3224219946], "tags": {"addr:city": "Alajuela", "addr:street": "Calle Higuerones", "alt_name": "Ebais Alajuela Norte", "amenity": "hospital", "description": "Ebais Guadalupe, El Llano, Canoas, Brasil, Desamparados y Rosales.", "emergency": "yes", "healthcare": "hospital", "name": "Cl\u00ednica Dr. Marcial Rodr\u00edguez Conejo", "operator": "CCSS", "operator:type": "public", "operator:wikidata": "Q5174896", "operator:wikipedia": "en:Costa Rican Social Security Fund"}}, {"type": "way", "id": 316324664, "center": {"lat": 13.7188738, "lon": -89.2157447}, "nodes": [3783742370, 3783742372, 3224355251, 3783742366, 3783742371, 10250216652, 10250216651, 3783742369, 3783742370], "tags": {"addr:city": "San Salvador", "addr:street": "Avenida Bernal", "amenity": "hospital", "healthcare": "hospital", "name": "Hospital Militar", "operator": "FAES", "operator:type": "private"}}, {"type": "way", "id": 316846238, "center": {"lat": 15.5415054, "lon": -88.0157367}, "nodes": [3230307022, 3230307023, 3230307024, 6555260726, 6555260723, 6555260724, 4193799571, 8279595822, 2797227303, 4193799565, 4193799564, 8279595821, 6555260707, 3230307025, 3230307026, 4193799581, 3230307022], "tags": {"addr:city": "San Pedro Sula", "addr:postcode": "504", "addr:street": "10 Calle", "amenity": "hospital", "healthcare": "hospital", "name": "Instituto Hondure\u00f1o de Seguridad Social"}}, {"type": "way", "id": 317868814, "center": {"lat": 14.9867664, "lon": -89.0553824}, "nodes": [3241866658, 3241866659, 3241866660, 3241867361, 3241866658], "tags": {"amenity": "hospital", "healthcare": "hospital", "name": "Centro de Salud"}}, {"type": "way", "id": 320571145, "center": {"lat": 14.8534183, "lon": -89.0306174}, "nodes": [3271158856, 3271158857, 3271158858, 3271158859, 3271158856], "tags": {"amenity": "hospital", "name": "CENTRO DE SALUD"}}, {"type": "way", "id": 320575823, "center": {"lat": 14.9210489, "lon": -88.9886613}, "nodes": [3271199981, 3271199982, 3271199983, 3271199984, 3271199981], "tags": {"amenity": "hospital", "name": "CENTRO DE SALUD"}}, {"type": "way", "id": 320877919, "center": {"lat": 14.819804, "lon": -89.0067865}, "nodes": [3275331553, 3275331554, 3275331555, 3275331556, 3275331553], "tags": {"amenity": "hospital", "healthcare": "hospital", "name": "CENTRO DE SALUD"}}, {"type": "way", "id": 321684570, "center": {"lat": 14.8329462, "lon": -88.6060775}, "nodes": [3284471055, 3284471056, 3284471057, 3284471058, 3284471055], "tags": {"amenity": "hospital"}}, {"type": "way", "id": 321689192, "center": {"lat": 14.9587397, "lon": -88.3229388}, "nodes": [3284508948, 3284508949, 3284508950, 3284508951, 3284508948], "tags": {"amenity": "hospital"}}, {"type": "way", "id": 323060023, "center": {"lat": 14.779738, "lon": -88.6965954}, "nodes": [3298603809, 3298603810, 3298603811, 3298603812, 3298603809], "tags": {"amenity": "hospital", "name": "Hospital"}}, {"type": "way", "id": 323064972, "center": {"lat": 14.7801491, "lon": -88.6979671}, "nodes": [3298687265, 3298687266, 3298687267, 3298687268, 3298687265], "tags": {"amenity": "hospital", "name": "Hospital"}}, {"type": "way", "id": 323712395, "center": {"lat": 14.7566888, "lon": -89.0431428}, "nodes": [3304916957, 3304916958, 3304916959, 3304916960, 3304916957], "tags": {"amenity": "hospital", "name": "CENTRO DE SALUD"}}, {"type": "way", "id": 323714107, "center": {"lat": 14.9526698, "lon": -88.9157613}, "nodes": [3304937180, 3304937181, 3304937182, 3304937183, 3304937180], "tags": {"amenity": "hospital", "name": "CENTRO DE SALUD"}}, {"type": "way", "id": 325283424, "center": {"lat": 14.9267759, "lon": -89.0906935}, "nodes": [3319530644, 3319530645, 3319530646, 3319530647, 3319530644], "tags": {"amenity": "hospital", "name": "CENTRO DE SALUD"}}, {"type": "way", "id": 326103606, "center": {"lat": 14.8126374, "lon": -89.5488654}, "nodes": [3327206807, 3327206808, 3327206809, 3327206810, 3327206807], "tags": {"amenity": "hospital", "name": "Cl\u00ednica Social", "operator": "Dr. Randy"}}, {"type": "way", "id": 326234181, "center": {"lat": 14.9677381, "lon": -89.5244622}, "nodes": [3328543101, 3328543102, 3328543103, 3328543104, 3328543105, 3328543106, 3328543107, 3328543108, 3328543109, 3328543110, 3328543111, 3328543112, 3328543113, 3328543114, 3328543115, 3328543116, 3328543117, 3328543118, 3328543119, 3328543120, 3328543101], "tags": {"amenity": "hospital", "name": "Hospital Regional de Zacapa", "source": "Reconocimiento cartogr\u00e1fico por KG 2016."}}, {"type": "way", "id": 326236502, "center": {"lat": 14.962993, "lon": -89.5250817}, "nodes": [3328571381, 3328571382, 3328571383, 3328571384, 3328571381], "tags": {"amenity": "hospital", "healthcare": "hospital", "name": "Instituto Guatemalteco de Seguridad Social (IGSS)"}}, {"type": "way", "id": 326237070, "center": {"lat": 14.616561, "lon": -89.6219641},