{"version": 0.6, "generator": "Overpass API 0.7.61.5 4133829e", "osm3s": {"timestamp_osm_base": "2023-10-31T20:54:41Z", "copyright": "The data included in this document is from www.openstreetmap.org. The data is made available under ODbL."}, "elements": [{"type": "node", "id": 479737407, "lat": 24.8563966, "lon": 67.0544131, "tags": {"addr:city": "Karachi", "addr:country": "PK", "addr:housenumber": "SMCHS Block B", "addr:place": "SMCHS Block B", "addr:province": "Sindh", "addr:street": "SMCHS", "addr:suburb": "PECHS", "amenity": "hospital", "healthcare": "hospital", "name": "Alvi Dental Hospital"}}, {"type": "node", "id": 955183623, "lat": 27.6912135, "lon": 68.8554361, "tags": {"addr:city": "Sukkur", "addr:street": "Workshop Road", "amenity": "hospital", "healthcare": "hospital", "name": "HIRA hospital"}}, {"type": "node", "id": 1088992109, "lat": 25.3711979, "lon": 68.356747, "tags": {"amenity": "hospital", "name": "DOCTORS PLAZA"}}, {"type": "node", "id": 1093392155, "lat": 25.3954647, "lon": 68.3765575, "tags": {"addr:city": "\u062d\u06cc\u062f\u0631\u0622\u0628\u0627\u062f", "addr:city:en": "Hyderabad", "addr:city:fr": "Hyder\u00e2b\u00e2d", "addr:city:pa": "\u0a39\u0a48\u0a26\u0a30\u0a3e\u0a2c\u0a3e\u0a26", "addr:city:ur": "\u062d\u06cc\u062f\u0631\u0622\u0628\u0627\u062f", "addr:street": "Haji Ehsan Ali Road", "amenity": "hospital", "healthcare": "hospital", "name": "Memon Hospital"}}, {"type": "node", "id": 1096136959, "lat": 25.3725749, "lon": 68.3479493, "tags": {"addr:city": "\u062d\u06cc\u062f\u0631\u0622\u0628\u0627\u062f", "addr:city:en": "Hyderabad", "addr:city:fr": "Hyder\u00e2b\u00e2d", "addr:city:pa": "\u0a39\u0a48\u0a26\u0a30\u0a3e\u0a2c\u0a3e\u0a26", "addr:city:ur": "\u062d\u06cc\u062f\u0631\u0622\u0628\u0627\u062f", "addr:street": "unit no.2 main road", "amenity": "hospital", "healthcare": "hospital", "healthcare:speciality": "cardiology", "name": "Red Crescent Institute of Cardiology"}}, {"type": "node", "id": 1099449484, "lat": 25.3740851, "lon": 68.3554138, "tags": {"addr:city": "\u062d\u06cc\u062f\u0631\u0622\u0628\u0627\u062f", "addr:city:en": "Hyderabad", "addr:city:fr": "Hyder\u00e2b\u00e2d", "addr:city:pa": "\u0a39\u0a48\u0a26\u0a30\u0a3e\u0a2c\u0a3e\u0a26", "addr:city:ur": "\u062d\u06cc\u062f\u0631\u0622\u0628\u0627\u062f", "addr:street": "BRIDGE", "amenity": "hospital"}}, {"type": "node", "id": 1101278044, "lat": 25.3922638, "lon": 68.3629405, "tags": {"amenity": "hospital"}}, {"type": "node", "id": 1102236416, "lat": 25.3682693, "lon": 68.3523961, "tags": {"addr:city": "\u062d\u06cc\u062f\u0631\u0622\u0628\u0627\u062f", "addr:city:en": "Hyderabad", "addr:city:fr": "Hyder\u00e2b\u00e2d", "addr:city:pa": "\u0a39\u0a48\u0a26\u0a30\u0a3e\u0a2c\u0a3e\u0a26", "addr:city:ur": "\u062d\u06cc\u062f\u0631\u0622\u0628\u0627\u062f", "addr:street": "Unit No 6", "amenity": "hospital", "name": "Red Crescent General Hospital Hilal E Ahmer"}}, {"type": "node", "id": 1107332782, "lat": 25.3343365, "lon": 68.3627674, "tags": {"amenity": "hospital"}}, {"type": "node", "id": 1119754101, "lat": 25.3882, "lon": 68.375948, "tags": {"addr:city": "\u062d\u06cc\u062f\u0631\u0622\u0628\u0627\u062f", "addr:city:en": "Hyderabad", "addr:city:fr": "Hyder\u00e2b\u00e2d", "addr:city:pa": "\u0a39\u0a48\u0a26\u0a30\u0a3e\u0a2c\u0a3e\u0a26", "addr:city:ur": "\u062d\u06cc\u062f\u0631\u0622\u0628\u0627\u062f", "addr:street": "Station Road", "amenity": "hospital", "healthcare": "hospital", "name": "Homeo Pathic Hospital"}}, {"type": "node", "id": 1410491679, "lat": 24.9223154, "lon": 67.0885875, "tags": {"addr:city": "Karachi", "addr:street": "Allama Shabbir Ahmed Usmani Road", "amenity": "hospital", "name": "RAB Medical Centre"}}, {"type": "node", "id": 1410491682, "lat": 24.9216319, "lon": 67.088304, "tags": {"addr:city": "Karachi", "amenity": "hospital", "healthcare": "hospital", "name": "Samdani Hospital", "name:ur": "\u0635\u0645\u062f\u0627\u0646\u06cc \u06c1\u0633\u067e\u062a\u0627\u0644"}}, {"type": "node", "id": 1428217425, "lat": 24.8810104, "lon": 66.9452126, "tags": {"addr:city": "Karachi", "addr:country": "PK", "addr:postcode": "75020", "addr:province": "Sindh", "amenity": "hospital", "name": "Family Wing"}}, {"type": "node", "id": 1428217500, "lat": 24.8819837, "lon": 66.9471331, "tags": {"addr:city": "Karachi", "addr:country": "PK", "addr:postcode": "75020", "addr:province": "Sindh", "amenity": "hospital", "name": "PAF Hospital"}}, {"type": "node", "id": 1428217511, "lat": 24.8801187, "lon": 66.9486035, "tags": {"addr:city": "Karachi", "addr:country": "PK", "addr:postcode": "75020", "addr:province": "Sindh", "amenity": "hospital", "name": "M I Room"}}, {"type": "node", "id": 1428265981, "lat": 24.8881829, "lon": 66.9529916, "tags": {"addr:city": "Karachi", "addr:country": "PK", "addr:postcode": "75020", "addr:province": "Sindh", "amenity": "hospital", "name": "Medical Institute"}}, {"type": "node", "id": 1601021116, "lat": 23.2366229, "lon": 69.664847, "tags": {"addr:district": "Kutch", "addr:full": "Mundra Road, Bhuj", "addr:postcode": "370001", "addr:state": "Gujarat", "amenity": "hospital", "contact:phone": "2832 230033", "name": "Accord Multi Speciality Hospital", "source": "OpenGovernmentData", "website": "https://www.accordhospital.com/"}}, {"type": "node", "id": 1674843648, "lat": 25.4340549, "lon": 68.2708757, "tags": {"amenity": "hospital", "designation": "O.P.D.", "emergency": "yes", "name": "O.P.D."}}, {"type": "node", "id": 2270001306, "lat": 27.3875843, "lon": 62.3203047, "tags": {"amenity": "hospital", "healthcare": "hospital", "name": "\u062a\u0627\u0645\u06cc\u0646 \u0627\u062c\u062a\u0645\u0627\u0639\u06cc"}}, {"type": "node", "id": 2288413123, "lat": 27.2934325, "lon": 62.0067747, "tags": {"amenity": "hospital", "name": "\u0628\u06cc\u0645\u0627\u0631\u0633\u062a\u0627\u0646"}}, {"type": "node", "id": 2552024424, "lat": 24.8700417, "lon": 67.3554507, "tags": {"addr:city": "\u06a9\u0631\u0627\u0686\u06cc", "addr:housenumber": "1", "addr:postcode": "75010", "amenity": "hospital", "emergency": "yes", "healthcare": "hospital", "name": "\u0627\u0644\u062d\u062f\u06cc\u062f \u0645\u06cc\u0688\u06cc\u06a9\u0644 \u0633\u0646\u0679\u0631", "name:en": "Al Hadeed Medical Centre", "name:ur": "\u0627\u0644\u062d\u062f\u06cc\u062f \u0645\u06cc\u0688\u06cc\u06a9\u0644 \u0633\u0646\u0679\u0631"}}, {"type": "node", "id": 2671312033, "lat": 24.9265842, "lon": 67.0646827, "tags": {"amenity": "hospital", "name": "Agha Khan Hospital for Women"}}, {"type": "node", "id": 2671409823, "lat": 24.9239276, "lon": 67.0447127, "tags": {"addr:city": "Karachi", "addr:country": "PK", "addr:postcode": "74700", "addr:province": "Sindh", "addr:street": "Allama Rasheed Turabi Road", "addr:suburb": "North Nazimabad Town", "amenity": "hospital", "name": "Ziauddin Hospital North Nazimabad"}}, {"type": "node", "id": 3776185658, "lat": 21.6384315, "lon": 69.6132179, "tags": {"amenity": "hospital", "name": "SURUCHHI HOSPITAL"}}, {"type": "node", "id": 3776185666, "lat": 21.6390121, "lon": 69.6168403, "tags": {"amenity": "hospital", "name": "OM IMAGING CENTRE"}}, {"type": "node", "id": 3823314814, "lat": 28.4334959, "lon": 69.6765, "tags": {"amenity": "hospital", "name": "Wapda Hospital Guddu", "operator": "Wapda Hospital"}}, {"type": "node", "id": 3945273627, "lat": 24.9381578, "lon": 67.1487787, "tags": {"amenity": "hospital", "name": "Dr Essa Clinical Laboratory"}}, {"type": "node", "id": 3947043735, "lat": 24.9388891, "lon": 67.1493164, "tags": {"amenity": "hospital", "name": "Al Rehman Hospital"}}, {"type": "node", "id": 4319407286, "lat": 24.9243463, "lon": 67.0469145, "tags": {"addr:city": "Karachi", "addr:country": "PK", "addr:province": "Sindh", "addr:suburb": "North Nazimabad Town", "amenity": "hospital", "name": "Zia uddin Hospital (OPD)"}}, {"type": "node", "id": 4328229490, "lat": 27.6932684, "lon": 68.8584205, "tags": {"addr:street": "jagarani mohallah", "amenity": "hospital", "name": "Bhatti hospital", "opening_hours": "Mo-Su 10:00-21:00"}}, {"type": "node", "id": 4344000389, "lat": 24.9494808, "lon": 67.214321, "tags": {"addr:city": "Karachi", "addr:street": "Fouji Road", "amenity": "hospital", "emergency": "yes", "name": "CMH Malir"}}, {"type": "node", "id": 4367461191, "lat": 24.9252601, "lon": 67.0914869, "tags": {"addr:housenumber": "C15 block 3", "addr:street": "Gulshan Chowk Fly Over", "amenity": "hospital", "name": "Taj Medical Center", "name:en": "Taj Medical Center"}}, {"type": "node", "id": 4430621589, "lat": 24.8253838, "lon": 67.0771614, "tags": {"addr:city": "\u06a9\u0631\u0627\u0686\u06cc", "addr:street": "\u0627\u0633\u0679\u0631\u06cc\u0679 1", "amenity": "hospital", "emergency": "yes", "healthcare": "hospital", "healthcare:speciality": "radiology", "name": "Shaukat Khanum Memorial Cancer Hospital-Phase 7"}}, {"type": "node", "id": 4496336860, "lat": 24.9225212, "lon": 67.0922155, "tags": {"addr:city": "Karachi", "addr:postcode": "75300", "amenity": "hospital", "name": "Akhtar Eye Hospital"}}, {"type": "node", "id": 4610363491, "lat": 24.8594455, "lon": 67.0116782, "tags": {"addr:street": "Hospital Road", "amenity": "hospital", "name": "Civil hospital, Karachi"}}, {"type": "node", "id": 4611200091, "lat": 24.8976232, "lon": 67.0783887, "tags": {"addr:city": "Karachi", "addr:street": "Sir Shah Muhammad Suleman Road", "amenity": "hospital", "name": "NIBD Hospital"}}, {"type": "node", "id": 4724110185, "lat": 24.8167004, "lon": 67.0314159, "tags": {"addr:city": "Karachi", "addr:country": "PK", "addr:province": "Sindh", "addr:suburb": "Clifton", "amenity": "hospital", "country": "PK", "name": "Parklane Hospital"}}, {"type": "node", "id": 4734023561, "lat": 24.8868015, "lon": 67.0533003, "tags": {"addr:city": "Karachi", "addr:street": "Shahrah-e-Millat", "amenity": "hospital", "emergency": "yes", "name": "Usmania Hospital"}}, {"type": "node", "id": 4734023597, "lat": 24.9314545, "lon": 67.0383043, "tags": {"addr:city": "Karachi", "addr:country": "PK", "addr:province": "Sindh", "addr:street": "Sher Shah Suri road", "addr:suburb": "North Nazimabad Town", "amenity": "hospital", "name": "Safi Hospital"}}, {"type": "node", "id": 4734370142, "lat": 24.883327, "lon": 67.0822341, "tags": {"addr:city": "Karachi", "addr:street": "Ghazi Salahuddin Rd", "amenity": "hospital", "emergency": "yes", "name": "Zubaida Medical Hospital"}}, {"type": "node", "id": 4734370156, "lat": 24.8809599, "lon": 67.0635735, "tags": {"addr:city": "Karachi", "addr:street": "Shaheed e Millat Road", "amenity": "hospital", "name": "Medicare Cardiac & General Hospital"}}, {"type": "node", "id": 4737625706, "lat": 24.8863792, "lon": 67.1547019, "tags": {"addr:city": "Karachi", "addr:street": "Shahrah e Faisal", "amenity": "hospital", "name": "Ali Medical Complex"}}, {"type": "node", "id": 4737664783, "lat": 24.8851411, "lon": 67.1750989, "tags": {"addr:city": "Karachi", "addr:place": "Faisal Cantonment", "addr:province": "Sindh", "addr:street": "Shahrah e Faisal", "amenity": "hospital", "name": "FOMG Hospital"}}, {"type": "node", "id": 4737680866, "lat": 24.8836544, "lon": 67.1792429, "tags": {"addr:city": "Karachi", "addr:place": "Malir Town", "addr:province": "Sindh", "addr:street": "National Highway", "amenity": "hospital", "name": "Doctors Plaza"}}, {"type": "node", "id": 4737685500, "lat": 24.8831173, "lon": 67.1805947, "tags": {"addr:city": "Karachi", "addr:place": "Malir Town", "addr:province": "Sindh", "addr:street": "National Highway", "amenity": "hospital", "name": "Aga Khan University Hospital Medical Centre Malir"}}, {"type": "node", "id": 4737685501, "lat": 24.8830274, "lon": 67.1809059, "tags": {"addr:city": "Karachi", "addr:place": "Malir Town", "addr:province": "Sindh", "addr:street": "National Highway", "amenity": "hospital", "name": "Dr Atiq Orthopedic & Medical Centre"}}, {"type": "node", "id": 4737689208, "lat": 24.8826404, "lon": 67.1820404, "tags": {"addr:city": "Karachi", "addr:place": "Malir Town", "addr:province": "Sindh", "addr:street": "National Highway", "amenity": "hospital", "name": "Al Mumtaz Hospital"}}, {"type": "node", "id": 4737689209, "lat": 24.8825099, "lon": 67.1821684, "tags": {"addr:city": "Karachi", "addr:place": "Malir Town", "addr:province": "Sindh", "addr:street": "National Highway", "amenity": "hospital", "name": "Nehal Hospital"}}, {"type": "node", "id": 4737716791, "lat": 24.8806454, "lon": 67.1856912, "tags": {"addr:city": "Karachi", "addr:place": "Malir Town", "addr:province": "Sindh", "addr:street": "National Highway", "amenity": "hospital", "name": "Dr Khan Laboratory & Diagnostic Centre"}}, {"type": "node", "id": 4737716792, "lat": 24.8805309, "lon": 67.1858192, "tags": {"addr:city": "Karachi", "addr:place": "Malir Town", "addr:province": "Sindh", "addr:street": "National Highway", "amenity": "hospital", "name": "Hassan General Hospital"}}, {"type": "node", "id": 4737814936, "lat": 24.8591711, "lon": 67.2079895, "tags": {"addr:city": "\u06a9\u0631\u0627\u0686\u06cc", "addr:city:ar": "\u0643\u0631\u0627\u062a\u0634\u064a", "addr:city:en": "Karachi", "addr:city:ks": "\u06a9\u064e\u0631\u0672\u0686\u06cc", "addr:city:pnb": "\u06a9\u0631\u0627\u0686\u06cc", "addr:city:ps": "\u06a9\u0631\u0627\u0686\u06cd", "addr:city:sd": "\u06aa\u0631\u0627\u0686\u064a", "addr:city:ur": "\u06a9\u0631\u0627\u0686\u06cc", "addr:street": "National Highway", "amenity": "hospital", "name": "Aurangzeb Hospital"}}, {"type": "node", "id": 4737820029, "lat": 24.8544435, "lon": 67.2108299, "tags": {"addr:city": "\u06a9\u0631\u0627\u0686\u06cc", "addr:city:ar": "\u0643\u0631\u0627\u062a\u0634\u064a", "addr:city:en": "Karachi", "addr:city:ks": "\u06a9\u064e\u0631\u0672\u0686\u06cc", "addr:city:pnb": "\u06a9\u0631\u0627\u0686\u06cc", "addr:city:ps": "\u06a9\u0631\u0627\u0686\u06cd", "addr:city:sd": "\u06aa\u0631\u0627\u0686\u064a", "addr:city:ur": "\u06a9\u0631\u0627\u0686\u06cc", "addr:street": "National Highway", "amenity": "hospital", "name": "Hamid Hospital"}}, {"type": "node", "id": 4738010732, "lat": 24.9204202, "lon": 67.0310582, "tags": {"addr:city": "Karachi", "addr:country": "PK", "addr:place": "Nazimabad 3", "addr:postcode": "74700", "addr:province": "Sindh", "addr:street": "Nawab Siddique Ali Khan Road", "addr:suburb": "Nazimabad", "amenity": "hospital", "name": "Midway Hospital"}}, {"type": "node", "id": 4738010733, "lat": 24.9211529, "lon": 67.0296122, "tags": {"addr:city": "Karachi", "addr:country": "PK", "addr:place": "Nazimabad 3", "addr:postcode": "74700", "addr:province": "Sindh", "addr:street": "Nazimabad 3", "addr:suburb": "Nazimabad", "amenity": "hospital", "name": "Abbasi Shaheed Trauma Centre"}}, {"type": "node", "id": 4738085528, "lat": 24.9249885, "lon": 67.0332063, "tags": {"addr:city": "Karachi", "addr:country": "PK", "addr:place": "North Nazimabad Block B", "addr:postcode": "74700", "addr:province": "Sindh", "addr:street": "North Nazimabad Block B", "addr:suburb": "North Nazimabad Town", "amenity": "hospital", "name": "Hanif Hospital Diagnostic Centre"}}, {"type": "node", "id": 4738085531, "lat": 24.925186, "lon": 67.034245, "tags": {"addr:city": "Karachi", "addr:country": "PK", "addr:place": "North Nazimabad Block B", "addr:postcode": "74700", "addr:province": "Sindh", "addr:street": "North Nazimabad Block B", "addr:suburb": "North Nazimabad Town", "amenity": "hospital", "name": "Asghar Hospital"}}, {"type": "node", "id": 4738135542, "lat": 24.9291492, "lon": 67.0361313, "tags": {"addr:city": "\u06a9\u0631\u0627\u0686\u06cc", "amenity": "hospital", "healthcare": "hospital", "name": "\u0644\u0627\u0626\u0641 \u0644\u0627\u0626\u0646 \u06c1\u0633\u067e\u062a\u0627\u0644", "name:en": "Life Line Hospital", "name:ur": "\u0644\u0627\u0626\u0641 \u0644\u0627\u0626\u0646 \u06c1\u0633\u067e\u062a\u0627\u0644"}}, {"type": "node", "id": 4739321179, "lat": 24.8378316, "lon": 67.2932872, "tags": {"addr:city": "Karachi", "addr:housenumber": "NWIZ", "addr:street": "North West Industrial Zone", "amenity": "hospital", "name": "Madina Medical Center"}}, {"type": "node", "id": 4739587133, "lat": 24.9416803, "lon": 67.0492284, "tags": {"addr:city": "Karachi", "addr:country": "PK", "addr:housenumber": "Block L", "addr:place": "North Nazimabad Block L", "addr:province": "Sindh", "addr:street": "Shahrah e Jahangir", "addr:suburb": "North Nazimabad Town", "amenity": "hospital", "name": "MediComplex Hospital"}}, {"type": "node", "id": 4739600300, "lat": 24.9457973, "lon": 67.0496945, "tags": {"addr:city": "Karachi", "addr:country": "PK", "addr:place": "North Nazimabad Block I", "addr:province": "Sindh", "addr:street": "Shahrah e Sher Shah Suri", "addr:suburb": "North Nazimabad Town", "amenity": "hospital", "name": "Remedial Center - Hospital & Nursing Home"}}, {"type": "node", "id": 4739617892, "lat": 24.9464177, "lon": 67.0531585, "tags": {"addr:city": "Karachi", "addr:country": "PK", "addr:housenumber": "Block L", "addr:place": "North Nazimabad Block L", "addr:province": "Sindh", "addr:street": "2nd Street N", "addr:suburb": "North Nazimabad Town", "amenity": "hospital", "name": "Alvi's Skin and Laser Complex (Dr Khurshid H Alvi)"}}, {"type": "node", "id": 4739775279, "lat": 24.9318047, "lon": 67.0517254, "tags": {"addr:city": "Karachi", "addr:country": "PK", "addr:housenumber": "Block H", "addr:place": "North Nazimabad Block H", "addr:province": "Sindh", "addr:street": "Allama Rasheed Turabi Road", "addr:suburb": "North Nazimabad Town", "amenity": "hospital", "name": "Munawar Hospital"}}, {"type": "node", "id": 4739833640, "lat": 24.9339756, "lon": 67.0801691, "tags": {"addr:city": "Karachi", "addr:street": "Hashmi Street", "amenity": "hospital", "name": "Hopes Medical Store At Cardio"}}, {"type": "node", "id": 4739833641, "lat": 24.93391, "lon": 67.0802118, "tags": {"addr:city": "Karachi", "addr:street": "Hashmi Street", "amenity": "hospital", "name": "Kkf  Medical Store"}}, {"type": "node", "id": 4739903920, "lat": 24.9384972, "lon": 67.0337553, "tags": {"addr:city": "Karachi", "addr:country": "PK", "addr:province": "Sindh", "addr:street": "Shahrah Noor Jahan", "addr:suburb": "North Nazimabad Town", "amenity": "hospital", "name": "Agha Khan Diagnostic Center"}}, {"type": "node", "id": 4740020139, "lat": 24.9727584, "lon": 67.0630717, "tags": {"addr:city": "Karachi", "addr:street": "Shahrah Sher Shah Suri", "amenity": "hospital", "name": "North Karachi Hhospital"}}, {"type": "node", "id": 4740020151, "lat": 24.9657302, "lon": 67.0585065, "tags": {"addr:city": "Karachi", "addr:street": "Shahrah Sher Shah Suri", "amenity": "hospital", "name": "Shed Homes Complex & Hospital"}}, {"type": "node", "id": 4740020152, "lat": 24.965884, "lon": 67.0568476, "tags": {"addr:city": "Karachi", "addr:street": "Shahrah Sher Shah Suri", "amenity": "hospital", "name": "Aiwan e Tijarat O Sanat Hospital"}}, {"type": "node", "id": 4740117260, "lat": 24.9495187, "lon": 67.0529808, "tags": {"addr:city": "Karachi", "addr:country": "PK", "addr:place": "North Nazimabad Block K", "addr:province": "Sindh", "addr:street": "North Nazimabad Block K", "addr:suburb": "North Nazimabad Town", "amenity": "hospital", "name": "Mumtaz Hospital"}}, {"type": "node", "id": 4741397133, "lat": 24.9631608, "lon": 67.0611149, "tags": {"addr:city": "Karachi", "addr:street": "Shahrah Sher Shah Suri", "amenity": "hospital", "name": "Government Children Hospital"}}, {"type": "node", "id": 4741525043, "lat": 24.9381866, "lon": 67.0662705, "tags": {"addr:city": "\u06a9\u0631\u0627\u0686\u06cc", "addr:housenumber": "FB area block 13", "addr:street": "Allama Rasheed Turabi Road", "amenity": "hospital", "emergency": "yes", "healthcare": "hospital", "name": "Rafah e Aam Medical Centre", "name:en": "Rafah e Aam Medical Centre"}}, {"type": "node", "id": 4741616553, "lat": 25.0224775, "lon": 67.128776, "tags": {"addr:city": "Karachi", "amenity": "hospital", "name": "Aga Hospital"}}, {"type": "node", "id": 4741865099, "lat": 25.0163167, "lon": 67.1301263, "tags": {"addr:city": "Karachi", "addr:country": "PK", "addr:full": "Gulshan e Maymar Sector W", "addr:province": "Sindh", "addr:street": "Quaid Avenue", "amenity": "hospital", "name": "Asfar Memorial Hospital"}}, {"type": "node", "id": 4741865106, "lat": 25.0145041, "lon": 67.127593, "tags": {"addr:city": "\u06a9\u0631\u0627\u0686\u06cc", "addr:city:ar": "\u0643\u0631\u0627\u062a\u0634\u064a", "addr:city:en": "Karachi", "addr:city:ks": "\u06a9\u064e\u0631\u0672\u0686\u06cc", "addr:city:pnb": "\u06a9\u0631\u0627\u0686\u06cc", "addr:city:ps": "\u06a9\u0631\u0627\u0686\u06cd", "addr:city:sd": "\u06aa\u0631\u0627\u0686\u064a", "addr:city:ur": "\u06a9\u0631\u0627\u0686\u06cc", "addr:street": "11th Street", "amenity": "hospital", "name": "Maymar Medical Center"}}, {"type": "node", "id": 4757902881, "lat": 24.926006, "lon": 67.0152528, "tags": {"addr:city": "Karachi", "amenity": "hospital", "name": "Sindh Social Scurity Hospital"}}, {"type": "node", "id": 4757978642, "lat": 24.9272234, "lon": 67.0155671, "tags": {"addr:city": "Karachi", "amenity": "hospital", "name": "Kulsum Bai Valika Hospital"}}, {"type": "node", "id": 4758017032, "lat": 24.9006702, "lon": 67.1059825, "tags": {"addr:city": "Karachi", "amenity": "hospital", "name": "Kashif Iqbal Thalassemia Care Center"}}, {"type": "node", "id": 4761891272, "lat": 24.8162234, "lon": 67.0222861, "tags": {"addr:city": "Karachi", "addr:country": "PK", "addr:housenumber": "Block 5", "addr:place": "Clifton Block 5", "addr:province": "Sindh", "addr:street": "Clifton", "addr:suburb": "Clifton", "amenity": "hospital", "name": "Clifton Kidney & General Hospital"}}, {"type": "node", "id": 4762613097, "lat": 24.9142658, "lon": 67.0571429, "tags": {"addr:city": "Karachi", "addr:street": "Shahrah Humayun", "amenity": "hospital", "name": "Usman Memorial Hospital"}}, {"type": "node", "id": 4764497924, "lat": 24.9010447, "lon": 67.1857547, "tags": {"addr:city": "Karachi", "addr:street": "Hashim Raza Road", "amenity": "hospital", "name": "Umeed-e-Seher Old Age Home"}}, {"type": "node", "id": 4764575641, "lat": 24.9024811, "lon": 67.188862, "tags": {"addr:city": "Karachi", "addr:street": "Saudabad Road", "amenity": "hospital", "name": "DHO Malir, Model Town Health Office"}}, {"type": "node", "id": 4764575642, "lat": 24.9027827, "lon": 67.1887172, "tags": {"addr:city": "Karachi", "addr:street": "Saudabad Road", "amenity": "hospital", "name": "Model Colony Town Hospital"}}, {"type": "node", "id": 4764575650, "lat": 24.9018631, "lon": 67.1915952, "tags": {"addr:city": "Karachi", "addr:street": "Saudabad Road", "amenity": "hospital", "name": "Shiraz Medical Center"}}, {"type": "node", "id": 4767455641, "lat": 24.9024554, "lon": 67.1976322, "tags": {"addr:city": "Karachi", "addr:street": "Begum Khursheed Road", "amenity": "hospital", "name": "Pakistan Health Care Trust Hospital"}}, {"type": "node", "id": 4767455654, "lat": 24.9013601, "lon": 67.2010517, "tags": {"addr:city": "Karachi", "addr:street": "Begum Khursheed Road", "amenity": "hospital", "name": "Sindh Heart Hospital"}}, {"type": "node", "id": 4767455692, "lat": 24.9030267, "lon": 67.2112591, "tags": {"addr:city": "Karachi", "addr:street": "Liaqat Road", "amenity": "hospital", "name": "Government Saudabad Hospital"}}, {"type": "node", "id": 4767455693, "lat": 24.903444, "lon": 67.2113618, "tags": {"addr:city": "Karachi", "addr:street": "Liaqat Road", "amenity": "hospital", "name": "Khokrapar No.2 Govt Hospital"}}, {"type": "node", "id": 4767455701, "lat": 24.898021, "lon": 67.2144589, "tags": {"addr:city": "Karachi", "amenity": "hospital", "name": "Alleviate Addiction Suffering Trust"}}, {"type": "node", "id": 4767647536, "lat": 24.8848673, "lon": 67.2247678, "tags": {"addr:city": "Karachi", "addr:street": "Memon Goth Road", "amenity": "hospital", "name": "Al-Ibrahim Eye Hospital"}}, {"type": "node", "id": 4767920570, "lat": 24.8811766, "lon": 67.1452999, "tags": {"addr:city": "Karachi", "addr:country": "PK", "addr:housenumber": "Block 1", "addr:place": "Shah Faisal Block 1", "addr:postcode": "74200", "addr:province": "Sindh", "addr:street": "Shah Faisal", "addr:suburb": "Shah Faisal Town", "amenity": "hospital", "name": "Cardiac Emergency Centre"}}, {"type": "node", "id": 4769325040, "lat": 24.8697192, "lon": 67.0346649, "tags": {"addr:city": "Karachi", "addr:street": "Jacob Line", "amenity": "hospital", "name": "Hashmanis Hospital"}}, {"type": "node", "id": 4769518748, "lat": 24.8379987, "lon": 67.1188283, "tags": {"addr:city": "Karachi", "addr:place": "Korangi Sector 23", "addr:street": "Korangi Road", "amenity": "hospital", "name": "East Side Hospital - Korangi"}}, {"type": "node", "id": 4769800425, "lat": 24.819112, "lon": 67.1071389, "tags": {"addr:city": "Karachi", "addr:street": "Korangi Road", "amenity": "hospital", "name": "Bilqees Memorial Hospital"}}, {"type": "node", "id": 4769800426, "lat": 24.8197054, "lon": 67.1078114, "tags": {"addr:city": "Karachi", "addr:street": "Korangi Road", "amenity": "hospital", "name": "Bilquees Hospital"}}, {"type": "node", "id": 4769800460, "lat": 24.8189304, "lon": 67.1162105, "tags": {"addr:city": "Karachi", "addr:street": "Landhi Road", "amenity": "hospital", "healthcare": "hospital", "name": "New Urgent Care Hospital"}}, {"type": "node", "id": 4769800475, "lat": 24.8146775, "lon": 67.1201602, "tags": {"addr:city": "Karachi", "amenity": "hospital", "healthcare": "hospital", "name": "Sheikh Muhammad Saeed Memorial Hospital"}}, {"type": "node", "id": 4769937767, "lat": 24.8222261, "lon": 67.1332626, "tags": {"addr:city": "Karachi", "addr:street": "Landhi Road", "amenity": "hospital", "name": "Shahid Medical Center Korangi 1"}}, {"type": "node", "id": 4769977947, "lat": 24.881172, "lon": 67.0692613, "tags": {"addr:city": "Karachi", "addr:street": "Alamgir Road", "amenity": "hospital", "name": "Hussaini Hospital"}}, {"type": "node", "id": 4772708950, "lat": 24.9095495, "lon": 67.1205288, "tags": {"addr:city": "\u06a9\u0631\u0627\u0686\u06cc", "addr:street": "Professor Ghafoor Ahmed Road", "amenity": "hospital", "healthcare": "hospital", "name": "Rida Medical Centre"}}, {"type": "node", "id": 4773096198, "lat": 24.9221327, "lon": 67.1021333, "tags": {"addr:city": "Karachi", "addr:street": "University Road", "amenity": "hospital", "name": "Ibn-e-Sina Hospital"}}, {"type": "node", "id": 4773096210, "lat": 24.926015, "lon": 67.1073176, "tags": {"addr:city": "\u06a9\u0631\u0627\u0686\u06cc", "addr:city:ar": "\u0643\u0631\u0627\u062a\u0634\u064a", "addr:city:en": "Karachi", "addr:city:ks": "\u06a9\u064e\u0631\u0672\u0686\u06cc", "addr:city:pnb": "\u06a9\u0631\u0627\u0686\u06cc", "addr:city:ps": "\u06a9\u0631\u0627\u0686\u06cd", "addr:city:sd": "\u06aa\u0631\u0627\u0686\u064a", "addr:city:ur": "\u06a9\u0631\u0627\u0686\u06cc", "addr:full": "Gulshan e Iqbal Block 7", "addr:street": "University Road", "amenity": "hospital", "healthcare": "hospital", "name": "The Modern Hospital"}}, {"type": "node", "id": 4773096342, "lat": 24.936342, "lon": 67.1392996, "tags": {"addr:city": "Karachi", "addr:street": "University Road", "amenity": "hospital", "name": "Zain Hospital"}}, {"type": "node", "id": 4773122772, "lat": 24.9336331, "lon": 67.1396225, "tags": {"addr:city": "Karachi", "addr:street": "Abul Asar Hafeez Jalandhari Road", "amenity": "hospital", "healthcare": "hospital", "name": "Batool General Hospital"}}, {"type": "node", "id": 4773268349, "lat": 24.8804797, "lon": 67.0619932, "tags": {"addr:city": "Karachi", "addr:country": "PK", "addr:place": "PECHS Block 3", "addr:province": "Sindh", "addr:street": "Khalid Bin Waleed Road - PECHS", "amenity": "hospital", "name": "Fatima Dental Hospital"}}, {"type": "node", "id": 4773326177, "lat": 24.8835751, "lon": 67.0653477, "tags": {"addr:city": "Karachi", "addr:street": "Bmchs Road No 15", "amenity": "hospital", "name": "Vision Trust"}}, {"type": "node", "id": 4773373082, "lat": 24.8840214, "lon": 67.0726868, "tags": {"addr:city": "Karachi", "addr:street": "Siraj ud Dula Rd", "amenity": "hospital", "name": "Health Vision Hospital"}}, {"type": "node", "id": 4773397451, "lat": 24.8740947, "lon": 67.0740445, "tags": {"addr:city": "Karachi", "addr:street": "Shaheed-e-Millat Service Rd", "amenity": "hospital", "name": "Hill Park General Hospital"}}, {"type": "node", "id": 4773397455, "lat": 24.8728007, "lon": 67.0734853, "tags": {"addr:city": "Karachi", "addr:street": "Lal Muhammad Chaudary Rd", "amenity": "hospital", "name": "Bait-ul-sukoon Cancer hospital"}}, {"type": "node", "id": 4773397457, "lat": 24.8721906, "lon": 67.0739383, "tags": {"addr:city": "Karachi", "addr:street": "Lal Muhammad Chaudary Rd", "amenity": "hospital", "name": "Samad Clinic Shaheed-e-Millat Rd karachi"}}, {"type": "node", "id": 4774619852, "lat": 24.8370967, "lon": 67.0698798, "tags": {"addr:city": "Karachi", "addr:country": "PK", "addr:place": "DHA Phase 1", "addr:province": "Sindh", "addr:street": "DHA Phase 1", "addr:suburb": "Defence Housing Authority", "amenity": "hospital", "healthcare": "hospital", "name": "Boulevard Hospital"}}, {"type": "node", "id": 4774671212, "lat": 24.8806273, "lon": 67.0640384, "tags": {"addr:city": "Karachi", "addr:street": "Shaheed e Millat Road", "amenity": "hospital", "name": "Neuro Care"}}, {"type": "node", "id": 4774671213, "lat": 24.880676, "lon": 67.063945, "tags": {"addr:city": "Karachi", "addr:street": "Shaheed e Millat Road", "amenity": "hospital", "name": "Al-Khaleej Towers"}}, {"type": "node", "id": 4775013572, "lat": 24.8774916, "lon": 67.0645001, "tags": {"addr:city": "Karachi", "addr:street": "Dehli Saudagar Road No  4", "amenity": "hospital", "name": "Role Model Hijama Centre"}}, {"type": "node", "id": 4775014532, "lat": 24.885138, "lon": 67.0535524, "tags": {"addr:city": "Karachi", "addr:street": "Achar Gali", "amenity": "hospital", "name": "Fawad Eye Hospital"}}, {"type": "node", "id": 4781359939, "lat": 24.8980493, "lon": 67.0693077, "tags": {"addr:city": "Karachi", "addr:street": "University Road", "amenity": "hospital", "name": "Babar Hospital"}}, {"type": "node", "id": 4783144512, "lat": 24.8363586, "lon": 67.2633692, "tags": {"addr:city": "Karachi", "addr:street": "Mehran Highway", "amenity": "hospital", "name": "Razia Medical Centre"}}, {"type": "node", "id": 4783144514, "lat": 24.8362259, "lon": 67.2609315, "tags": {"addr:city": "Karachi", "addr:street": "Mehran Highway", "amenity": "hospital", "name": "Saleh Shifa Hospital"}}, {"type": "node", "id": 4783147838, "lat": 24.847595, "lon": 67.2526779, "tags": {"addr:city": "Karachi", "addr:street": "National Highway", "amenity": "hospital", "name": "SESSI Landhi Kidney Center"}}, {"type": "node", "id": 4785947196, "lat": 24.8211201, "lon": 67.0314052, "tags": {"addr:city": "Karachi", "addr:country": "PK", "addr:housenumber": "Block 5", "addr:place": "Clifton Block 5", "addr:province": "Sindh", "addr:street": "Clifton", "addr:suburb": "Clifton", "amenity": "hospital", "name": "Clifton Hospital"}}, {"type": "node", "id": 4785947197, "lat": 24.8517423, "lon": 67.0471346, "tags": {"addr:city": "\u06a9\u0631\u0627\u0686\u06cc", "addr:street": "\u0631\u0641\u06cc\u0642 \u0634\u06c1\u06cc\u062f \u0631\u0648\u0688", "amenity": "hospital", "healthcare": "hospital", "name": "\u062c\u0646\u0627\u062d \u06c1\u0633\u067e\u062a\u0627\u0644", "name:en": "Jinnah Post Graduate Medical Centre", "name:ur": "\u062c\u0646\u0627\u062d \u06c1\u0633\u067e\u062a\u0627\u0644", "wikidata": "Q11046934", "wikipedia": "ur:\u062c\u0646\u0627\u062d \u06c1\u0633\u067e\u062a\u0627\u0644"}}, {"type": "node", "id": 4786004047, "lat": 24.7794958, "lon": 67.0654916, "tags": {"addr:city": "Karachi", "addr:country": "PK", "addr:housenumber": "Phase 8", "addr:place": "DHA Phase 8", "addr:province": "Sindh", "addr:street": "Saba Ave", "addr:suburb": "Defence Housing Authority", "amenity": "hospital", "name": "Prime Health Care"}}, {"type": "node", "id": 4786004080, "lat": 24.7913974, "lon": 67.0653262, "tags": {"addr:city": "Karachi", "addr:country": "PK", "addr:housenumber": "Phase 6", "addr:place": "DHA Phase 6", "addr:province": "Sindh", "addr:street": "Bukhari Commercial Lane 12", "addr:suburb": "Defence Housing Authority", "amenity": "hospital", "name": "One Step Diagnostics OSD"}}, {"type": "node", "id": 4786100669, "lat": 24.7841492, "lon": 67.0548872, "tags": {"addr:city": "Karachi", "addr:country": "PK", "addr:housenumber": "Phase 6", "addr:place": "DHA Phase 6", "addr:province": "Sindh", "addr:street": "Khayaban e Bokhari", "addr:suburb": "Defence Housing Authority", "amenity": "hospital", "name": "Arif Defence Medical Centre"}}, {"type": "node", "id": 4786285990, "lat": 24.8043811, "lon": 67.0632918, "tags": {"addr:city": "Karachi", "addr:country": "PK", "addr:housenumber": "Phase 6", "addr:place": "DHA Phase 6", "addr:province": "Sindh", "addr:street": "Khayaban e Rahat", "addr:suburb": "Defence Housing Authority", "amenity": "hospital", "name": "DHA Medical Centre"}}, {"type": "node", "id": 4786500628, "lat": 24.796593, "lon": 67.0509582, "tags": {"addr:city": "Karachi", "addr:country": "PK", "addr:housenumber": "Phase 6", "addr:place": "DHA Phase 6", "addr:province": "Sindh", "addr:street": "26th Street", "addr:suburb": "Defence Housing Authority", "amenity": "hospital", "name": "Bluedot Healthcare"}}, {"type": "node", "id": 4786500667, "lat": 24.8238148, "lon": 67.08318, "tags": {"addr:city": "Karachi", "addr:street": "Creek Avenue", "amenity": "hospital", "name": "Mahnoor Medical Center"}}, {"type": "node", "id": 4786500668, "lat": 24.8232626, "lon": 67.0819891, "tags": {"addr:city": "Karachi", "addr:street": "Khayaban e Aziz Bhatti Shaheed", "amenity": "hospital", "name": "Khan Cardiac Clinic"}}, {"type": "node", "id": 4786500681, "lat": 24.829363, "lon": 67.0791157, "tags": {"addr:city": "Karachi", "addr:street": "Khayaban-e-Jami", "amenity": "hospital", "name": "Sir Syed Hospital"}}, {"type": "node", "id": 4786563402, "lat": 24.8257353, "lon": 67.0807692, "tags": {"addr:city": "Karachi", "addr:street": "1st Street", "amenity": "hospital", "name": "Sir Syed Hospital"}}, {"type": "node", "id": 4786568421, "lat": 24.8205913, "lon": 67.0718861, "tags": {"addr:city": "Karachi", "addr:country": "PK", "addr:housenumber": "Phase 7", "addr:place": "DHA Phase 7", "addr:postcode": "75500", "addr:province": "Sindh", "addr:street": "15th Lane", "addr:suburb": "Defence Housing Authority", "amenity": "hospital", "name": "Medwin Hospital"}}, {"type": "node", "id": 4790094024, "lat": 24.8864317, "lon": 67.076156, "tags": {"addr:city": "Karachi", "addr:street": "Siral ud Dula Rd", "amenity": "hospital", "name": "Jamal Noor Hospital"}}, {"type": "node", "id": 4790118548, "lat": 24.8746136, "lon": 67.0843045, "tags": {"addr:city": "Karachi", "addr:street": "Tipu Sultan Road", "amenity": "hospital", "name": "Ahmed General Hospital"}}, {"type": "node", "id": 4790118561, "lat": 24.8735399, "lon": 67.0830161, "tags": {"addr:city": "Karachi", "addr:street": "Tipu Sultan Road", "amenity": "hospital", "name": "Recovery House, Caravan Of Life Trust"}}, {"type": "node", "id": 4790153225, "lat": 24.8788904, "lon": 67.0932648, "tags": {"addr:city": "Karachi", "addr:street": "Karsaz Service Road", "amenity": "hospital", "emergency": "yes", "name": "PIA Medical Center"}}, {"type": "node", "id": 4790169084, "lat": 24.814024, "lon": 67.0490572, "tags": {"addr:city": "Karachi", "addr:country": "PK", "addr:housenumber": "Phase 5", "addr:place": "DHA Phase 5", "addr:province": "Sindh", "addr:street": "Stadium Lane 3", "addr:suburb": "Defence Housing Authority", "amenity": "hospital", "name": "Neuropsychology Center Pakistan"}}, {"type": "node", "id": 4790222404, "lat": 24.8273712, "lon": 67.0550088, "tags": {"addr:city": "Karachi", "addr:country": "PK", "addr:housenumber": "Phase 4", "addr:place": "DHA Phase 4", "addr:province": "Sindh", "addr:street": "5th Commercial Street", "addr:suburb": "Defence Housing Authority", "amenity": "hospital", "name": "Dar-ul-Hijama"}}, {"type": "node", "id": 4790228471, "lat": 24.8296012, "lon": 67.0489835, "tags": {"addr:city": "Karachi", "addr:street": "Khayaban-e-Roomi", "amenity": "hospital", "name": "Qamarul Islam Hospital"}}, {"type": "node", "id": 4791846660, "lat": 24.831801, "lon": 67.0729549, "tags": {"addr:city": "Karachi", "addr:country": "PK", "addr:place": "DHA Phase 2 Extension", "addr:postcode": "75500", "addr:province": "Sindh", "addr:street": "24th Commercial Street", "addr:suburb": "Defence Housing Authority", "amenity": "hospital", "healthcare": "hospital", "name": "Al Zaeem Medical Center"}}, {"type": "node", "id": 4791846692, "lat": 24.8293087, "lon": 67.0655315, "tags": {"addr:city": "Karachi", "addr:country": "PK", "addr:place": "DHA Phase 2 Extension", "addr:postcode": "75500", "addr:province": "Sindh", "addr:street": "Khayaban-e-Jami", "addr:suburb": "Defence Housing Authority", "amenity": "hospital", "name": "Agha Khan University Hospital"}}, {"type": "node", "id": 4791866145, "lat": 24.8504456, "lon": 67.0881702, "tags": {"addr:city": "Karachi", "addr:street": "Shaheed-e-Millat Express Way", "amenity": "hospital", "name": "Mariam Hospital"}}, {"type": "node", "id": 4791991077, "lat": 24.8566573, "lon": 67.0110587, "tags": {"addr:city": "Karachi", "addr:street": "M.A. Jinnah Road", "amenity": "hospital", "name": "Hamdard Matab"}}, {"type": "node", "id": 4792035056, "lat": 24.864633, "lon": 67.0245215, "tags": {"addr:city": "Karachi", "addr:street": "M.A. Jinnah Road", "amenity": "hospital", "name": "Tanveer's Ultrasound Clinic, Sadar"}}, {"type": "node", "id": 4792035067, "lat": 24.866234, "lon": 67.0249781, "tags": {"addr:city": "Karachi", "addr:street": "Agha Khan Road", "amenity": "hospital", "name": "Pakistan Medical Association"}}, {"type": "node", "id": 4792035078, "lat": 24.8683148, "lon": 67.0306957, "tags": {"addr:city": "Karachi", "addr:street": "M.A. Jinnah Road", "amenity": "hospital", "name": "Taj Medical Complex"}}, {"type": "node", "id": 4793639799, "lat": 24.8743206, "lon": 67.0357634, "tags": {"addr:city": "Karachi", "addr:street": "Mohammad Ali Habib Road", "amenity": "hospital", "name": "Zainab Panjwani Memorial Hospital"}}, {"type": "node", "id": 4793640281, "lat": 24.8774074, "lon": 67.0706386, "tags": {"addr:city": "Karachi", "addr:street": "Ashfaq Inam Elahi Road", "amenity": "hospital", "name": "Bantva Anis Hospital"}}, {"type": "node", "id": 4793731858, "lat": 24.9229074, "lon": 67.1018528, "tags": {"addr:city": "Karachi", "addr:street": "Olympian Islah Uddin Road", "amenity": "hospital", "name": "Dr Azhra Hospital"}}, {"type": "node", "id": 4798720020, "lat": 24.8295071, "lon": 67.0407327, "tags": {"addr:city": "Karachi", "addr:country": "PK", "addr:place": "Clifton Block 8", "addr:province": "Sindh", "addr:street": "Clifton", "addr:suburb": "Clifton", "amenity": "hospital", "country": "PK", "name": "Hashmanis Hospital"}}, {"type": "node", "id": 4798720931, "lat": 24.83048, "lon": 67.0413377, "tags": {"addr:city": "Karachi", "addr:street": "Khaleeq uz Zaman Road", "amenity": "hospital", "name": "Clifton City Hospital"}}, {"type": "node", "id": 4801771626, "lat": 24.8076358, "lon": 67.0387844, "tags": {"addr:city": "Karachi", "addr:country": "PK", "addr:housenumber": "Phase 5", "addr:place": "DHA Phase 5", "addr:province": "Sindh", "addr:street": "26th Street", "addr:suburb": "Defence Housing Authority", "amenity": "hospital", "name": "Niazi Hospital- Tauheed Commercial"}}, {"type": "node", "id": 4801771632, "lat": 24.8091445, "lon": 67.0356472, "tags": {"addr:city": "Karachi", "addr:country": "PK", "addr:place": "Clifton Block 4", "addr:province": "Sindh", "addr:street": "E Street", "addr:suburb": "Clifton", "amenity": "hospital", "country": "PK", "healthcare": "hospital", "name": "Oqaf Hospital"}}, {"type": "node", "id": 4801879009, "lat": 24.8083308, "lon": 67.0294276, "tags": {"addr:city": "Karachi", "addr:country": "PK", "addr:housenumber": "Block 3", "addr:place": "Clifton Block 3", "addr:province": "Sindh", "addr:street": "Clifton", "addr:suburb": "Clifton", "amenity": "hospital", "country": "PK", "name": "KKT Orthopedic Spine Center Karachi"}}, {"type": "node", "id": 4805037224, "lat": 28.885561, "lon": 64.4065493, "tags": {"amenity": "hospital", "name": "SF med", "name:en": "SF med", "opening_hours": "24/7"}}, {"type": "node", "id": 4805041123, "lat": 28.8855778, "lon": 64.4063253, "tags": {"addr:housenumber": "4", "addr:postcode": "95100", "addr:street": "Docter Shahzad medical Dalbandin", "amenity": "hospital", "internet_access": "wlan", "name": "Faisal hospital", "name:en": "Faisal hospital", "opening_hours": "Mo-Su 10:00-22:00"}}, {"type": "node", "id": 4805041125, "lat": 28.8863549, "lon": 64.4010354, "tags": {"amenity": "hospital", "name": "Civil hospital, SF", "name:en": "Civil hospital, SF", "opening_hours": "24/7"}}, {"type": "node", "id": 4805047421, "lat": 28.8855261, "lon": 64.4081987, "tags": {"amenity": "hospital", "name": "Qazafi Ntz medical", "name:en": "Qazafi Ntz medical", "opening_hours": "24/7", "phone": "03327801234"}}, {"type": "node", "id": 4809862083, "lat": 24.8739467, "lon": 67.0486155, "tags": {"addr:city": "Karachi", "addr:street": "Aisha Aziz Road", "amenity": "hospital", "name": "Rabia Moon Institute of Neurology Trust"}}, {"type": "node", "id": 4809964495, "lat": 24.9247481, "lon": 67.0923325, "tags": {"addr:city": "Karachi", "addr:street": "Gulshan Chowrangi Fly Over", "amenity": "hospital", "name": "T.O Clinic"}}, {"type": "node", "id": 4809964833, "lat": 24.9319681, "lon": 67.0997879, "tags": {"addr:city": "Karachi", "addr:postcode": "75300", "addr:street": "Gulshan e Iqbal Block 4", "amenity": "hospital", "healthcare": "hospital", "healthcare:speciality": "general;ophthalmology;internal;otolaryngology", "name": "Haji Rang Elahi Eye & General Hospital"}}, {"type": "node", "id": 4809964839, "lat": 24.9322405, "lon": 67.1023442, "tags": {"addr:city": "Karachi", "addr:country": "PK", "addr:full": "Gulshan e Iqbal Block 7", "addr:province": "Sindh", "addr:street": "Allama Shabbir Ahmed Usmani Road", "amenity": "hospital", "healthcare": "hospital", "name": "Ayesha Medical Centre"}}, {"type": "node", "id": 4810006256, "lat": 24.9340494, "lon": 67.104333, "tags": {"addr:city": "Karachi", "addr:street": "Allama Shabbir Ahmed Usmani Road", "amenity": "hospital", "name": "Al-Raazia Clinic & Maternity Home"}}, {"type": "node", "id": 4810006262, "lat": 24.9184752, "lon": 67.0831369, "tags": {"addr:city": "Karachi", "addr:street": "Allama Shabbir Ahmed Usmani Road", "amenity": "hospital", "name": "New Horizon Care Center (NHCC)"}}, {"type": "node", "id": 4810006275, "lat": 24.9235627, "lon": 67.0908039, "tags": {"addr:city": "Karachi", "addr:street": "Gulshan Chowrangi Fly Over", "amenity": "hospital", "name": "Omair Sana Foundation"}}, {"type": "node", "id": 4810084312, "lat": 24.9189586, "lon": 67.0956892, "tags": {"addr:city": "Karachi", "addr:street": "Rashid Minhas Road", "amenity": "hospital", "name": "Agha Khan Laboratory"}}, {"type": "node", "id": 4832801945, "lat": 25.3755401, "lon": 68.3242326, "tags": {"addr:city": "\u062d\u06cc\u062f\u0631\u0622\u0628\u0627\u062f", "addr:city:en": "Hyderabad", "addr:city:fr": "Hyder\u00e2b\u00e2d", "addr:city:pa": "\u0a39\u0a48\u0a26\u0a30\u0a3e\u0a2c\u0a3e\u0a26", "addr:city:ur": "\u062d\u06cc\u062f\u0631\u0622\u0628\u0627\u062f", "addr:street": "Gidu Road", "amenity": "hospital", "name": "Gurnani Hospital Maternity Home"}}, {"type": "node", "id": 4836879515, "lat": 25.3858442, "lon": 68.3377053, "tags": {"addr:city": "\u062d\u06cc\u062f\u0631\u0622\u0628\u0627\u062f", "addr:city:en": "Hyderabad", "addr:city:fr": "Hyder\u00e2b\u00e2d", "addr:city:pa": "\u0a39\u0a48\u0a26\u0a30\u0a3e\u0a2c\u0a3e\u0a26", "addr:city:ur": "\u062d\u06cc\u062f\u0631\u0622\u0628\u0627\u062f", "addr:street": "National Highway", "amenity": "hospital", "name": "Ghani Hospital"}}, {"type": "node", "id": 4838588845, "lat": 25.4063333, "lon": 68.3711687, "tags": {"addr:city": "\u062d\u06cc\u062f\u0631\u0622\u0628\u0627\u062f", "addr:city:en": "Hyderabad", "addr:city:fr": "Hyder\u00e2b\u00e2d", "addr:city:pa": "\u0a39\u0a48\u0a26\u0a30\u0a3e\u0a2c\u0a3e\u0a26", "addr:city:ur": "\u062d\u06cc\u062f\u0631\u0622\u0628\u0627\u062f", "addr:street": "Al Quresh Hospital Road", "amenity": "hospital", "healthcare": "hospital", "name": "Al Quresh Hospital"}}, {"type": "node", "id": 4841964525, "lat": 25.3965831, "lon": 68.3346581, "tags": {"addr:city": "\u062d\u06cc\u062f\u0631\u0622\u0628\u0627\u062f", "addr:city:en": "Hyderabad", "addr:city:fr": "Hyder\u00e2b\u00e2d", "addr:city:pa": "\u0a39\u0a48\u0a26\u0a30\u0a3e\u0a2c\u0a3e\u0a26", "addr:city:ur": "\u062d\u06cc\u062f\u0631\u0622\u0628\u0627\u062f", "addr:street": "Naseem Nagar Road", "amenity": "hospital", "name": "Shafay Hospital"}}, {"type": "node", "id": 4845944816, "lat": 25.399456, "lon": 68.3404256, "tags": {"addr:city": "\u062d\u06cc\u062f\u0631\u0622\u0628\u0627\u062f", "addr:city:en": "Hyderabad", "addr:city:fr": "Hyder\u00e2b\u00e2d", "addr:city:pa": "\u0a39\u0a48\u0a26\u0a30\u0a3e\u0a2c\u0a3e\u0a26", "addr:city:ur": "\u062d\u06cc\u062f\u0631\u0622\u0628\u0627\u062f", "addr:street": "Wadhu Wah Road", "amenity": "hospital", "name": "Jijal Maa Hospital"}}, {"type": "node", "id": 4850042226, "lat": 25.404382, "lon": 68.3672351, "tags": {"amenity": "hospital", "healthcare": "hospital", "name": "Bone care trauma center", "name:en": "Bone care trauma center"}}, {"type": "node", "id": 4883101837, "lat": 25.4674592, "lon": 68.7215137, "tags": {"addr:city": "Tando Allahyar", "amenity": "hospital", "name": "Al Barkat Welfare Medical Center"}}, {"type": "node", "id": 4883101840, "lat": 25.4611797, "lon": 68.7053408, "tags": {"addr:city": "Tando Allahyar", "addr:street": "Hyderabad Road", "amenity": "hospital", "name": "Anum Maternity Center"}}, {"type": "node", "id": 4883192338, "lat": 25.4613103, "lon": 68.7023071, "tags": {"addr:city": "Tando Allahyar", "addr:street": "Hyderabad Road", "amenity": "hospital", "name": "Jamali Medical Centre"}}, {"type": "node", "id": 4883192339, "lat": 25.4615802, "lon": 68.707856, "tags": {"addr:city": "Tando Allahyar", "addr:street": "Hyderabad Road", "amenity": "hospital", "name": "National Medical Centre Tando Allahyar"}}, {"type": "node", "id": 4883192340, "lat": 25.4617415, "lon": 68.710706, "tags": {"addr:city": "Tando Allahyar", "addr:street": "Hyderabad Road", "amenity": "hospital", "name": "Civil Hospital"}}, {"type": "node", "id": 4883192341, "lat": 25.4625448, "lon": 68.7159906, "tags": {"addr:city": "Tando Allahyar", "addr:street": "Hyderabad Road", "amenity": "hospital", "name": "Aga Khan University Hospital Laboratory"}}, {"type": "node", "id": 4883211917, "lat": 25.453991, "lon": 68.7193434, "tags": {"addr:city": "Tando Allahyar", "addr:street": "Chambar Road", "amenity": "hospital", "name": "YK Memorial Hospital"}}, {"type": "node", "id": 4883211919, "lat": 25.4566868, "lon": 68.7194728, "tags": {"addr:city": "Tando Allahyar", "addr:street": "Chambar Road", "amenity": "hospital", "name": "Muhammad Maternity & Child Hospital"}}, {"type": "node", "id": 4883212221, "lat": 25.4603281, "lon": 68.7192102, "tags": {"addr:city": "Tando Allahyar", "addr:street": "Mirwah Road", "amenity": "hospital", "name": "Dr Bhura Lal Memorial Hospital"}}, {"type": "node", "id": 4883212223, "lat": 25.4610729, "lon": 68.723161, "tags": {"addr:city": "Tando Allahyar", "addr:street": "Capital Cinema Road", "amenity": "hospital", "name": "Al Khidmat Hospital"}}, {"type": "node", "id": 4883212225, "lat": 25.4643364, "lon": 68.7208665, "tags": {"addr:city": "Tando Allahyar", "addr:street": "Hyderabad Road", "amenity": "hospital", "name": "Khanzada Welfare Hospital"}}, {"type": "node", "id": 4883331101, "lat": 25.7629724, "lon": 68.6575915, "tags": {"addr:city": "Tando Adam", "addr:street": "Tando Adam Bypass", "amenity": "hospital", "name": "Murk General Hospital"}}, {"type": "node", "id": 4883331102, "lat": 25.7473427, "lon": 68.635072, "tags": {"addr:city": "Tando Adam", "addr:street": "Tando Adam Bypass", "amenity": "hospital", "name": "Suleman Roshan Hospital"}}, {"type": "node", "id": 4883331103, "lat": 25.7584431, "lon": 68.6517207, "tags": {"addr:city": "Tando Bypass", "addr:street": "Tando Adam Bypass", "amenity": "hospital", "name": "Shahzad Hospital"}}, {"type": "node", "id": 4883331104, "lat": 25.7601829, "lon": 68.6497458, "tags": {"addr:city": "Tando Bypass", "addr:street": "Tando Adam Bypass", "amenity": "hospital", "name": "Taluka Hospital Tandoadam"}}, {"type": "node", "id": 4883331105, "lat": 25.7610987, "lon": 68.6560823, "tags": {"addr:city": "Tando Adam", "addr:street": "Tando Adam Bypass", "amenity": "hospital", "name": "Hira Hospital"}}, {"type": "node", "id": 4883331106, "lat": 25.7619988, "lon": 68.6573889, "tags": {"addr:city": "Tando Adam", "addr:street": "Tando Adam Bypass", "amenity": "hospital", "name": "Uzair Clinic"}}, {"type": "node", "id": 4883331107, "lat": 25.7622593, "lon": 68.6590979, "tags": {"addr:city": "Tando Adam", "addr:street": "Tando Adam Bypass", "amenity": "hospital", "name": "Kashif Medical Tando Adam"}}, {"type": "node", "id": 4883331108, "lat": 25.762956, "lon": 68.6601064, "tags": {"addr:city": "Tando Adam", "amenity": "hospital", "name": "Chtia Baby Care Clinic"}}, {"type": "node", "id": 4883370486, "lat": 25.7641578, "lon": 68.6636448, "tags": {"addr:city": "Tando Adam", "amenity": "hospital", "name": "Dr Riaz Ahmed Hospital"}}, {"type": "node", "id": 4883370487, "lat": 25.7672689, "lon": 68.6627919, "tags": {"addr:city": "Tando Adam", "amenity": "hospital", "name": "Shahjahan Maternity Home"}}, {"type": "node", "id": 4883370488, "lat": 25.7669325, "lon": 68.661461, "tags": {"addr:city": "Tando Adam", "amenity": "hospital", "name": "Nadeem General Hospiatal"}}, {"type": "node", "id": 4883370490, "lat": 25.7684197, "lon": 68.6589193, "tags": {"addr:city": "Tando Adam", "amenity": "hospital", "name": "Shahmeer Khan Memorial Hospital"}}, {"type": "node", "id": 4883509154, "lat": 25.1240271, "lon": 68.5322543, "tags": {"addr:city": "Tando Muhammad Khan", "addr:street": "Sajawal Road", "amenity": "hospital", "healthcare": "hospital", "name": "Memon Hospital"}}, {"type": "node", "id": 4883541260, "lat": 25.1368853, "lon": 68.5337087, "tags": {"addr:city": "Tando Muhammad Khan", "addr:street": "Hyderabad Badin Road", "amenity": "hospital", "healthcare": "hospital", "name": "Cardio Hospital"}}, {"type": "node", "id": 4883541262, "lat": 25.1229936, "lon": 68.5336986, "tags": {"addr:city": "Tando Muhammad Khan", "addr:street": "Sajawal Road", "amenity": "hospital", "healthcare": "hospital", "name": "Ravi Child And Maternity Home"}}, {"type": "node", "id": 4883541264, "lat": 25.1235595, "lon": 68.5359909, "tags": {"addr:city": "Tando Muhammad Khan", "addr:street": "Sajawal Road", "amenity": "hospital", "healthcare": "hospital", "name": "Sindh Clinic And Maternity Home"}}, {"type": "node", "id": 4883541271, "lat": 25.1262667, "lon": 68.5386368, "tags": {"addr:city": "Tando Muhammad Khan", "addr:street": "Sajawal Road", "amenity": "hospital", "healthcare": "hospital", "name": "Aga Khan University Hospital Laboratory"}}, {"type": "node", "id": 4883541275, "lat": 25.1294902, "lon": 68.5385802, "tags": {"addr:city": "Tando Muhammad Khan", "addr:street": "Hyderabad Badin Road", "amenity": "hospital", "healthcare": "hospital", "name": "Faraz Hospital"}}, {"type": "node", "id": 4926641602, "lat": 27.5609161, "lon": 68.2213161, "tags": {"addr:city": "Larkana", "addr:street": "Naudero Road", "amenity": "hospital", "name": "Dua Ultrasound"}}, {"type": "node", "id": 4930511007, "lat": 27.5553234, "lon": 68.2115342, "tags": {"addr:city": "Larkana", "amenity": "hospital", "name": "Farooq Medical & Dental Centre Larkana"}}, {"type": "node", "id": 4946572431, "lat": 25.5253514, "lon": 69.0134912, "tags": {"amenity": "hospital", "name": "Civil hospital main entrance", "name:en": "Civil hospital main entrance"}}, {"type": "node", "id": 4959486414, "lat": 27.3449727, "lon": 68.5222674, "tags": {"addr:city": "Gambat", "addr:street": "Gambat - Ranipur Road", "amenity": "hospital", "description": "LRBT Gambat", "name": "Gambat Hospital", "operator": "LRBT"}}, {"type": "node", "id": 5051184069, "lat": 24.8425635, "lon": 67.042606, "tags": {"amenity": "hospital", "healthcare": "hospital", "name": "Hassan Railway Hospital"}}, {"type": "node", "id": 5063491281, "lat": 24.9122526, "lon": 67.1394544, "tags": {"addr:city": "Karachi", "addr:country": "PK", "addr:full": "Gulistan e Johar Block 12", "addr:province": "Sindh", "amenity": "hospital", "name": "Pakistan Relief Foundation Hospital"}}, {"type": "node", "id": 5066143325, "lat": 24.9149546, "lon": 67.0264479, "tags": {"addr:city": "Karachi", "addr:country": "PK", "addr:place": "Nazimabad 3", "addr:postcode": "74700", "addr:province": "Sindh", "addr:street": "Nazimabad 3", "addr:suburb": "Nazimabad", "amenity": "hospital", "name": "Ziauddin Memorial Hospital"}}, {"type": "node", "id": 5066999281, "lat": 24.9647517, "lon": 67.1131182, "tags": {"addr:city": "Karachi", "addr:street": "Suparco Road", "amenity": "hospital", "name": "Shaukat Khanum Hospital"}}, {"type": "node", "id": 5067052807, "lat": 24.9487288, "lon": 67.133857, "tags": {"addr:city": "Karachi", "addr:full": "Sachal Goth", "amenity": "hospital", "name": "Khan Medical Complex"}}, {"type": "node", "id": 5068951561, "lat": 24.8666265, "lon": 67.3578774, "tags": {"addr:city": "Karachi", "addr:street": "Khayaban e Hadeed", "amenity": "hospital", "name": "Ayesha General Hospital", "phone": "+92 21 34716608"}}, {"type": "node", "id": 5069109835, "lat": 25.0160165, "lon": 67.1274324, "tags": {"addr:city": "Karachi", "addr:street": "Muhammad Ali Road", "amenity": "hospital", "name": "Faiz-e-Aam Medical Centre"}}, {"type": "node", "id": 5069109836, "lat": 25.0162402, "lon": 67.1276443, "tags": {"addr:city": "Karachi", "addr:street": "Muhammad Ali Road", "amenity": "hospital", "name": "Faiz E Aam General Hospital And Maternity"}}, {"type": "node", "id": 5071297221, "lat": 25.0012, "lon": 67.063981, "tags": {"addr:city": "Karachi", "addr:street": "Service Lane", "amenity": "hospital", "name": "Aqeela Latif Memorial Hospital"}}, {"type": "node", "id": 5078966617, "lat": 24.909232, "lon": 67.0254049, "tags": {"addr:city": "Karachi", "addr:country": "PK", "addr:place": "Nazimabad 1", "addr:postcode": "74700", "addr:province": "Sindh", "addr:street": "Nazimabad 1", "addr:suburb": "Nazimabad", "amenity": "hospital", "name": "Zeb Medical Center"}}, {"type": "node", "id": 5078977952, "lat": 24.9041352, "lon": 67.0304887, "tags": {"addr:city": "Karachi", "addr:country": "PK", "addr:place": "Nazimabad 1", "addr:postcode": "74700", "addr:province": "Sindh", "addr:street": "Nawab Siddique Ali Khan Road", "addr:suburb": "Nazimabad", "amenity": "hospital", "name": "MS Hospital"}}, {"type": "node", "id": 5079173649, "lat": 24.907864, "lon": 67.0351047, "tags": {"addr:city": "Karachi", "addr:country": "PK", "addr:place": "Nazimabad 2", "addr:postcode": "74700", "addr:province": "Sindh", "addr:street": "Nazimabad 1", "addr:suburb": "Nazimabad", "amenity": "hospital", "name": "Baqai Oncology"}}, {"type": "node", "id": 5079173650, "lat": 24.9078658, "lon": 67.0357901, "tags": {"addr:city": "Karachi", "addr:country": "PK", "addr:place": "Nazimabad 2", "addr:postcode": "74700", "addr:province": "Sindh", "addr:street": "Nazimabad 1", "addr:suburb": "Nazimabad", "amenity": "hospital", "name": "Al Murtaza Hospital"}}, {"type": "node", "id": 5079337544, "lat": 25.0398343, "lon": 67.101893, "tags": {"addr:city": "Karachi", "addr:street": "Lyari Basti Road", "amenity": "hospital", "name": "Family Clinics"}}, {"type": "node", "id": 5079404680, "lat": 24.9058004, "lon": 67.0316675, "tags": {"addr:city": "Karachi", "addr:country": "PK", "addr:place": "Nazimabad 2", "addr:postcode": "74700", "addr:province": "Sindh", "addr:street": "Nazimabad 1", "addr:suburb": "Nazimabad", "amenity": "hospital", "name": "Yahya Eye Hospital"}}, {"type": "node", "id": 5079542898, "lat": 24.9141567, "lon": 67.0308307, "tags": {"addr:city": "\u06a9\u0631\u0627\u0686\u06cc", "addr:country": "PK", "addr:place": "\u0646\u0627\u0638\u0645 \u0622\u0628\u0627\u062f 3", "addr:postcode": "74700", "addr:province": "Sindh", "addr:street": "Nawab Siddique Ali Khan Road", "addr:suburb": "\u0646\u0627\u0638\u0645 \u0622\u0628\u0627\u062f", "amenity": "hospital", "healthcare": "hospital", "name": "AO Medical Centre", "name:en": "AO Medical Centre"}}, {"type": "node", "id": 5079542899, "lat": 24.9139086, "lon": 67.0308414, "tags": {"addr:city": "Karachi", "addr:country": "PK", "addr:place": "Nazimabad 3", "addr:postcode": "74700", "addr:province": "Sindh", "addr:street": "Nawab Siddique Ali Khan Road", "addr:suburb": "Nazimabad", "amenity": "hospital", "name": "Liaquat National Hospital"}}, {"type": "node", "id": 5079542900, "lat": 24.9125293, "lon": 67.030777, "tags": {"addr:city": "Karachi", "addr:country": "PK", "addr:place": "Nazimabad 3", "addr:postcode": "74700", "addr:province": "Sindh", "addr:street": "Nawab Siddique Ali Khan Road", "addr:suburb": "Nazimabad", "amenity": "hospital", "name": "Doctors Plaza"}}, {"type": "node", "id": 5079542915, "lat": 24.9133685, "lon": 67.0221913, "tags": {"addr:city": "Karachi", "addr:country": "PK", "addr:place": "Nazimabad 3", "addr:postcode": "74700", "addr:province": "Sindh", "addr:street": "Nazimabad 3", "addr:suburb": "Nazimabad", "amenity": "hospital", "name": "Malik Hospital"}}, {"type": "node", "id": 5081844141, "lat": 24.9182835, "lon": 67.0345052, "tags": {"addr:city": "Karachi", "addr:country": "PK", "addr:postcode": "74700", "addr:province": "Sindh", "addr:street": "M Nasir Street", "addr:suburb": "Nazimabad", "amenity": "hospital", "name": "Chiniot Mother and Child Hospital"}}, {"type": "node", "id": 5084119281, "lat": 24.962149, "lon": 67.0628213, "tags": {"addr:city": "Karachi", "amenity": "hospital", "name": "Sahar Clinic"}}, {"type": "node", "id": 5084263561, "lat": 24.9847271, "lon": 67.0653554, "tags": {"addr:city": "Karachi", "addr:street": "Sher Shah Suri road", "amenity": "hospital", "name": "Al-Khidmat Medical Centre"}}, {"type": "node", "id": 5084385865, "lat": 24.9183758, "lon": 67.0614663, "tags": {"addr:city": "Karachi", "addr:street": "Hussainabad Street", "amenity": "hospital", "name": "Fatima Bai Tai Memorial Hospital"}}, {"type": "node", "id": 5084385867, "lat": 24.9181567, "lon": 67.0621164, "tags": {"addr:city": "Karachi", "addr:street": "Hussainabad Street", "amenity": "hospital", "name": "Memon Medical Complex"}}, {"type": "node", "id": 5086170865, "lat": 24.956594, "lon": 67.0682913, "tags": {"addr:city": "Karachi", "amenity": "hospital", "name": "Uzma Medical Center"}}, {"type": "node", "id": 5088577353, "lat": 24.9469378, "lon": 67.0260307, "tags": {"addr:city": "Karachi", "amenity": "hospital", "name": "Askari hospital"}}, {"type": "node", "id": 5088577359, "lat": 24.9465669, "lon": 67.0216023, "tags": {"addr:city": "Karachi", "amenity": "hospital", "name": "Saud Hospital"}}, {"type": "node", "id": 5088577369, "lat": 24.9392869, "lon": 67.016865, "tags": {"addr:city": "Karachi", "addr:street": "Shahrah e Qaddafi", "amenity": "hospital", "name": "Zubaida Medical Complex"}}, {"type": "node", "id": 5088685994, "lat": 24.9430161, "lon": 67.0084993, "tags": {"addr:city": "Karachi", "addr:street": "Shahrah e Qaddafi", "amenity": "hospital", "name": "Banaras National Hospital"}}, {"type": "node", "id": 5088733607, "lat": 24.9479138, "lon": 67.0059951, "tags": {"addr:city": "Karachi", "amenity": "hospital", "name": "Social Security Hospital"}}, {"type": "node", "id": 5089149959, "lat": 24.9397464, "lon": 67.0020979, "tags": {"addr:city": "Karachi", "addr:street": "Orangi Road", "amenity": "hospital", "healthcare": "hospital", "name": "Hilal e Ahmer Pakistan"}}, {"type": "node", "id": 5089149962, "lat": 24.9388822, "lon": 67.0052449, "tags": {"addr:city": "\u06a9\u0631\u0627\u0686\u06cc", "amenity": "hospital", "healthcare": "hospital", "name": "\u0644\u0627\u0626\u0641 \u06a9\u06cc\u0626\u0631 \u0645\u06cc\u0688\u06cc\u06a9\u0644 \u0633\u0646\u0679\u0631", "name:en": "Life Care Medical Centre", "name:ur": "\u0644\u0627\u0626\u0641 \u06a9\u06cc\u0626\u0631 \u0645\u06cc\u0688\u06cc\u06a9\u0644 \u0633\u0646\u0679\u0631"}}, {"type": "node", "id": 5089149965, "lat": 24.938144, "lon": 67.005069, "tags": {"addr:city": "Karachi", "amenity": "hospital", "name": "Al Khidmat Hospital Orangi 5"}}, {"type": "node", "id": 5091163961, "lat": 24.8770146, "lon": 66.9634555, "tags": {"addr:city": "Karachi", "addr:country": "PK", "addr:postcode": "75020", "addr:province": "Sindh", "amenity": "hospital", "name": "Maibal Clinic"}}, {"type": "node", "id": 5091556132, "lat": 24.8667544, "lon": 66.9367266, "tags": {"addr:city": "Karachi", "addr:country": "PK", "addr:postcode": "75020", "addr:province": "Sindh", "addr:street": "Hawks Bay Road", "amenity": "hospital", "name": "Bilal Welfare Hospital"}}, {"type": "node", "id": 5092989972, "lat": 24.9051948, "lon": 66.9941817, "tags": {"addr:city": "Karachi", "addr:street": "Fakhruddin Valika Road", "amenity": "hospital", "name": "Salman Surgical Hospital"}}, {"type": "node", "id": 5097989030, "lat": 24.949622, "lon": 67.0009153, "tags": {"addr:city": "Karachi", "addr:place": "Orangi Town", "amenity": "hospital", "name": "Sindh Government Hospital"}}, {"type": "node", "id": 5101083936, "lat": 24.8915554, "lon": 67.0821405, "tags": {"addr:city": "Karachi", "addr:street": "A Street", "amenity": "hospital", "name": "Mental Hospital"}}, {"type": "node", "id": 5105344543, "lat": 24.8345952, "lon": 67.2613438, "tags": {"addr:city": "Karachi", "amenity": "hospital", "name": "Nagori Hospital"}}, {"type": "node", "id": 5105590644, "lat": 24.8680139, "lon": 67.0302428, "tags": {"addr:city": "Karachi", "addr:street": "M.A. Jinnah Road", "amenity": "hospital", "name": "Hamdard University Hospital"}}, {"type": "node", "id": 5105614320, "lat": 24.8675474, "lon": 67.0304612, "tags": {"addr:city": "Karachi", "addr:street": "M.A. Jinnah Road", "amenity": "hospital", "name": "Doctor's Plaza"}}, {"type": "node", "id": 5109119036, "lat": 24.8605826, "lon": 67.0107937, "tags": {"addr:city": "\u06a9\u0631\u0627\u0686\u06cc", "addr:city:ar": "\u0643\u0631\u0627\u062a\u0634\u064a", "addr:city:en": "Karachi", "addr:city:ks": "\u06a9\u064e\u0631\u0672\u0686\u06cc", "addr:city:pnb": "\u06a9\u0631\u0627\u0686\u06cc", "addr:city:ps": "\u06a9\u0631\u0627\u0686\u06cd", "addr:city:sd": "\u06aa\u0631\u0627\u0686\u064a", "addr:city:ur": "\u06a9\u0631\u0627\u0686\u06cc", "addr:street": "Hospital Road", "amenity": "hospital", "name": "Benazir Trauma Center"}}, {"type": "node", "id": 5109119037, "lat": 24.8595957, "lon": 67.011919, "tags": {"addr:city": "\u06a9\u0631\u0627\u0686\u06cc", "addr:city:ar": "\u0643\u0631\u0627\u062a\u0634\u064a", "addr:city:en": "Karachi", "addr:city:ks": "\u06a9\u064e\u0631\u0672\u0686\u06cc", "addr:city:pnb": "\u06a9\u0631\u0627\u0686\u06cc", "addr:city:ps": "\u06a9\u0631\u0627\u0686\u06cd", "addr:city:sd": "\u06aa\u0631\u0627\u0686\u064a", "addr:city:ur": "\u06a9\u0631\u0627\u0686\u06cc", "addr:street": "Bezonji Street", "amenity": "hospital", "name": "Eye OPD Civil Hospital"}}, {"type": "node", "id": 5109489798, "lat": 24.9389291, "lon": 67.0761081, "tags": {"addr:city": "Karachi", "addr:street": "Street 1", "amenity": "hospital", "name": "Tabba Heart Hospital"}}, {"type": "node", "id": 5109530473, "lat": 24.9363212, "lon": 67.0824972, "tags": {"addr:city": "Karachi", "addr:street": "Shahrah e Pakistan", "amenity": "hospital", "name": "Mamji Hospital"}}, {"type": "node", "id": 5112691243, "lat": 24.9283662, "lon": 67.0636422, "tags": {"addr:city": "Karachi", "addr:street": "Shahrah-e-Jahangir", "amenity": "hospital", "name": "Balqis Cancer Hospital"}}, {"type": "node", "id": 5115427051, "lat": 24.9111413, "lon": 67.1053149, "tags": {"addr:city": "Karachi", "addr:street": "Rashid Minhas Road", "amenity": "hospital", "name": "Amjad Hospital"}}, {"type": "node", "id": 5115540200, "lat": 24.9191344, "lon": 67.0955112, "tags": {"addr:city": "Karachi", "addr:street": "Rashid Minhas Road", "amenity": "hospital", "name": "Shan Hospital"}}, {"type": "node", "id": 5117205313, "lat": 24.9160963, "lon": 67.0308507, "tags": {"addr:city": "Karachi", "addr:country": "PK", "addr:postcode": "74700", "addr:province": "Sindh", "addr:street": "Nawab Siddique Ali Khan Road", "addr:suburb": "Nazimabad", "amenity": "hospital", "name": "Baqai University Hospital"}}, {"type": "node", "id": 5119465032, "lat": 24.9205407, "lon": 66.9360109, "tags": {"addr:city": "Karachi", "addr:country": "PK", "addr:postcode": "75020", "addr:province": "Sindh", "addr:street": "Hub Chowki Road", "amenity": "hospital", "name": "Sina Hospital"}}, {"type": "node", "id": 5119821448, "lat": 24.873342, "lon": 67.0185822, "tags": {"addr:city": "Karachi", "addr:street": "Nishtar Road", "amenity": "hospital", "name": "Halar General Hospital"}}, {"type": "node", "id": 5119821451, "lat": 24.8727691, "lon": 67.0179339, "tags": {"addr:city": "Karachi", "addr:street": "Nishtar Road", "amenity": "hospital", "name": "Bagh E Halar General Hospital"}}, {"type": "node", "id": 5119821453, "lat": 24.8728037, "lon": 67.0182886, "tags": {"addr:city": "\u06a9\u0631\u0627\u0686\u06cc", "addr:street": "\u0646\u0634\u062a\u0631 \u0631\u0648\u0688", "amenity": "hospital", "healthcare": "hospital", "name": "Al.Habib Medical Centre Post Office Street Shoe Market Garden Karachi"}}, {"type": "node", "id": 5119821477, "lat": 24.8698072, "lon": 67.0155221, "tags": {"addr:city": "Karachi", "addr:street": "Nishtar Road", "amenity": "hospital", "name": "Gazdarabad hospital"}}, {"type": "node", "id": 5123962267, "lat": 24.8672837, "lon": 66.9997144, "tags": {"addr:city": "Karachi", "addr:province": "Sindh", "addr:street": "Mewa Shah Road", "amenity": "hospital", "name": "Liyari Clinic"}}, {"type": "node", "id": 5124127907, "lat": 24.8771379, "lon": 67.03772, "tags": {"addr:city": "Karachi", "addr:street": "M A Jinnah Road", "amenity": "hospital", "name": "Karachi National Hospital Pvt Ltd"}}, {"type": "node", "id": 5124205174, "lat": 24.8620332, "lon": 67.0264081, "tags": {"addr:city": "Karachi", "addr:street": "Zaibunnisa Street", "amenity": "hospital"}}, {"type": "node", "id": 5124275220, "lat": 24.9292215, "lon": 67.0320423, "tags": {"addr:city": "Karachi", "addr:country": "PK", "addr:place": "North Nazimabad Block A", "addr:province": "Sindh", "addr:street": "Nazim Street", "addr:suburb": "North Nazimabad Town", "amenity": "hospital", "name": "Sindh Rangers Hospital"}}, {"type": "node", "id": 5126962161, "lat": 24.8668736, "lon": 67.0237158, "tags": {"addr:city": "Karachi", "addr:street": "Agha Khan III Road (Garden Road)", "amenity": "hospital", "name": "Ankle Seria Hospital"}}, {"type": "node", "id": 5126962163, "lat": 24.8766816, "lon": 67.0331022, "tags": {"addr:city": "\u06a9\u0631\u0627\u0686\u06cc", "addr:city:ar": "\u0643\u0631\u0627\u062a\u0634\u064a", "addr:city:en": "Karachi", "addr:city:ks": "\u06a9\u064e\u0631\u0672\u0686\u06cc", "addr:city:pnb": "\u06a9\u0631\u0627\u0686\u06cc", "addr:city:ps": "\u06a9\u0631\u0627\u0686\u06cd", "addr:city:sd": "\u06aa\u0631\u0627\u0686\u064a", "addr:city:ur": "\u06a9\u0631\u0627\u0686\u06cc", "addr:street": "Clayton Road", "amenity": "hospital", "name": "Fatimiyah Hospital"}}, {"type": "node", "id": 5127759864, "lat": 24.8444965, "lon": 67.1928629, "tags": {"addr:place": "Landhi", "addr:province": "Sindh", "addr:street": "Landhi Road", "amenity": "hospital", "name": "Urban Health Center Babar Market Landhi"}}, {"type": "node", "id": 5127759865, "lat": 24.8446717, "lon": 67.19304, "tags": {"addr:place": "Landhi", "addr:province": "Sindh", "addr:street": "Landhi Road", "amenity": "hospital", "name": "Landhi Cardiac Emergency Center"}}, {"type": "node", "id": 5127768205, "lat": 24.8498807, "lon": 67.2069541, "tags": {"addr:city": "Karachi", "addr:place": "Korangi", "addr:province": "Sindh", "addr:street": "Main Korangi Road", "amenity": "hospital", "name": "Zafar Khan Medical Complex - Korangi"}}, {"type": "node", "id": 5127785877, "lat": 24.8338742, "lon": 67.2257119, "tags": {"addr:city": "Karachi", "addr:province": "Sindh", "addr:street": "Mehran Highway", "amenity": "hospital", "name": "SESSI Hospital - Mehran Highway"}}, {"type": "node", "id": 5127796859, "lat": 24.9220222, "lon": 67.1019989, "tags": {"addr:city": "Karachi", "addr:street": "University Road", "amenity": "hospital", "name": "Ibn-e-Sina Hospital"}}, {"type": "node", "id": 5127823733, "lat": 24.9386491, "lon": 67.0777018, "tags": {"addr:city": "Karachi", "addr:street": "Water Pump Fly Over", "amenity": "hospital", "emergency": "yes", "name": "Mamji Hospital"}}, {"type": "node", "id": 5127858328, "lat": 24.9415696, "lon": 67.081327, "tags": {"addr:city": "Karachi", "addr:street": "Shahrah-e-Pakistan", "amenity": "hospital", "name": "MI Hospital"}}, {"type": "node", "id": 5127899072, "lat": 24.9347373, "lon": 67.0728196, "tags": {"addr:city": "\u06a9\u0631\u0627\u0686\u06cc", "addr:housenumber": "FB area block 13", "addr:street": "Shahrah-e-Pakistan", "amenity": "hospital", "healthcare": "hospital", "name": "Ahmed Medical Centre", "name:en": "Ahmed Medical Centre"}}, {"type": "node", "id": 5127934396, "lat": 24.9203395, "lon": 67.0518068, "tags": {"addr:city": "Karachi", "addr:street": "Shahrah Humayun", "amenity": "hospital", "name": "Sambros Hospital"}}, {"type": "node", "id": 5127942425, "lat": 24.9656974, "lon": 67.1723123, "tags": {"addr:city": "Karachi", "addr:street": "Super Link Road", "amenity": "hospital", "name": "City Hospital"}}, {"type": "node", "id": 5127967766, "lat": 24.9051826, "lon": 67.0316631, "tags": {"addr:city": "Karachi", "addr:country": "PK", "addr:postcode": "74700", "addr:province": "Sindh", "addr:street": "Nazimabad 2", "addr:suburb": "Nazimabad", "amenity": "hospital", "name": "Al-Khidmat Hospital and Maternity Home"}}, {"type": "node", "id": 5127967767, "lat": 24.9050194, "lon": 67.0316683, "tags": {"addr:city": "Karachi", "addr:country": "PK", "addr:postcode": "74700", "addr:province": "Sindh", "addr:street": "Nazimabad 2", "addr:suburb": "Nazimabad", "amenity": "hospital", "name": "Al-Khidmat Hospital"}}, {"type": "node", "id": 5128018441, "lat": 24.8666206, "lon": 67.0239181, "tags": {"addr:city": "Karachi", "addr:street": "Agha Khan III Road (Garden Road)", "amenity": "hospital", "name": "ISM Hospital"}}, {"type": "node", "id": 5128042359, "lat": 24.8283119, "lon": 67.161001, "tags": {"addr:city": "Karachi", "addr:province": "Sindh", "addr:street": "Landhi Road", "amenity": "hospital", "name": "Korangi Landhi Medical Center"}}, {"type": "node", "id": 5128052896, "lat": 24.8738691, "lon": 67.0745757, "tags": {"addr:city": "Karachi", "addr:street": "Shaheed-e-Millat Service Rd", "amenity": "hospital", "name": "Plastic Surgery General Hospital PSG Hospital"}}, {"type": "node", "id": 5128052897, "lat": 24.917029, "lon": 67.030941, "tags": {"addr:city": "Karachi", "addr:country": "PK", "addr:housenumber": "1", "addr:postcode": "74700", "addr:province": "Sindh", "addr:street": "Nawab Siddique Ali Khan Road", "addr:suburb": "Nazimabad", "amenity": "hospital", "name": "Karachi Psychiatric Hospital"}}, {"type": "node", "id": 5128085123, "lat": 24.8218512, "lon": 67.146678, "tags": {"addr:city": "Karachi", "addr:province": "Sindh", "amenity": "hospital", "name": "LRBT Eye Hospital - Korangi"}}, {"type": "node", "id": 5128085154, "lat": 24.8236749, "lon": 67.1433316, "tags": {"addr:city": "Karachi", "addr:province": "Sindh", "addr:street": "Landhi Road", "amenity": "hospital", "name": "Chinot General Hospital - Korangi"}}, {"type": "node", "id": 5128109100, "lat": 24.8807895, "lon": 67.0639942, "tags": {"amenity": "hospital", "name": "Royal Institute Of Medicine & Surgery"}}, {"type": "node", "id": 5128335472, "lat": 24.9088159, "lon": 67.0840837, "tags": {"addr:city": "Karachi", "addr:housenumber": "3", "addr:street": "University Road", "amenity": "hospital", "description": "Dr Tariq Zahid Khan Ear Nose Throat Surgeon", "healthcare": "hospital", "healthcare:speciality": "otolaryngology", "name": "Ashfaq Memorial Hospital"}}, {"type": "node", "id": 5128368405, "lat": 24.8529168, "lon": 67.0099872, "tags": {"addr:city": "Karachi", "addr:street": "Bembridge Road", "amenity": "hospital", "name": "Burhani Hospital"}}, {"type": "node", "id": 5128368408, "lat": 24.9142362, "lon": 67.1274877, "tags": {"addr:city": "\u06a9\u0631\u0627\u0686\u06cc", "addr:street": "\u062c\u0648\u06c1\u0631 \u0686\u0648\u0631\u0646\u06af\u06cc \u0631\u0648\u0688", "amenity": "hospital", "healthcare": "hospital", "name": "\u062f\u0627\u0631\u0627\u0644\u0635\u062d\u062a \u06c1\u0633\u067e\u062a\u0627\u0644", "name:en": "Darul Sehat Hospital", "name:ur": "\u062f\u0627\u0631\u0627\u0644\u0635\u062d\u062a \u06c1\u0633\u067e\u062a\u0627\u0644"}}, {"type": "node", "id": 5128396157, "lat": 25.0025974, "lon": 67.0377444, "tags": {"addr:city": "Karachi", "addr:street": "Shahrah e Usman", "amenity": "hospital", "emergency": "yes", "name": "Fatima Kidney Care Hospital"}}, {"type": "node", "id": 5128396158, "lat": 24.8780193, "lon": 67.034098, "tags": {"addr:city": "Karachi", "addr:street": "Britto Road", "amenity": "hospital", "name": "Fatimiyah Hospital"}}, {"type": "node", "id": 5128441355, "lat": 24.8340497, "lon": 67.0332282, "tags": {"addr:city": "Karachi", "addr:country": "PK", "addr:housenumber": "Block 7", "addr:place": "Clifton Block 7", "addr:province": "Sindh", "addr:street": "Clifton", "addr:suburb": "Clifton", "amenity": "hospital", "country": "PK", "name": "Hilal-e-Ahmer Hospital (Red Crescent)"}}, {"type": "node", "id": 5128441357, "lat": 24.8338284, "lon": 67.0328847, "tags": {"addr:city": "Karachi", "addr:country": "PK", "addr:housenumber": "Block 7", "addr:place": "Clifton Block 7", "addr:province": "Sindh", "addr:street": "Clifton", "addr:suburb": "Clifton", "amenity": "hospital", "country": "PK", "name": "Jps (CT Scan, MRI & MRA) Diagnostic Centre"}}, {"type": "node", "id": 5128445357, "lat": 24.8638412, "lon": 67.0292793, "tags": {"addr:city": "Karachi", "addr:street": "Price Road", "amenity": "hospital", "name": "St. John Ambulance Association of Pakistan"}}, {"type": "node", "id": 5128445381, "lat": 24.8613787, "lon": 67.0100599, "tags": {"addr:city": "\u06a9\u0631\u0627\u0686\u06cc", "addr:city:ar": "\u0643\u0631\u0627\u062a\u0634\u064a", "addr:city:en": "Karachi", "addr:city:ks": "\u06a9\u064e\u0631\u0672\u0686\u06cc", "addr:city:pnb": "\u06a9\u0631\u0627\u0686\u06cc", "addr:city:ps": "\u06a9\u0631\u0627\u0686\u06cd", "addr:city:sd": "\u06aa\u0631\u0627\u0686\u064a", "addr:city:ur": "\u06a9\u0631\u0627\u0686\u06cc", "addr:street": "Markwick Road", "amenity": "hospital", "name": "Indus Hospital"}}, {"type": "node", "id": 5128455359, "lat": 24.814304, "lon": 67.0225082, "tags": {"addr:city": "Karachi", "addr:country": "PK", "addr:housenumber": "Block 3", "addr:place": "Clifton Block 3", "addr:province": "Sindh", "addr:street": "Clifton", "addr:suburb": "Clifton", "amenity": "hospital", "country": "PK", "name": "South City Hospital"}}, {"type": "node", "id": 5128493817, "lat": 24.8684194, "lon": 67.0235599, "tags": {"addr:city": "Karachi", "addr:street": "Agha Khan III Road (Garden Road)", "amenity": "hospital", "name": "Kutiyana Memon Hospital"}}, {"type": "node", "id": 5128507228, "lat": 24.8399154, "lon": 67.0492835, "tags": {"addr:city": "Karachi", "addr:street": "Circular Avenue", "amenity": "hospital", "name": "3"}}, {"type": "node", "id": 5128507229, "lat": 24.83825, "lon": 67.049366, "tags": {"addr:city": "Karachi", "addr:street": "McNeil Road", "amenity": "hospital", "name": "Emergency Center"}}, {"type": "node", "id": 5128547826, "lat": 24.8479195, "lon": 67.2525929, "tags": {"addr:city": "Karachi", "addr:street": "National Highway", "amenity": "hospital", "healthcare": "hospital", "name": "The Kidny Post Gradute Centre"}}, {"type": "node", "id": 5128555084, "lat": 24.8609661, "lon": 67.0122228, "tags": {"addr:city": "Karachi", "addr:street": "Sri Ram Street", "amenity": "hospital", "name": "Deewan Farooque Medical Complex (SIUT)"}}, {"type": "node", "id": 5128555085, "lat": 24.8602731, "lon": 67.0111174, "tags": {"addr:city": "Karachi", "addr:street": "Hospital Road", "amenity": "hospital", "name": "SMBB Trauma Centre, Dr Ruth KM Pfau Civil Hospital"}}, {"type": "node", "id": 5128563370, "lat": 24.9293701, "lon": 67.1284403, "tags": {"addr:city": "Karachi", "addr:street": "Block No.3, Gulshan-e-Iqbal, Karachi", "amenity": "hospital", "name": "ZAKAI DENTAL HOSPITAL"}}, {"type": "node", "id": 5128618762, "lat": 24.8852695, "lon": 67.0830814, "tags": {"addr:city": "Karachi", "addr:street": "Ameer Khusro Road", "amenity": "hospital", "name": "Adamjee Eye Hospital"}}, {"type": "node", "id": 5128625128, "lat": 24.9122033, "lon": 67.0230354, "tags": {"addr:city": "Karachi", "addr:country": "PK", "addr:postcode": "74700", "addr:province": "Sindh", "addr:street": "Nazimabad 3", "addr:suburb": "Nazimabad", "amenity": "hospital", "name": "Masroor Hospital"}}, {"type": "node", "id": 5128635956, "lat": 24.9262484, "lon": 67.0650623, "tags": {"addr:city": "Karachi", "addr:street": "Shahrah-e-Jahangir", "amenity": "hospital", "name": "Fidai Emergency Medical Centre"}}, {"type": "node", "id": 5128867094, "lat": 24.9208026, "lon": 67.0269186, "tags": {"addr:city": "Karachi", "addr:country": "PK", "addr:postcode": "74700", "addr:province": "Sindh", "addr:street": "Nazimabad 5", "addr:suburb": "Nazimabad", "amenity": "hospital", "name": "Behtar Zindagi Center Nazimabad"}}, {"type": "node", "id": 5130080829, "lat": 24.9135362, "lon": 66.9720627, "tags": {"addr:city": "Karachi", "addr:street": "muslim mujahid colony union council no., Street 6,", "amenity": "hospital", "name": "Ahmed Ibrahim Welfare Eye Hospital"}}, {"type": "node", "id": 5130198869, "lat": 24.9331881, "lon": 67.0992942, "tags": {"addr:city": "Karachi", "addr:street": "Allama Shabbir Ahmed Usmani Road", "amenity": "hospital", "name": "Dr. Aqeel Bin Abdul Qadir Welfare Eye Hospital"}}, {"type": "node", "id": 5130198885, "lat": 24.9470309, "lon": 67.0777171, "tags": {"addr:city": "Karachi", "addr:country": "PK", "addr:housenumber": "ST11", "addr:place": "FB Area Block 19", "addr:province": "Sindh", "addr:street": "FB Area Block 19", "amenity": "hospital", "emergency": "no", "name": "Noor Hospital"}}, {"type": "node", "id": 5130272517, "lat": 25.0410279, "lon": 67.1011398, "tags": {"addr:city": "Karachi", "addr:street": "Lyari Basti Road", "amenity": "hospital", "name": "Al Huda Trust hospital"}}, {"type": "node", "id": 5130353811, "lat": 24.9034986, "lon": 67.2052655, "tags": {"addr:city": "Karachi", "addr:street": "Liaqat Road", "amenity": "hospital", "name": "Al-Khidmat Hospital"}}, {"type": "node", "id": 5130353812, "lat": 24.8801425, "lon": 67.1419193, "tags": {"addr:city": "Karachi", "addr:country": "PK", "addr:housenumber": "Block 1", "addr:place": "Shah Faisal Block 1", "addr:postcode": "74200", "addr:province": "Sindh", "addr:street": "Shah Faisal", "addr:suburb": "Shah Faisal Town", "amenity": "hospital", "name": "Al-Khidmat Hospital, Shahfaisal"}}, {"type": "node", "id": 5130353814, "lat": 24.8259023, "lon": 67.1518492, "tags": {"addr:city": "Karachi", "addr:street": "Landhi Road", "amenity": "hospital", "name": "Al-Khidmat Hospital"}}, {"type": "node", "id": 5130353816, "lat": 24.8128127, "lon": 67.0089655, "tags": {"addr:city": "Karachi", "addr:country": "PK", "addr:housenumber": "Block 2", "addr:place": "Clifton Block 2", "addr:province": "Sindh", "addr:street": "Clifton", "addr:suburb": "Clifton", "amenity": "hospital", "country": "PK", "name": "Al Khidmat Hospital"}}, {"type": "node", "id": 5130354321, "lat": 24.8399299, "lon": 67.1862067, "tags": {"addr:city": "Karachi", "addr:street": "Landhi Road", "amenity": "hospital", "name": "Al Masiha Hospital"}}, {"type": "node", "id": 5130354327, "lat": 24.8408038, "lon": 67.1898209, "tags": {"addr:city": "Karachi", "addr:street": "Landhi Road", "amenity": "hospital", "name": "Awadh Hospital"}}, {"type": "node", "id": 5130354341, "lat": 24.8764061, "lon": 67.1627406, "tags": {"addr:city": "Karachi", "addr:street": "Street Number 6", "amenity": "hospital", "emergency": "no", "name": "Al Nas Hospital"}}, {"type": "node", "id": 5130374118, "lat": 24.8375709, "lon": 67.0675494, "tags": {"addr:city": "Karachi", "addr:country": "PK", "addr:place": "DHA Phase 1", "addr:province": "Sindh", "addr:street": "DHA Phase 1", "addr:suburb": "Defence Housing Authority", "amenity": "hospital", "healthcare": "hospital", "name": "AL NOOR EYE HOSPITAL"}}, {"type": "node", "id": 5130498611, "lat": 24.9162371, "lon": 67.0207785, "tags": {"addr:city": "Karachi", "addr:country": "PK", "addr:postcode": "74700", "addr:province": "Sindh", "addr:street": "behind alamgir masjid bara maidan", "addr:suburb": "Nazimabad", "amenity": "hospital", "name": "APWA Shirin EYE Hospital"}}, {"type": "node", "id": 5130498612, "lat": 24.9169219, "lon": 67.0205885, "tags": {"addr:city": "Karachi", "addr:country": "PK", "addr:postcode": "74700", "addr:province": "Sindh", "addr:suburb": "Nazimabad", "amenity": "hospital", "name": "NOOR BANO EYE HSOPITAL"}}, {"type": "node", "id": 5130517087, "lat": 24.9224659, "lon": 67.0209299, "tags": {"addr:city": "Karachi", "addr:country": "PK", "addr:housenumber": "1", "addr:postcode": "74700", "addr:province": "Sindh", "addr:street": "Paposh Nagar", "addr:suburb": "Nazimabad", "amenity": "hospital", "name": "Siddiqui Medical Center"}}, {"type": "node", "id": 5130682836, "lat": 24.8822621, "lon": 67.0630326, "tags": {"addr:city": "Karachi", "addr:street": "Jamaluddin Afghani Road", "amenity": "hospital", "name": "Asian Hair Transplant & Skin Care Center Karachi"}}, {"type": "node", "id": 5130682839, "lat": 24.8820016, "lon": 67.1831665, "tags": {"addr:city": "Karachi", "addr:street": "National Highway", "amenity": "hospital", "name": "Atia General Hospital"}}, {"type": "node", "id": 5130682840, "lat": 24.9800994, "lon": 67.065178, "tags": {"addr:city": "Karachi", "addr:street": "Shahrah e Usmani", "amenity": "hospital", "name": "Aurangzeb Memorial Maternity & General Hospital"}}, {"type": "node", "id": 5130682849, "lat": 24.9408883, "lon": 67.0718931, "tags": {"addr:city": "Karachi", "addr:street": "Shah Jahan Avenue", "amenity": "hospital", "name": "Aziza Hussaini Hospital"}}, {"type": "node", "id": 5130682854, "lat": 24.9446105, "lon": 67.098752, "tags": {"addr:city": "Karachi", "addr:street": "Abul Hasan Ispahani Road", "amenity": "hospital", "name": "Dr Nargis Hospital"}}, {"type": "node", "id": 5130682855, "lat": 24.9331703, "lon": 67.1024779, "tags": {"addr:city": "Karachi", "addr:street": "Allama Shabbir Ahmed Usmani Road", "amenity": "hospital", "name": "WESTERN DENTAL HOSPITAL"}}, {"type": "node", "id": 5130682861, "lat": 24.9193812, "lon": 67.122457, "tags": {"addr:city": "Karachi", "addr:street": "Johar Chowrangi Road", "amenity": "hospital", "healthcare": "hospital", "name": "Cheezal Dental & Medical Hospital"}}, {"type": "node", "id": 5130682867, "lat": 24.8239846, "lon": 67.1419456, "tags": {"addr:city": "Karachi", "addr:street": "Landhi Road", "amenity": "hospital", "name": "Baldia Hospital"}}, {"type": "node", "id": 5130890299, "lat": 24.8321169, "lon": 67.035442, "tags": {"addr:city": "Karachi", "addr:country": "PK", "addr:place": "Clifton Block 8", "addr:province": "Sindh", "addr:street": "Clifton", "addr:suburb": "Clifton", "amenity": "hospital", "country": "PK", "name": "Concept Fertility Centre"}}, {"type": "node", "id": 5130890302, "lat": 24.9628212, "lon": 67.060746, "tags": {"addr:city": "Karachi", "addr:street": "Shahrah Sher Shah Suri", "amenity": "hospital", "name": "Shadman Town Children Hospital"}}, {"type": "node", "id": 5130890305, "lat": 24.8321916, "lon": 67.0409978, "tags": {"addr:city": "Karachi", "addr:street": "Khaleeq uz Zaman Road", "amenity": "hospital", "healthcare": "hospital", "name": "Jamiyat Hospital"}}, {"type": "node", "id": 5130890307, "lat": 24.8163998, "lon": 67.0033913, "tags": {"addr:city": "Karachi", "addr:country": "PK", "addr:housenumber": "Block 1", "addr:place": "Clifton Block 1", "addr:province": "Sindh", "addr:street": "Clifton", "addr:suburb": "Clifton", "amenity": "hospital", "country": "PK", "name": "Ziauddin Hospital (Keamari)"}}, {"type": "node", "id": 5130890311, "lat": 24.9295855, "lon": 67.0972408, "tags": {"addr:city": "Karachi", "addr:street": "Olympian Islah Uddin Road", "amenity": "hospital", "operator": "Khair-un Nisa Hospital"}}, {"type": "node", "id": 5130890721, "lat": 24.7926735, "lon": 67.0667739, "tags": {"addr:city": "Karachi", "addr:country": "PK", "addr:housenumber": "Phase 6", "addr:place": "DHA Phase 6", "addr:province": "Sindh", "addr:street": "Khayaban e Muslim", "addr:suburb": "Defence Housing Authority", "amenity": "hospital", "name": "Dr. Essa Laboratory and Diagnostics Centre"}}, {"type": "node", "id": 5130921747, "lat": 24.8431529, "lon": 67.0749182, "tags": {"addr:city": "Karachi", "amenity": "hospital", "healthcare": "hospital", "name": "Family Health Centre"}}, {"type": "node", "id": 5130921749, "lat": 24.9134138, "lon": 67.0218134, "tags": {"addr:city": "Karachi", "addr:country": "PK", "addr:postcode": "74700", "addr:province": "Sindh", "addr:street": "Nazimabad 3", "addr:suburb": "Nazimabad", "amenity": "hospital", "name": "Farzana Clinic"}}, {"type": "node", "id": 5130921750, "lat": 24.8832963, "lon": 67.1830329, "tags": {"addr:city": "Karachi", "addr:street": "Khalid Bin Waleed Road - PECHS", "amenity": "hospital", "name": "Fatima Eye Hospital"}}, {"type": "node", "id": 5130954908, "lat": 24.9416489, "lon": 67.0814717, "tags": {"addr:city": "Karachi", "addr:street": "Service Road", "amenity": "hospital", "name": "The Federal Clinic Maternity Home"}}, {"type": "node", "id": 5130954909, "lat": 24.9258805, "lon": 67.0645924, "tags": {"addr:city": "Karachi", "addr:street": "Shahrah-e-Jahangir", "amenity": "hospital", "name": "Fidai Hospital"}}, {"type": "node", "id": 5130954910, "lat": 24.9579644, "lon": 67.0525905, "tags": {"addr:city": "Karachi", "addr:street": "Shah Jahan Avenue", "amenity": "hospital", "name": "FM Hospital"}}, {"type": "node", "id": 5130954911, "lat": 24.9122952, "lon": 67.0933097, "tags": {"addr:city": "Karachi", "addr:street": "Haji Bashir Ahmed Ghazi Abadi Road", "amenity": "hospital", "name": "FON General Hospital & Karachi Urology Centre"}}, {"type": "node", "id": 5130954915, "lat": 24.9706631, "lon": 67.0802834, "tags": {"addr:city": "Gulshan Town", "addr:street": "Godhra Road", "amenity": "hospital", "name": "Godhra Muslim Medical Centre & Charitable Hospital"}}, {"type": "node", "id": 5130954918, "lat": 24.9731569, "lon": 67.0794037, "tags": {"addr:city": "Karachi", "addr:street": "Godhra Road", "amenity": "hospital", "name": "North Lane Hospital"}}, {"type": "node", "id": 5130954919, "lat": 24.9374984, "lon": 67.0981582, "tags": {"addr:city": "Karachi", "addr:street": "Abul Hassan Isphani Road", "amenity": "hospital", "name": "Gulshan General Hospital"}}, {"type": "node", "id": 5130954920, "lat": 24.9388803, "lon": 67.1010623, "tags": {"addr:city": "Karachi", "addr:street": "Abul Hassan Isphani Road", "amenity": "hospital", "name": "Rajput General Hospital"}}, {"type": "node", "id": 5130955221, "lat": 24.9386378, "lon": 67.1012718, "tags": {"addr:city": "Karachi", "addr:street": "Abul Hassan Isphani Road", "amenity": "hospital", "brand": "\u062c\u06d2 \u0627\u06cc\u0633 \u0628\u06cc\u0646\u06a9", "brand:ur": "\u062c\u06d2 \u0627\u06cc\u0633 \u0628\u06cc\u0646\u06a9", "brand:wikidata": "Q6108986", "brand:wikipedia": "ur:\u062c\u06d2 \u0627\u06cc\u0633 \u0628\u06cc\u0646\u06a9", "brand:wikipedia:ur": "\u062c\u06d2 \u0627\u06cc\u0633 \u0628\u06cc\u0646\u06a9", "name": "\u062c\u06d2 \u0627\u06cc\u0633 \u0628\u06cc\u0646\u06a9", "name:en": "JS Bank", "name:ks": "\u062c\u06d2 \u0627\u06cc\u0633 \u0628\u06cc\u0646\u06a9", "name:ur": "\u062c\u06d2 \u0627\u06cc\u0633 \u0628\u06cc\u0646\u06a9", "operator": "\u062c\u06d2 \u0627\u06cc\u0633 \u0628\u06cc\u0646\u06a9", "operator:ur": "\u062c\u06d2 \u0627\u06cc\u0633 \u0628\u06cc\u0646\u06a9", "operator:wikidata": "Q6108986", "operator:wikipedia": "ur:\u062c\u06d2 \u0627\u06cc\u0633 \u0628\u06cc\u0646\u06a9", "operator:wikipedia:ur": "\u062c\u06d2 \u0627\u06cc\u0633 \u0628\u06cc\u0646\u06a9", "short_name": "\u062c\u06d2 \u0627\u06cc\u0633 \u0628\u06cc", "short_name:ur": "\u062c\u06d2 \u0627\u06cc\u0633 \u0628\u06cc"}}, {"type": "node", "id": 5130968256, "lat": 24.9188959, "lon": 67.0966997, "tags": {"addr:city": "Karachi", "addr:street": "Rashid Minhas Road", "amenity": "hospital", "name": "Nadeem Medical Centre"}}, {"type": "node", "id": 5130968259, "lat": 24.9272461, "lon": 67.2040317, "tags": {"addr:city": "Karachi", "addr:street": "Mallir Cantt Road", "amenity": "hospital", "name": "Hajra Medical Centre"}}, {"type": "node", "id": 5131024100, "lat": 24.9264816, "lon": 67.0957832, "tags": {"addr:city": "Karachi", "addr:street": "Allama Shabbir Ahmed Usmani Road", "amenity": "hospital", "name": "Ismat Eye Hospital"}}, {"type": "node", "id": 5131024105, "lat": 24.8513061, "lon": 67.0481317, "tags": {"addr:city": "\u06a9\u0631\u0627\u0686\u06cc", "addr:street": "\u0631\u0641\u06cc\u0642 \u0634\u06c1\u06cc\u062f \u0631\u0648\u0688", "amenity": "hospital", "healthcare": "hospital", "name": "\u062c\u0648\u06c1\u0631\u06cc \u062a\u0648\u0627\u0646\u0627\u0626\u06cc \u0637\u0628\u06cc \u0645\u0631\u06a9\u0632", "name:en": "Atomic Energy Medical Centre", "name:ur": "\u062c\u0648\u06c1\u0631\u06cc \u062a\u0648\u0627\u0646\u0627\u0626\u06cc \u0637\u0628\u06cc \u0645\u0631\u06a9\u0632", "short_name": "\u0627\u06d2 \u0627\u06cc \u0627\u06cc\u0645 \u0633\u06cc", "short_name:en": "AEMC", "short_name:ur": "\u0627\u06d2 \u0627\u06cc \u0627\u06cc\u0645 \u0633\u06cc"}}, {"type": "node", "id": 5132578831, "lat": 24.9080049, "lon": 67.0827474, "tags": {"addr:city": "Karachi", "addr:street": "University Road", "amenity": "hospital", "name": "Jawaid Eye Hospital"}}, {"type": "node", "id": 5132712719, "lat": 24.8735292, "lon": 67.0823991, "tags": {"addr:city": "Karachi", "addr:street": "Tipu Sultan Road", "amenity": "hospital", "name": "Kchs Medical centre"}}, {"type": "node", "id": 5132720024, "lat": 24.9723063, "lon": 67.0704884, "tags": {"addr:city": "Karachi", "addr:street": "Godhra Road", "amenity": "hospital", "name": "Khalil Welfare Eye Hospital"}}, {"type": "node", "id": 5132720028, "lat": 24.972701, "lon": 67.0706301, "tags": {"addr:city": "Karachi", "addr:street": "Godhra Road", "amenity": "hospital", "name": "Sindh Govt Hospital"}}, {"type": "node", "id": 5132720034, "lat": 24.9353972, "lon": 67.0607192, "tags": {"addr:city": "Karachi", "addr:street": "Ziauddin Road", "amenity": "hospital", "name": "Shah Sultana Memorial Welfare Center"}}, {"type": "node", "id": 5132720040, "lat": 24.9311154, "lon": 66.9988112, "tags": {"addr:city": "Karachi", "addr:street": "Badar Chowk Road", "amenity": "hospital", "name": "Khyber Hospital"}}, {"type": "node", "id": 5132720041, "lat": 24.9477785, "lon": 67.0298043, "tags": {"addr:city": "Karachi", "addr:street": "North Nazimabad - Orangi Link Road", "amenity": "hospital", "name": "Paracha Hospital"}}, {"type": "node", "id": 5132720042, "lat": 24.965563, "lon": 66.9580153, "tags": {"addr:city": "Karachi", "amenity": "hospital", "name": "Khyber Institute of Health Sciences and Technology"}}, {"type": "node", "id": 5132720043, "lat": 24.8501523, "lon": 67.0439335, "tags": {"addr:city": "Karachi", "addr:street": "Rafique Shaheed Road", "amenity": "hospital", "healthcare": "hospital", "name": "Kidney Care Centre"}}, {"type": "node", "id": 5132720046, "lat": 24.8600349, "lon": 67.0474404, "tags": {"addr:city": "Karachi", "addr:street": "Mubarak Shaheed Road", "amenity": "hospital", "healthcare": "hospital", "name": "Al-Baraka Hospital, Karachi"}}, {"type": "node", "id": 5132720049, "lat": 24.8584561, "lon": 67.0083618, "tags": {"addr:city": "Karachi", "addr:street": "Princes street", "amenity": "hospital", "name": "Lady Dufferin Hospital", "wikidata": "Q6470096", "wikipedia": "en:Lady Dufferin Hospital"}}, {"type": "node", "id": 5132720068, "lat": 24.9290994, "lon": 67.062751, "tags": {"addr:city": "Karachi", "addr:street": "Shahrah-e-Jahangir", "amenity": "hospital", "name": "Lakhanis Eye Hospital"}}, {"type": "node", "id": 5132890212, "lat": 24.817555, "lon": 67.1137286, "tags": {"amenity": "hospital", "healthcare": "hospital", "name": "\u0627\u0633\u0644\u0627\u0645\u06a9 \u0645\u0634\u0646 \u06c1\u0633\u067e\u062a\u0627\u0644", "name:en": "Islamic Mission Hospital", "name:ur": "\u0627\u0633\u0644\u0627\u0645\u06a9 \u0645\u0634\u0646 \u06c1\u0633\u067e\u062a\u0627\u0644"}}, {"type": "node", "id": 5132890214, "lat": 24.818923, "lon": 67.1157194, "tags": {"addr:city": "Karachi", "addr:street": "Landhi Road", "amenity": "hospital", "healthcare": "hospital", "name": "Fomg Hospital"}}, {"type": "node", "id": 5132942490, "lat": 24.8285033, "lon": 67.119629, "tags": {"addr:city": "Karachi", "addr:street": "Landhi", "amenity": "hospital", "name": "Madani Shifa Hospital"}}, {"type": "node", "id": 5133026860, "lat": 24.859876, "lon": 67.0110611, "tags": {"addr:city": "\u06a9\u0631\u0627\u0686\u06cc", "addr:city:ar": "\u0643\u0631\u0627\u062a\u0634\u064a", "addr:city:en": "Karachi", "addr:city:ks": "\u06a9\u064e\u0631\u0672\u0686\u06cc", "addr:city:pnb": "\u06a9\u0631\u0627\u0686\u06cc", "addr:city:ps": "\u06a9\u0631\u0627\u0686\u06cd", "addr:city:sd": "\u06aa\u0631\u0627\u0686\u064a", "addr:city:ur": "\u06a9\u0631\u0627\u0686\u06cc", "addr:street": "Hospital Road", "amenity": "hospital", "name": "Childlife Foundation - CHK Pediatric ER"}}, {"type": "node", "id": 5133026866, "lat": 24.847436, "lon": 67.087076, "tags": {"addr:city": "Karachi", "addr:street": "Allama Iqbal Road", "amenity": "hospital", "name": "Ashiq Memorial Hospital"}}, {"type": "node", "id": 5133026875, "lat": 24.9433319, "lon": 67.0627946, "tags": {"addr:city": "Karachi", "addr:country": "PK", "addr:province": "Sindh", "addr:street": "Allama Rasheed Turabi Road", "addr:suburb": "North Nazimabad Town", "amenity": "hospital", "name": "HI LiFe Hospital"}}, {"type": "node", "id": 5133026899, "lat": 24.9417756, "lon": 67.0714513, "tags": {"addr:city": "Karachi", "addr:street": "Shah Jahan Avenue", "amenity": "hospital", "name": "Mohammadi Hospital Gulberg"}}, {"type": "node", "id": 5133026905, "lat": 24.8834435, "lon": 67.1452598, "tags": {"addr:city": "Karachi", "addr:country": "PK", "addr:housenumber": "Block 1", "addr:place": "Shah Faisal Block 1", "addr:postcode": "74200", "addr:province": "Sindh", "addr:street": "Shah Faisal", "addr:suburb": "Shah Faisal Town", "amenity": "hospital", "name": "Naila Maternity Hospital"}}, {"type": "node", "id": 5133026906, "lat": 24.8536162, "lon": 67.0393163, "tags": {"addr:city": "Karachi", "addr:street": "Rafique Shaheed Road", "amenity": "hospital", "name": "National Institute of Cardiovascular Diseases"}}, {"type": "node", "id": 5133026912, "lat": 24.8662315, "lon": 67.0283849, "tags": {"addr:city": "Karachi", "addr:street": "Mansfield Street", "amenity": "hospital", "name": "NMI Hospital"}}, {"type": "node", "id": 5133026917, "lat": 24.9349861, "lon": 67.0972332, "tags": {"addr:city": "Karachi", "addr:street": "Allama Shabbir Ahmed Usmani Road", "amenity": "hospital", "name": "Patel Hospital"}}, {"type": "node", "id": 5133026919, "lat": 24.9334116, "lon": 67.0164182, "tags": {"addr:city": "Karachi", "addr:street": "Manghopir Road", "amenity": "hospital", "name": "Abdul Rehman General Hospital"}}, {"type": "node", "id": 5133028128, "lat": 24.9550557, "lon": 67.0509813, "tags": {"addr:city": "\u06a9\u0631\u0627\u0686\u06cc", "addr:postcode": "74600", "addr:street": "\u0634\u0627\u06c1\u0631\u0627\u06c1\u0650 \u0634\u06cc\u0631 \u0634\u0627\u06c1 \u0633\u0648\u0631\u06cc", "amenity": "hospital", "healthcare": "hospital", "healthcare:speciality": "paediatrics;general;gynaecology", "name": "\u0634\u0627\u06c1 \u0631\u062e \u06c1\u0633\u067e\u062a\u0627\u0644", "name:en": "Shahrukh Hospital", "name:ur": "\u0634\u0627\u06c1 \u0631\u062e \u06c1\u0633\u067e\u062a\u0627\u0644"}}, {"type": "node", "id": 5133028130, "lat": 24.879551, "lon": 67.171449, "tags": {"addr:city": "Karachi", "addr:street": "Shamsi Coopertive Housing Society, Wireless Gate,", "amenity": "hospital", "name": "Shamsi Hospital"}}, {"type": "node", "id": 5133028132, "lat": 24.8346954, "lon": 67.033251, "tags": {"addr:city": "Karachi", "addr:country": "PK", "addr:housenumber": "Block 7", "addr:place": "Clifton Block 7", "addr:province": "Sindh", "addr:street": "Clifton", "addr:suburb": "Clifton", "amenity": "hospital", "country": "PK", "name": "Shaukat Khanum Memorial Trust"}}, {"type": "node", "id": 5133028134, "lat": 24.8289715, "lon": 67.1636622, "tags": {"addr:city": "Karachi", "addr:street": "Korangi Shahfaisal Road", "amenity": "hospital", "name": "Sindh Government Hospital Korangi"}}, {"type": "node", "id": 5133028135, "lat": 24.8820489, "lon": 67.1830645, "tags": {"addr:city": "Karachi", "addr:street": "Fatima Road", "amenity": "hospital", "name": "Sindh Institute of Reproductive Medicine (SIRM)"}}, {"type": "node", "id": 5133028136, "lat": 24.8804544, "lon": 67.1859505, "tags": {"addr:city": "Karachi", "addr:street": "Fatima Road", "amenity": "hospital", "name": "The Children Hospital"}}, {"type": "node", "id": 5133037189, "lat": 24.9879388, "lon": 67.2133669, "tags": {"addr:city": "Karachi", "addr:street": "Gadap Road", "amenity": "hospital", "name": "Baqai Hospital - Gadap"}}, {"type": "node", "id": 5133048481, "lat": 24.850669, "lon": 67.206589, "tags": {"addr:city": "Karachi", "addr:street": "Main Korangi Road", "amenity": "hospital", "name": "Khatak Hospital"}}, {"type": "node", "id": 5133102870, "lat": 24.9785405, "lon": 67.0645751, "tags": {"addr:city": "Karachi", "addr:street": "Shahrah e Usmani", "amenity": "hospital", "name": "Medicall General Hospital"}}, {"type": "node", "id": 5133102877, "lat": 24.93908, "lon": 67.0735862, "tags": {"addr:city": "Karachi", "addr:street": "Shah Jahan Avenue", "amenity": "hospital", "name": "Yasin Eye Hospital"}}, {"type": "node", "id": 5133102879, "lat": 24.9389042, "lon": 67.0737461, "tags": {"addr:city": "Karachi", "addr:street": "Shah Jahan Avenue", "amenity": "hospital", "name": "Raheem Hospital"}}, {"type": "node", "id": 5133102883, "lat": 24.9276041, "lon": 67.0739092, "tags": {"addr:city": "Karachi", "addr:street": "Yaseenabad Road", "amenity": "hospital", "name": "Zubaida Diagnostics Dr Tahir"}}, {"type": "node", "id": 5133363020, "lat": 24.8409252, "lon": 67.1946541, "tags": {"addr:city": "Karachi", "addr:street": "Landhi", "amenity": "hospital", "name": "Karachi Homoeopathic Medical College & Hospital"}}, {"type": "node", "id": 5133370625, "lat": 24.8409832, "lon": 67.1873521, "tags": {"addr:city": "Karachi", "addr:street": "Landhi Road", "amenity": "hospital", "name": "Al Razi Hospital"}}, {"type": "node", "id": 5133405491, "lat": 24.8215643, "lon": 67.0349165, "tags": {"addr:city": "Karachi", "addr:country": "PK", "addr:housenumber": "Block 9", "addr:place": "Clifton Block 9", "addr:province": "Sindh", "addr:street": "Khayban e Iqbal", "addr:suburb": "Clifton", "amenity": "hospital", "country": "PK", "name": "Doctors Plaza, The Plaza"}}, {"type": "node", "id": 5133425777, "lat": 24.8374047, "lon": 67.1802169, "tags": {"addr:city": "Landhi Town", "addr:housenumber": "R5PJ+X38", "addr:postcode": "Karachi", "addr:street": "Sector 36 D", "amenity": "hospital", "description": "Dermatology, Blindness, Leprosy, MCHC, Tubercolosis", "healthcare": "hospital", "healthcare:speciality": "dermatology;pulmonology;ophthalmology", "name": "MALC Landhi Leprosy Centre", "operator": "MALC", "operator:type": "ngo"}}, {"type": "node", "id": 5133527581, "lat": 24.8362895, "lon": 67.1796549, "tags": {"addr:city": "Karachi", "addr:street": "Landhi Road", "amenity": "hospital", "name": "Al Massiha Hospital"}},