{"version": 0.6, "generator": "Overpass API 0.7.61.5 4133829e", "osm3s": {"timestamp_osm_base": "2023-10-31T20:54:41Z", "copyright": "The data included in this document is from www.openstreetmap.org. The data is made available under ODbL."}, "elements": [{"type": "node", "id": 385139771, "lat": 22.6557215, "lon": 120.2792169, "tags": {"amenity": "hospital", "name": "\u4e09\u6cf0\u91ab\u9662", "name:en": "Santai Hospital", "name:zh": "\u4e09\u6cf0\u91ab\u9662", "note:tisa": "yes"}}, {"type": "node", "id": 440008384, "lat": 29.8556562, "lon": 121.5574088, "tags": {"amenity": "hospital", "healthcare": "hospital", "name": "\u674e\u60e0\u5229\u533b\u9662", "name:en": "Li Hospital", "name:zh_pinyin": "ningbo li huili yiyuan"}}, {"type": "node", "id": 972015821, "lat": 24.8998111, "lon": 120.9870843, "tags": {"amenity": "hospital", "healthcare": "hospital"}}, {"type": "node", "id": 1068008317, "lat": 26.288084, "lon": 127.800268, "tags": {"KSJ2:AAC": "47327", "KSJ2:AAC_V": "\u6c96\u7e04\u770c\u4e2d\u982d\u90e1\u5317\u4e2d\u57ce\u6751", "KSJ2:APF": "4", "KSJ2:APF_V": "\u6c11\u9593", "KSJ2:PCA": "17", "KSJ2:PCA_V": "\u75c5\u9662", "KSJ2:PCI": "17001", "KSJ2:PCI_V": "\u4e00\u822c\u75c5\u9662\u3001\u56fd\u7acb\u7642\u990a\u6240\u3001\u533b\u7642\u30bb\u30f3\u30bf\u30fc", "KSJ2:RCN": "\u6570\u5024\u5730\u56f3", "addr:street": "\u5b57\u5927\u57ce311", "amenity": "hospital", "name": "\u5317\u4e2d\u57ce\u82e5\u677e\u75c5\u9662", "name:en": "Kitanakagusuku Wakamatsu Hospital", "name:ja": "\u5317\u4e2d\u57ce\u82e5\u677e\u75c5\u9662", "note": "National-Land Numerical Information 2006, MLIT Japan", "note:ja": "\u56fd\u571f\u6570\u5024\u60c5\u5831(\u6cb3\u5ddd\u30c7\u30fc\u30bf)\u5e73\u621018\u5e74\u56fd\u571f\u4ea4\u901a\u7701", "operator": "\u30a2\u30ac\u30da\u4f1a", "source": "MLIT Japan", "source_ref": "http://nlftp.mlit.go.jp/ksj/jpgis/datalist/KsjTmplt-P02-v2_0.html"}}, {"type": "node", "id": 1068008647, "lat": 26.252169, "lon": 127.755829, "tags": {"KSJ2:AAC": "47205", "KSJ2:AAC_V": "\u6c96\u7e04\u770c\u5b9c\u91ce\u6e7e\u5e02", "KSJ2:APF": "1", "KSJ2:APF_V": "\u56fd", "KSJ2:PCA": "17", "KSJ2:PCA_V": "\u75c5\u9662", "KSJ2:PCI": "17001", "KSJ2:PCI_V": "\u4e00\u822c\u75c5\u9662\u3001\u56fd\u7acb\u7642\u990a\u6240\u3001\u533b\u7642\u30bb\u30f3\u30bf\u30fc", "KSJ2:RCN": "\u6570\u5024\u5730\u56f3", "addr:street": "\u5b57\u6211\u5982\u53e43-20-14", "amenity": "hospital", "name": "\u56fd\u7acb\u6c96\u7e04\u75c5\u9662", "name:en": "National Okinawa Hospital", "name:ja": "\u56fd\u7acb\u6c96\u7e04\u75c5\u9662", "note": "National-Land Numerical Information 2006, MLIT Japan", "note:ja": "\u56fd\u571f\u6570\u5024\u60c5\u5831(\u6cb3\u5ddd\u30c7\u30fc\u30bf)\u5e73\u621018\u5e74\u56fd\u571f\u4ea4\u901a\u7701", "operator": "\u56fd\u7acb\u75c5\u9662\u6a5f\u69cb", "source": "MLIT Japan", "source_ref": "http://nlftp.mlit.go.jp/ksj/jpgis/datalist/KsjTmplt-P02-v2_0.html"}}, {"type": "node", "id": 1068008951, "lat": 26.328917, "lon": 127.810876, "tags": {"KSJ2:AAC": "47211", "KSJ2:AAC_V": "\u6c96\u7e04\u770c\u6c96\u7e04\u5e02", "KSJ2:APF": "4", "KSJ2:APF_V": "\u6c11\u9593", "KSJ2:PCA": "17", "KSJ2:PCA_V": "\u75c5\u9662", "KSJ2:PCI": "17002", "KSJ2:PCI_V": "\u7cbe\u795e\u75c5\u9662", "KSJ2:RCN": "\u6570\u5024\u5730\u56f3\u753b\u50cf", "addr:street": "\u5b89\u6176\u75304-10-3", "amenity": "hospital", "name": "\u65b0\u57a3\u75c5\u9662", "name:en": "Arakaki Hospital", "name:ja": "\u65b0\u57a3\u75c5\u9662", "note": "National-Land Numerical Information 2006, MLIT Japan", "note:ja": "\u56fd\u571f\u6570\u5024\u60c5\u5831(\u6cb3\u5ddd\u30c7\u30fc\u30bf)\u5e73\u621018\u5e74\u56fd\u571f\u4ea4\u901a\u7701", "operator": "\u536f\u306e\u4f1a", "source": "MLIT Japan", "source_ref": "http://nlftp.mlit.go.jp/ksj/jpgis/datalist/KsjTmplt-P02-v2_0.html"}}, {"type": "node", "id": 1068009224, "lat": 26.14836, "lon": 127.688159, "tags": {"KSJ2:AAC": "47210", "KSJ2:AAC_V": "\u6c96\u7e04\u770c\u7cf8\u6e80\u5e02", "KSJ2:APF": "4", "KSJ2:APF_V": "\u6c11\u9593", "KSJ2:PCA": "17", "KSJ2:PCA_V": "\u75c5\u9662", "KSJ2:PCI": "17001", "KSJ2:PCI_V": "\u4e00\u822c\u75c5\u9662\u3001\u56fd\u7acb\u7642\u990a\u6240\u3001\u533b\u7642\u30bb\u30f3\u30bf\u30fc", "KSJ2:RCN": "\u6570\u5024\u5730\u56f3\u753b\u50cf", "addr:street": "\u5ea7\u6ce2371-1", "amenity": "hospital", "name": "\u897f\u5d0e\u7b2c\u4e8c\u75c5\u9662", "name:en": "Nishizaki Second Hospital", "name:ja": "\u897f\u5d0e\u7b2c\u4e8c\u75c5\u9662", "note": "National-Land Numerical Information 2006, MLIT Japan", "note:ja": "\u56fd\u571f\u6570\u5024\u60c5\u5831(\u6cb3\u5ddd\u30c7\u30fc\u30bf)\u5e73\u621018\u5e74\u56fd\u571f\u4ea4\u901a\u7701", "operator": "\u4ee5\u548c\u8cb4\u4f1a", "source": "MLIT Japan", "source_ref": "http://nlftp.mlit.go.jp/ksj/jpgis/datalist/KsjTmplt-P02-v2_0.html"}}, {"type": "node", "id": 1068009764, "lat": 24.859295, "lon": 125.3047, "tags": {"KSJ2:AAC": "47214", "KSJ2:APF": "1", "KSJ2:APF_V": "\u56fd", "KSJ2:PCA": "17", "KSJ2:PCA_V": "\u75c5\u9662", "KSJ2:PCI": "17001", "KSJ2:PCI_V": "\u4e00\u822c\u75c5\u9662\u3001\u56fd\u7acb\u7642\u990a\u6240\u3001\u533b\u7642\u30bb\u30f3\u30bf\u30fc", "KSJ2:RCN": "\u6570\u5024\u5730\u56f3", "addr:street": "\u5cf6\u5c3b888", "amenity": "hospital", "name": "\u56fd\u7acb\u7642\u990a\u6240\u5bae\u53e4\u5357\u975c\u5712", "name:ja": "\u56fd\u7acb\u7642\u990a\u6240\u5bae\u53e4\u5357\u975c\u5712", "note": "National-Land Numerical Information 2006, MLIT Japan", "note:ja": "\u56fd\u571f\u6570\u5024\u60c5\u5831(\u6cb3\u5ddd\u30c7\u30fc\u30bf)\u5e73\u621018\u5e74\u56fd\u571f\u4ea4\u901a\u7701", "source": "MLIT Japan", "source_ref": "http://nlftp.mlit.go.jp/ksj/jpgis/datalist/KsjTmplt-P02-v2_0.html", "wikidata": "Q4661146"}}, {"type": "node", "id": 1068010094, "lat": 26.2055813, "lon": 127.6966333, "tags": {"KSJ2:AAC": "47201", "KSJ2:AAC_V": "\u6c96\u7e04\u770c\u90a3\u8987\u5e02", "KSJ2:APF": "4", "KSJ2:APF_V": "\u6c11\u9593", "KSJ2:PCA": "17", "KSJ2:PCA_V": "\u75c5\u9662", "KSJ2:PCI": "17001", "KSJ2:PCI_V": "\u4e00\u822c\u75c5\u9662\u3001\u56fd\u7acb\u7642\u990a\u6240\u3001\u533b\u7642\u30bb\u30f3\u30bf\u30fc", "KSJ2:RCN": "\u6570\u5024\u5730\u56f3", "addr:street": "\u4e0e\u51001-26-6", "amenity": "hospital", "healthcare": "hospital", "name": "\u6c96\u7e04\u30bb\u30f3\u30c8\u30e9\u30eb\u75c5\u9662", "name:en": "Okinawa Central Hospital", "name:ja": "\u6c96\u7e04\u30bb\u30f3\u30c8\u30e9\u30eb\u75c5\u9662", "note": "National-Land Numerical Information 2006, MLIT Japan", "note:ja": "\u56fd\u571f\u6570\u5024\u60c5\u5831(\u6cb3\u5ddd\u30c7\u30fc\u30bf)\u5e73\u621018\u5e74\u56fd\u571f\u4ea4\u901a\u7701", "operator": "\u5bff\u4ec1\u4f1a", "source": "MLIT Japan", "source_ref": "http://nlftp.mlit.go.jp/ksj/jpgis/datalist/KsjTmplt-P02-v2_0.html"}}, {"type": "node", "id": 1068010290, "lat": 26.209783, "lon": 127.728944, "tags": {"KSJ2:AAC": "47350", "KSJ2:AAC_V": "\u6c96\u7e04\u770c\u5cf6\u5c3b\u90e1\u5357\u98a8\u539f\u753a", "KSJ2:APF": "4", "KSJ2:APF_V": "\u6c11\u9593", "KSJ2:PCA": "17", "KSJ2:PCA_V": "\u75c5\u9662", "KSJ2:PCI": "17001", "KSJ2:PCI_V": "\u4e00\u822c\u75c5\u9662\u3001\u56fd\u7acb\u7642\u990a\u6240\u3001\u533b\u7642\u30bb\u30f3\u30bf\u30fc", "KSJ2:RCN": "\u6570\u5024\u5730\u56f3", "addr:street": "\u65b0\u5ddd460", "amenity": "hospital", "name": "\u5b09\u91ce\u304c\u4e18\u30b5\u30de\u30ea\u30e4\u4eba\u75c5\u9662", "name:ja": "\u5b09\u91ce\u304c\u4e18\u30b5\u30de\u30ea\u30e4\u4eba\u75c5\u9662", "note": "National-Land Numerical Information 2006, MLIT Japan", "note:ja": "\u56fd\u571f\u6570\u5024\u60c5\u5831(\u6cb3\u5ddd\u30c7\u30fc\u30bf)\u5e73\u621018\u5e74\u56fd\u571f\u4ea4\u901a\u7701", "operator": "\u8f14\u4ec1\u4f1a", "source": "MLIT Japan", "source_ref": "http://nlftp.mlit.go.jp/ksj/jpgis/datalist/KsjTmplt-P02-v2_0.html"}}, {"type": "node", "id": 1068010532, "lat": 26.2600882, "lon": 127.7276135, "tags": {"KSJ2:AAC": "47208", "KSJ2:AAC_V": "\u6c96\u7e04\u770c\u6d66\u6dfb\u5e02", "KSJ2:APF": "4", "KSJ2:APF_V": "\u6c11\u9593", "KSJ2:PCA": "17", "KSJ2:PCA_V": "\u75c5\u9662", "KSJ2:PCI": "17001", "KSJ2:PCI_V": "\u4e00\u822c\u75c5\u9662\u3001\u56fd\u7acb\u7642\u990a\u6240\u3001\u533b\u7642\u30bb\u30f3\u30bf\u30fc", "KSJ2:RCN": "\u6570\u5024\u5730\u56f3\u753b\u50cf", "addr:street": "\u770c\u9053153\u53f7", "amenity": "hospital", "healthcare": "hospital", "name": "\u5dba\u4e95\u30ea\u30cf\u30d3\u30ea\u75c5\u9662", "name:en": "Minei Rehabilitation Hospital", "name:ja": "\u5dba\u4e95\u30ea\u30cf\u30d3\u30ea\u75c5\u9662", "note": "National-Land Numerical Information 2006, MLIT Japan", "note:ja": "\u56fd\u571f\u6570\u5024\u60c5\u5831(\u6cb3\u5ddd\u30c7\u30fc\u30bf)\u5e73\u621018\u5e74\u56fd\u571f\u4ea4\u901a\u7701", "operator": "\u5927\u5e73\u4f1a", "source": "MLIT Japan", "source_ref": "http://nlftp.mlit.go.jp/ksj/jpgis/datalist/KsjTmplt-P02-v2_0.html", "website": "https://ohirakai.or.jp/rehabiri/"}}, {"type": "node", "id": 1068011049, "lat": 26.335774, "lon": 127.802766, "tags": {"KSJ2:AAC": "47211", "KSJ2:AAC_V": "\u6c96\u7e04\u770c\u6c96\u7e04\u5e02", "KSJ2:APF": "4", "KSJ2:APF_V": "\u6c11\u9593", "KSJ2:PCA": "17", "KSJ2:PCA_V": "\u75c5\u9662", "KSJ2:PCI": "17001", "KSJ2:PCI_V": "\u4e00\u822c\u75c5\u9662\u3001\u56fd\u7acb\u7642\u990a\u6240\u3001\u533b\u7642\u30bb\u30f3\u30bf\u30fc", "KSJ2:RCN": "\u6570\u5024\u5730\u56f3", "addr:street": "\u80e1\u5c4b1-17-1", "amenity": "hospital", "name": "\u5fc3\u548c\u4f1a\u6f6e\u5e73\u75c5\u9662", "name:ja": "\u5fc3\u548c\u4f1a\u6f6e\u5e73\u75c5\u9662", "note": "National-Land Numerical Information 2006, MLIT Japan", "note:ja": "\u56fd\u571f\u6570\u5024\u60c5\u5831(\u6cb3\u5ddd\u30c7\u30fc\u30bf)\u5e73\u621018\u5e74\u56fd\u571f\u4ea4\u901a\u7701", "source": "MLIT Japan", "source_ref": "http://nlftp.mlit.go.jp/ksj/jpgis/datalist/KsjTmplt-P02-v2_0.html"}}, {"type": "node", "id": 1068011589, "lat": 26.3292474, "lon": 127.7726463, "tags": {"KSJ2:AAC": "47326", "KSJ2:AAC_V": "\u6c96\u7e04\u770c\u4e2d\u982d\u90e1\u5317\u8c37\u753a", "KSJ2:APF": "4", "KSJ2:APF_V": "\u6c11\u9593", "KSJ2:PCA": "17", "KSJ2:PCA_V": "\u75c5\u9662", "KSJ2:PCI": "17001", "KSJ2:PCI_V": "\u4e00\u822c\u75c5\u9662\u3001\u56fd\u7acb\u7642\u990a\u6240\u3001\u533b\u7642\u30bb\u30f3\u30bf\u30fc", "KSJ2:RCN": "\u6570\u5024\u5730\u56f3", "addr:street": "\u5b57\u4e0a\u52e2\u982d631-9", "amenity": "hospital", "healthcare": "hospital", "name": "\u30bb\u30f3\u30c0\u30f3\u5317\u4e0a\u4e2d\u592e\u75c5\u9662", "name:ja": "\u30bb\u30f3\u30c0\u30f3\u5317\u4e0a\u4e2d\u592e\u75c5\u9662", "note": "National-Land Numerical Information 2006, MLIT Japan", "note:ja": "\u56fd\u571f\u6570\u5024\u60c5\u5831(\u6cb3\u5ddd\u30c7\u30fc\u30bf)\u5e73\u621018\u5e74\u56fd\u571f\u4ea4\u901a\u7701", "source": "MLIT Japan", "source_ref": "http://nlftp.mlit.go.jp/ksj/jpgis/datalist/KsjTmplt-P02-v2_0.html"}}, {"type": "node", "id": 1068012181, "lat": 26.151705, "lon": 127.691757, "tags": {"KSJ2:AAC": "47210", "KSJ2:AAC_V": "\u6c96\u7e04\u770c\u7cf8\u6e80\u5e02", "KSJ2:APF": "4", "KSJ2:APF_V": "\u6c11\u9593", "KSJ2:PCA": "17", "KSJ2:PCA_V": "\u75c5\u9662", "KSJ2:PCI": "17002", "KSJ2:PCI_V": "\u7cbe\u795e\u75c5\u9662", "KSJ2:RCN": "\u6570\u5024\u5730\u56f3", "addr:street": "\u5b57\u8cc0\u6570406-1", "amenity": "hospital", "name": "\u5357\u5c71\u75c5\u9662", "name:en": "Nanzan Hospital", "name:ja": "\u5357\u5c71\u75c5\u9662", "note": "National-Land Numerical Information 2006, MLIT Japan", "note:ja": "\u56fd\u571f\u6570\u5024\u60c5\u5831(\u6cb3\u5ddd\u30c7\u30fc\u30bf)\u5e73\u621018\u5e74\u56fd\u571f\u4ea4\u901a\u7701", "operator": "\u967d\u548c\u4f1a", "source": "MLIT Japan", "source_ref": "http://nlftp.mlit.go.jp/ksj/jpgis/datalist/KsjTmplt-P02-v2_0.html"}}, {"type": "node", "id": 1068013103, "lat": 24.78876, "lon": 125.279385, "tags": {"KSJ2:AAC": "47214", "KSJ2:APF": "4", "KSJ2:APF_V": "\u6c11\u9593", "KSJ2:PCA": "17", "KSJ2:PCA_V": "\u75c5\u9662", "KSJ2:PCI": "17001", "KSJ2:PCI_V": "\u4e00\u822c\u75c5\u9662\u3001\u56fd\u7acb\u7642\u990a\u6240\u3001\u533b\u7642\u30bb\u30f3\u30bf\u30fc", "KSJ2:RCN": "\u6570\u5024\u5730\u56f3\u753b\u50cf", "addr:street": "\u5b57\u677e\u539f552-1", "amenity": "hospital", "healthcare": "hospital", "name": "\u5bae\u53e4\u5cf6\u5fb3\u6d32\u4f1a\u75c5\u9662", "name:en": "Miyakojima Tokusyukai Hospital", "name:ja": "\u5bae\u53e4\u5cf6\u5fb3\u6d32\u4f1a\u75c5\u9662", "note": "National-Land Numerical Information 2006, MLIT Japan", "note:ja": "\u56fd\u571f\u6570\u5024\u60c5\u5831(\u6cb3\u5ddd\u30c7\u30fc\u30bf)\u5e73\u621018\u5e74\u56fd\u571f\u4ea4\u901a\u7701", "source": "MLIT Japan", "source_ref": "http://nlftp.mlit.go.jp/ksj/jpgis/datalist/KsjTmplt-P02-v2_0.html"}}, {"type": "node", "id": 1068013714, "lat": 26.254891, "lon": 127.7233758, "tags": {"KSJ2:AAC": "47208", "KSJ2:AAC_V": "\u6c96\u7e04\u770c\u6d66\u6dfb\u5e02", "KSJ2:APF": "4", "KSJ2:APF_V": "\u6c11\u9593", "KSJ2:PCA": "17", "KSJ2:PCA_V": "\u75c5\u9662", "KSJ2:PCI": "17001", "KSJ2:PCI_V": "\u4e00\u822c\u75c5\u9662\u3001\u56fd\u7acb\u7642\u990a\u6240\u3001\u533b\u7642\u30bb\u30f3\u30bf\u30fc", "KSJ2:RCN": "\u6570\u5024\u5730\u56f3", "addr:street": "\u56fd\u9053330\u53f7", "amenity": "hospital", "name": "\u6d66\u6dfb\u7dcf\u5408\u75c5\u9662", "name:en": "Urasoe general Hospital", "name:ja": "\u6d66\u6dfb\u7dcf\u5408\u75c5\u9662", "note": "National-Land Numerical Information 2006, MLIT Japan", "note:ja": "\u56fd\u571f\u6570\u5024\u60c5\u5831(\u6cb3\u5ddd\u30c7\u30fc\u30bf)\u5e73\u621018\u5e74\u56fd\u571f\u4ea4\u901a\u7701", "operator": "\u4ec1\u611b\u4f1a", "source": "MLIT Japan", "source_ref": "http://nlftp.mlit.go.jp/ksj/jpgis/datalist/KsjTmplt-P02-v2_0.html", "wikidata": "Q22130232"}}, {"type": "node", "id": 1068014334, "lat": 26.327305, "lon": 127.782032, "tags": {"KSJ2:AAC": "47211", "KSJ2:AAC_V": "\u6c96\u7e04\u770c\u6c96\u7e04\u5e02", "KSJ2:APF": "4", "KSJ2:APF_V": "\u6c11\u9593", "KSJ2:PCA": "17", "KSJ2:PCA_V": "\u75c5\u9662", "KSJ2:PCI": "17001", "KSJ2:PCI_V": "\u4e00\u822c\u75c5\u9662\u3001\u56fd\u7acb\u7642\u990a\u6240\u3001\u533b\u7642\u30bb\u30f3\u30bf\u30fc", "KSJ2:RCN": "\u6570\u5024\u5730\u56f3\u753b\u50cf", "addr:street": "\u5c71\u51853-14-28", "amenity": "hospital", "name": "\u697d\u751f\u4f1a\u30b3\u30b6\u75c5\u9662", "name:ja": "\u697d\u751f\u4f1a\u30b3\u30b6\u75c5\u9662", "note": "National-Land Numerical Information 2006, MLIT Japan", "note:ja": "\u56fd\u571f\u6570\u5024\u60c5\u5831(\u6cb3\u5ddd\u30c7\u30fc\u30bf)\u5e73\u621018\u5e74\u56fd\u571f\u4ea4\u901a\u7701", "source": "MLIT Japan", "source_ref": "http://nlftp.mlit.go.jp/ksj/jpgis/datalist/KsjTmplt-P02-v2_0.html"}}, {"type": "node", "id": 1068014967, "lat": 26.3670638, "lon": 127.7550941, "tags": {"KSJ2:AAC": "47325", "KSJ2:AAC_V": "\u6c96\u7e04\u770c\u4e2d\u982d\u90e1\u5609\u624b\u7d0d\u753a", "KSJ2:APF": "4", "KSJ2:APF_V": "\u6c11\u9593", "KSJ2:PCA": "17", "KSJ2:PCA_V": "\u75c5\u9662", "KSJ2:PCI": "17001", "KSJ2:PCI_V": "\u4e00\u822c\u75c5\u9662\u3001\u56fd\u7acb\u7642\u990a\u6240\u3001\u533b\u7642\u30bb\u30f3\u30bf\u30fc", "KSJ2:RCN": "\u6570\u5024\u5730\u56f3", "addr:street": "\u5b57\u5609\u624b\u7d0d258", "amenity": "hospital", "name": "\u4ec1\u8aa0\u4f1a\u540d\u5609\u75c5\u9662", "name:ja": "\u4ec1\u8aa0\u4f1a\u540d\u5609\u75c5\u9662", "note": "National-Land Numerical Information 2006, MLIT Japan", "note:ja": "\u56fd\u571f\u6570\u5024\u60c5\u5831(\u6cb3\u5ddd\u30c7\u30fc\u30bf)\u5e73\u621018\u5e74\u56fd\u571f\u4ea4\u901a\u7701", "source": "MLIT Japan", "source_ref": "http://nlftp.mlit.go.jp/ksj/jpgis/datalist/KsjTmplt-P02-v2_0.html"}}, {"type": "node", "id": 1068015170, "lat": 26.2177899, "lon": 127.698031, "tags": {"KSJ2:AAC": "47201", "KSJ2:AAC_V": "\u6c96\u7e04\u770c\u90a3\u8987\u5e02", "KSJ2:APF": "4", "KSJ2:APF_V": "\u6c11\u9593", "KSJ2:PCA": "17", "KSJ2:PCA_V": "\u75c5\u9662", "KSJ2:PCI": "17001", "KSJ2:PCI_V": "\u4e00\u822c\u75c5\u9662\u3001\u56fd\u7acb\u7642\u990a\u6240\u3001\u533b\u7642\u30bb\u30f3\u30bf\u30fc", "KSJ2:RCN": "\u6570\u5024\u5730\u56f3", "addr:street": "\u5927\u9053127", "amenity": "hospital", "healthcare": "hospital", "name": "\u5927\u9053\u4e2d\u592e\u75c5\u9662", "name:en": "Daido Central Hospital", "name:ja": "\u5927\u9053\u4e2d\u592e\u75c5\u9662", "note": "National-Land Numerical Information 2006, MLIT Japan", "note:ja": "\u56fd\u571f\u6570\u5024\u60c5\u5831(\u6cb3\u5ddd\u30c7\u30fc\u30bf)\u5e73\u621018\u5e74\u56fd\u571f\u4ea4\u901a\u7701", "operator": "\u967d\u5fc3\u4f1a", "source": "MLIT Japan", "source_ref": "http://nlftp.mlit.go.jp/ksj/jpgis/datalist/KsjTmplt-P02-v2_0.html"}}, {"type": "node", "id": 1068015328, "lat": 26.098876, "lon": 127.7077, "tags": {"KSJ2:AAC": "47210", "KSJ2:AAC_V": "\u6c96\u7e04\u770c\u7cf8\u6e80\u5e02", "KSJ2:APF": "4", "KSJ2:APF_V": "\u6c11\u9593", "KSJ2:PCA": "17", "KSJ2:PCA_V": "\u75c5\u9662", "KSJ2:PCI": "17002", "KSJ2:PCI_V": "\u7cbe\u795e\u75c5\u9662", "KSJ2:RCN": "\u6570\u5024\u5730\u56f3", "addr:street": "\u5b57\u5927\u5ea6520", "amenity": "hospital", "name": "\u7cf8\u6e80\u6674\u660e\u75c5\u9662", "name:ja": "\u7cf8\u6e80\u6674\u660e\u75c5\u9662", "note": "National-Land Numerical Information 2006, MLIT Japan", "note:ja": "\u56fd\u571f\u6570\u5024\u60c5\u5831(\u6cb3\u5ddd\u30c7\u30fc\u30bf)\u5e73\u621018\u5e74\u56fd\u571f\u4ea4\u901a\u7701", "operator": "\u6674\u660e\u4f1a", "source": "MLIT Japan", "source_ref": "http://nlftp.mlit.go.jp/ksj/jpgis/datalist/KsjTmplt-P02-v2_0.html"}}, {"type": "node", "id": 1068015596, "lat": 26.607892, "lon": 127.964411, "tags": {"KSJ2:AAC": "47209", "KSJ2:AAC_V": "\u6c96\u7e04\u770c\u540d\u8b77\u5e02", "KSJ2:APF": "4", "KSJ2:APF_V": "\u6c11\u9593", "KSJ2:PCA": "17", "KSJ2:PCA_V": "\u75c5\u9662", "KSJ2:PCI": "17001", "KSJ2:PCI_V": "\u4e00\u822c\u75c5\u9662\u3001\u56fd\u7acb\u7642\u990a\u6240\u3001\u533b\u7642\u30bb\u30f3\u30bf\u30fc", "KSJ2:RCN": "\u6570\u5024\u5730\u56f3", "addr:street": "\u5b57\u5b87\u8302\u4f501765", "amenity": "hospital", "name": "\u4e94\u548c\u4f1a\u540d\u8b77\u7642\u80b2\u5712", "name:ja": "\u4e94\u548c\u4f1a\u540d\u8b77\u7642\u80b2\u5712", "note": "National-Land Numerical Information 2006, MLIT Japan", "note:ja": "\u56fd\u571f\u6570\u5024\u60c5\u5831(\u6cb3\u5ddd\u30c7\u30fc\u30bf)\u5e73\u621018\u5e74\u56fd\u571f\u4ea4\u901a\u7701", "source": "MLIT Japan", "source_ref": "http://nlftp.mlit.go.jp/ksj/jpgis/datalist/KsjTmplt-P02-v2_0.html"}}, {"type": "node", "id": 1068016647, "lat": 26.230142, "lon": 127.734526, "tags": {"KSJ2:AAC": "47201", "KSJ2:AAC_V": "\u6c96\u7e04\u770c\u90a3\u8987\u5e02", "KSJ2:APF": "4", "KSJ2:APF_V": "\u6c11\u9593", "KSJ2:PCA": "17", "KSJ2:PCA_V": "\u75c5\u9662", "KSJ2:PCI": "17001", "KSJ2:PCI_V": "\u4e00\u822c\u75c5\u9662\u3001\u56fd\u7acb\u7642\u990a\u6240\u3001\u533b\u7642\u30bb\u30f3\u30bf\u30fc", "KSJ2:RCN": "\u6570\u5024\u5730\u56f3", "addr:street": "\u9996\u91cc\u77f3\u5dba\u753a4-356", "amenity": "hospital", "name": "\u30aa\u30ea\u30d6\u5c71\u75c5\u9662", "name:en": "Oribuyama Hospital", "name:ja": "\u30aa\u30ea\u30d6\u5c71\u75c5\u9662", "note": "National-Land Numerical Information 2006, MLIT Japan", "note:ja": "\u56fd\u571f\u6570\u5024\u60c5\u5831(\u6cb3\u5ddd\u30c7\u30fc\u30bf)\u5e73\u621018\u5e74\u56fd\u571f\u4ea4\u901a\u7701", "operator": "\u8466\u306e\u4f1a", "source": "MLIT Japan", "source_ref": "http://nlftp.mlit.go.jp/ksj/jpgis/datalist/KsjTmplt-P02-v2_0.html"}}, {"type": "node", "id": 1068016948, "lat": 26.2027337, "lon": 127.7484653, "tags": {"KSJ2:AAC": "47348", "KSJ2:AAC_V": "\u6c96\u7e04\u770c\u5cf6\u5c3b\u90e1\u4e0e\u90a3\u539f\u753a", "KSJ2:APF": "4", "KSJ2:APF_V": "\u6c11\u9593", "KSJ2:PCA": "17", "KSJ2:PCA_V": "\u75c5\u9662", "KSJ2:PCI": "17001", "KSJ2:PCI_V": "\u4e00\u822c\u75c5\u9662\u3001\u56fd\u7acb\u7642\u990a\u6240\u3001\u533b\u7642\u30bb\u30f3\u30bf\u30fc", "KSJ2:RCN": "\u6570\u5024\u5730\u56f3", "addr:street": "\u5357\u98a8\u539f\u4e0e\u90a3\u539f\u7dda", "amenity": "hospital", "healthcare": "hospital", "name": "\u4e0e\u90a3\u539f\u4e2d\u592e\u75c5\u9662", "name:en": "Yonabaru Central Hospital", "name:ja": "\u4e0e\u90a3\u539f\u4e2d\u592e\u75c5\u9662", "note": "National-Land Numerical Information 2006, MLIT Japan", "note:ja": "\u56fd\u571f\u6570\u5024\u60c5\u5831(\u6cb3\u5ddd\u30c7\u30fc\u30bf)\u5e73\u621018\u5e74\u56fd\u571f\u4ea4\u901a\u7701", "operator": "\u548c\u306e\u4f1a", "source": "MLIT Japan", "source_ref": "http://nlftp.mlit.go.jp/ksj/jpgis/datalist/KsjTmplt-P02-v2_0.html"}}, {"type": "node", "id": 1068017537, "lat": 26.209756, "lon": 127.731999, "tags": {"KSJ2:AAC": "47350", "KSJ2:AAC_V": "\u6c96\u7e04\u770c\u5cf6\u5c3b\u90e1\u5357\u98a8\u539f\u753a", "KSJ2:APF": "4", "KSJ2:APF_V": "\u6c11\u9593", "KSJ2:PCA": "17", "KSJ2:PCA_V": "\u75c5\u9662", "KSJ2:PCI": "17002", "KSJ2:PCI_V": "\u7cbe\u795e\u75c5\u9662", "KSJ2:RCN": "\u6570\u5024\u5730\u56f3", "addr:street": "\u5b57\u5927\u540d275", "amenity": "hospital", "name": "\u4e45\u7530\u75c5\u9662", "name:ja": "\u4e45\u7530\u75c5\u9662", "note": "National-Land Numerical Information 2006, MLIT Japan", "note:ja": "\u56fd\u571f\u6570\u5024\u60c5\u5831(\u6cb3\u5ddd\u30c7\u30fc\u30bf)\u5e73\u621018\u5e74\u56fd\u571f\u4ea4\u901a\u7701", "operator": "\u6b63\u6e05\u4f1a", "source": "MLIT Japan", "source_ref": "http://nlftp.mlit.go.jp/ksj/jpgis/datalist/KsjTmplt-P02-v2_0.html"}}, {"type": "node", "id": 1068017918, "lat": 26.312582, "lon": 127.819099, "tags": {"KSJ2:AAC": "47211", "KSJ2:AAC_V": "\u6c96\u7e04\u770c\u6c96\u7e04\u5e02", "KSJ2:APF": "4", "KSJ2:APF_V": "\u6c11\u9593", "KSJ2:PCA": "17", "KSJ2:PCA_V": "\u75c5\u9662", "KSJ2:PCI": "17001", "KSJ2:PCI_V": "\u4e00\u822c\u75c5\u9662\u3001\u56fd\u7acb\u7642\u990a\u6240\u3001\u533b\u7642\u30bb\u30f3\u30bf\u30fc", "KSJ2:RCN": "\u6570\u5024\u5730\u56f3", "addr:street": "\u6bd4\u5c4b\u6839629", "amenity": "hospital", "name": "\u6c96\u7e04\u80a2\u4f53\u4e0d\u81ea\u7531\u5150\u5354\u4f1a\u6c96\u7e04\u5c0f\u5150\u767a\u9054\u30bb\u30f3\u30bf\u30fc", "name:ja": "\u6c96\u7e04\u80a2\u4f53\u4e0d\u81ea\u7531\u5150\u5354\u4f1a\u6c96\u7e04\u5c0f\u5150\u767a\u9054\u30bb\u30f3\u30bf\u30fc", "note": "National-Land Numerical Information 2006, MLIT Japan", "note:ja": "\u56fd\u571f\u6570\u5024\u60c5\u5831(\u6cb3\u5ddd\u30c7\u30fc\u30bf)\u5e73\u621018\u5e74\u56fd\u571f\u4ea4\u901a\u7701", "source": "MLIT Japan", "source_ref": "http://nlftp.mlit.go.jp/ksj/jpgis/datalist/KsjTmplt-P02-v2_0.html"}}, {"type": "node", "id": 1068018495, "lat": 26.475042, "lon": 127.962637, "tags": {"KSJ2:AAC": "47313", "KSJ2:AAC_V": "\u6c96\u7e04\u770c\u56fd\u982d\u90e1\u5b9c\u91ce\u5ea7\u6751", "KSJ2:APF": "4", "KSJ2:APF_V": "\u6c11\u9593", "KSJ2:PCA": "17", "KSJ2:PCA_V": "\u75c5\u9662", "KSJ2:PCI": "17001", "KSJ2:PCI_V": "\u4e00\u822c\u75c5\u9662\u3001\u56fd\u7acb\u7642\u990a\u6240\u3001\u533b\u7642\u30bb\u30f3\u30bf\u30fc", "KSJ2:RCN": "\u6570\u5024\u5730\u56f3", "addr:street": "\u5b57\u6f22\u90a3469", "amenity": "hospital", "name": "\u307b\u304f\u3068\u4f1a\u5317\u90e8\u75c5\u9662", "name:en": "Hokutokai Hokubu Hospital", "name:ja": "\u307b\u304f\u3068\u4f1a\u5317\u90e8\u75c5\u9662", "note": "National-Land Numerical Information 2006, MLIT Japan", "note:ja": "\u56fd\u571f\u6570\u5024\u60c5\u5831(\u6cb3\u5ddd\u30c7\u30fc\u30bf)\u5e73\u621018\u5e74\u56fd\u571f\u4ea4\u901a\u7701", "source": "MLIT Japan", "source_ref": "http://nlftp.mlit.go.jp/ksj/jpgis/datalist/KsjTmplt-P02-v2_0.html"}}, {"type": "node", "id": 1068019128, "lat": 26.265029, "lon": 127.768383, "tags": {"KSJ2:AAC": "47205", "KSJ2:AAC_V": "\u6c96\u7e04\u770c\u5b9c\u91ce\u6e7e\u5e02", "KSJ2:APF": "4", "KSJ2:APF_V": "\u6c11\u9593", "KSJ2:PCA": "17", "KSJ2:PCA_V": "\u75c5\u9662", "KSJ2:PCI": "17002", "KSJ2:PCI_V": "\u7cbe\u795e\u75c5\u9662", "KSJ2:RCN": "\u6570\u5024\u5730\u56f3", "addr:street": "\u5b57\u611b\u77e5252", "amenity": "hospital", "name": "\u7389\u6728\u75c5\u9662", "name:en": "Tamaki Hospital", "name:ja": "\u7389\u6728\u75c5\u9662", "note": "National-Land Numerical Information 2006, MLIT Japan", "note:ja": "\u56fd\u571f\u6570\u5024\u60c5\u5831(\u6cb3\u5ddd\u30c7\u30fc\u30bf)\u5e73\u621018\u5e74\u56fd\u571f\u4ea4\u901a\u7701", "source": "MLIT Japan", "source_ref": "http://nlftp.mlit.go.jp/ksj/jpgis/datalist/KsjTmplt-P02-v2_0.html"}}, {"type": "node", "id": 1068020331, "lat": 26.1760024, "lon": 127.6762023, "tags": {"KSJ2:AAC": "47212", "KSJ2:AAC_V": "\u6c96\u7e04\u770c\u8c4a\u898b\u57ce\u5e02", "KSJ2:APF": "4", "KSJ2:APF_V": "\u6c11\u9593", "KSJ2:PCA": "17", "KSJ2:PCA_V": "\u75c5\u9662", "KSJ2:PCI": "17001", "KSJ2:PCI_V": "\u4e00\u822c\u75c5\u9662\u3001\u56fd\u7acb\u7642\u990a\u6240\u3001\u533b\u7642\u30bb\u30f3\u30bf\u30fc", "KSJ2:RCN": "\u6570\u5024\u5730\u56f3", "addr:street": "\u5b57\u4e0a\u753025", "amenity": "hospital", "name": "\u8c4a\u898b\u57ce\u4e2d\u592e\u75c5\u9662", "name:en": "Tomigusuku Central Hospital", "name:ja": "\u8c4a\u898b\u57ce\u4e2d\u592e\u75c5\u9662", "note": "National-Land Numerical Information 2006, MLIT Japan", "note:ja": "\u56fd\u571f\u6570\u5024\u60c5\u5831(\u6cb3\u5ddd\u30c7\u30fc\u30bf)\u5e73\u621018\u5e74\u56fd\u571f\u4ea4\u901a\u7701", "operator": "\u53cb\u611b\u4f1a", "source": "MLIT Japan", "source_ref": "http://nlftp.mlit.go.jp/ksj/jpgis/datalist/KsjTmplt-P02-v2_0.html", "wikidata": "Q30260808"}}, {"type": "node", "id": 1068021700, "lat": 24.3605587, "lon": 124.1414955, "tags": {"addr:street": "\u5b57\u65b0\u5ddd2124", "amenity": "hospital", "name": "\u4e0a\u5584\u4f1a\u304b\u308a\u3086\u3057\u75c5\u9662", "name:ja": "\u4e0a\u5584\u4f1a\u304b\u308a\u3086\u3057\u75c5\u9662", "source": "MLIT Japan"}}, {"type": "node", "id": 1068024033, "lat": 26.231335, "lon": 127.683779, "tags": {"KSJ2:AAC": "47201", "KSJ2:AAC_V": "\u6c96\u7e04\u770c\u90a3\u8987\u5e02", "KSJ2:APF": "4", "KSJ2:APF_V": "\u6c11\u9593", "KSJ2:PCA": "17", "KSJ2:PCA_V": "\u75c5\u9662", "KSJ2:PCI": "17002", "KSJ2:PCI_V": "\u7cbe\u795e\u75c5\u9662", "KSJ2:RCN": "\u6570\u5024\u5730\u56f3", "addr:street": "\u5929\u4e451123", "amenity": "hospital", "name": "\u5929\u4e45\u53f0\u75c5\u9662", "name:en": "Amekudai Hospital", "name:ja": "\u5929\u4e45\u53f0\u75c5\u9662", "note": "National-Land Numerical Information 2006, MLIT Japan", "note:ja": "\u56fd\u571f\u6570\u5024\u60c5\u5831(\u6cb3\u5ddd\u30c7\u30fc\u30bf)\u5e73\u621018\u5e74\u56fd\u571f\u4ea4\u901a\u7701", "operator": "\u5929\u4ec1\u4f1a", "source": "MLIT Japan", "source_ref": "http://nlftp.mlit.go.jp/ksj/jpgis/datalist/KsjTmplt-P02-v2_0.html"}}, {"type": "node", "id": 1068025373, "lat": 26.172648, "lon": 127.683757, "tags": {"KSJ2:AAC": "47212", "KSJ2:AAC_V": "\u6c96\u7e04\u770c\u8c4a\u898b\u57ce\u5e02", "KSJ2:APF": "4", "KSJ2:APF_V": "\u6c11\u9593", "KSJ2:PCA": "17", "KSJ2:PCA_V": "\u75c5\u9662", "KSJ2:PCI": "17001", "KSJ2:PCI_V": "\u4e00\u822c\u75c5\u9662\u3001\u56fd\u7acb\u7642\u990a\u6240\u3001\u533b\u7642\u30bb\u30f3\u30bf\u30fc", "KSJ2:RCN": "\u6570\u5024\u5730\u56f3", "addr:street": "\u5b57\u6e21\u5609\u6577150", "amenity": "hospital", "name": "\u5927\u6d5c\u7b2c\u4e8c\u75c5\u9662", "name:en": "Ohama Second Hospital", "name:ja": "\u5927\u6d5c\u7b2c\u4e8c\u75c5\u9662", "note": "National-Land Numerical Information 2006, MLIT Japan", "note:ja": "\u56fd\u571f\u6570\u5024\u60c5\u5831(\u6cb3\u5ddd\u30c7\u30fc\u30bf)\u5e73\u621018\u5e74\u56fd\u571f\u4ea4\u901a\u7701", "operator": "\u304a\u3082\u3068\u4f1a", "source": "MLIT Japan", "source_ref": "http://nlftp.mlit.go.jp/ksj/jpgis/datalist/KsjTmplt-P02-v2_0.html"}}, {"type": "node", "id": 1068025838, "lat": 26.21917, "lon": 127.693363, "tags": {"KSJ2:AAC": "47201", "KSJ2:AAC_V": "\u6c96\u7e04\u770c\u90a3\u8987\u5e02", "KSJ2:APF": "4", "KSJ2:APF_V": "\u6c11\u9593", "KSJ2:PCA": "17", "KSJ2:PCA_V": "\u75c5\u9662", "KSJ2:PCI": "17001", "KSJ2:PCI_V": "\u4e00\u822c\u75c5\u9662\u3001\u56fd\u7acb\u7642\u990a\u6240\u3001\u533b\u7642\u30bb\u30f3\u30bf\u30fc", "KSJ2:RCN": "\u6570\u5024\u5730\u56f3", "addr:street": "\u5b89\u91cc1-7-3", "amenity": "hospital", "name": "\u5927\u6d5c\u7b2c\u4e00\u75c5\u9662", "name:en": "Ohama first Hospital", "name:ja": "\u5927\u6d5c\u7b2c\u4e00\u75c5\u9662", "note": "National-Land Numerical Information 2006, MLIT Japan", "note:ja": "\u56fd\u571f\u6570\u5024\u60c5\u5831(\u6cb3\u5ddd\u30c7\u30fc\u30bf)\u5e73\u621018\u5e74\u56fd\u571f\u4ea4\u901a\u7701", "operator": "\u304a\u3082\u3068\u4f1a", "source": "MLIT Japan", "source_ref": "http://nlftp.mlit.go.jp/ksj/jpgis/datalist/KsjTmplt-P02-v2_0.html"}}, {"type": "node", "id": 1068026386, "lat": 26.2599579, "lon": 127.7583479, "tags": {"KSJ2:AAC": "47205", "KSJ2:AAC_V": "\u6c96\u7e04\u770c\u5b9c\u91ce\u6e7e\u5e02", "KSJ2:APF": "4", "KSJ2:APF_V": "\u6c11\u9593", "KSJ2:PCA": "17", "KSJ2:PCA_V": "\u75c5\u9662", "KSJ2:PCI": "17001", "KSJ2:PCI_V": "\u4e00\u822c\u75c5\u9662\u3001\u56fd\u7acb\u7642\u990a\u6240\u3001\u533b\u7642\u30bb\u30f3\u30bf\u30fc", "KSJ2:RCN": "\u6570\u5024\u5730\u56f3", "addr:street": "\u5b9c\u91ce\u6e7e3-3-13", "amenity": "hospital", "name": "\u5b9c\u91ce\u6e7e\u8a18\u5ff5\u75c5\u9662", "name:en": "Ginowan Memorial Hospital", "name:ja": "\u5b9c\u91ce\u6e7e\u8a18\u5ff5\u75c5\u9662", "note": "National-Land Numerical Information 2006, MLIT Japan", "note:ja": "\u56fd\u571f\u6570\u5024\u60c5\u5831(\u6cb3\u5ddd\u30c7\u30fc\u30bf)\u5e73\u621018\u5e74\u56fd\u571f\u4ea4\u901a\u7701", "operator": "\u7dd1\u6c34\u4f1a", "source": "MLIT Japan", "source_ref": "http://nlftp.mlit.go.jp/ksj/jpgis/datalist/KsjTmplt-P02-v2_0.html"}}, {"type": "node", "id": 1068026583, "lat": 26.396407, "lon": 127.840373, "tags": {"KSJ2:AAC": "47213", "KSJ2:APF": "4", "KSJ2:APF_V": "\u6c11\u9593", "KSJ2:PCA": "17", "KSJ2:PCA_V": "\u75c5\u9662", "KSJ2:PCI": "17002", "KSJ2:PCI_V": "\u7cbe\u795e\u75c5\u9662", "KSJ2:RCN": "\u6570\u5024\u5730\u56f3", "addr:street": "\u5b57\u6606\u5e031832-397", "amenity": "hospital", "name": "\u5177\u5fd7\u5ddd\u8a18\u5ff5\u75c5\u9662", "name:en": "Gushikawa Memorial Hospital", "name:ja": "\u5177\u5fd7\u5ddd\u8a18\u5ff5\u75c5\u9662", "note": "National-Land Numerical Information 2006, MLIT Japan", "note:ja": "\u56fd\u571f\u6570\u5024\u60c5\u5831(\u6cb3\u5ddd\u30c7\u30fc\u30bf)\u5e73\u621018\u5e74\u56fd\u571f\u4ea4\u901a\u7701", "source": "MLIT Japan", "source_ref": "http://nlftp.mlit.go.jp/ksj/jpgis/datalist/KsjTmplt-P02-v2_0.html"}}, {"type": "node", "id": 1068026845, "lat": 26.145455, "lon": 127.670202, "tags": {"KSJ2:AAC": "47210", "KSJ2:AAC_V": "\u6c96\u7e04\u770c\u7cf8\u6e80\u5e02", "KSJ2:APF": "4", "KSJ2:APF_V": "\u6c11\u9593", "KSJ2:PCA": "17", "KSJ2:PCA_V": "\u75c5\u9662", "KSJ2:PCI": "17001", "KSJ2:PCI_V": "\u4e00\u822c\u75c5\u9662\u3001\u56fd\u7acb\u7642\u990a\u6240\u3001\u533b\u7642\u30bb\u30f3\u30bf\u30fc", "KSJ2:RCN": "\u6570\u5024\u5730\u56f3", "addr:street": "\u897f\u5d0e\u753a3-379", "amenity": "hospital", "name": "\u897f\u5d0e\u75c5\u9662", "name:en": "Nishizaki Hospital", "name:ja": "\u897f\u5d0e\u75c5\u9662", "note": "National-Land Numerical Information 2006, MLIT Japan", "note:ja": "\u56fd\u571f\u6570\u5024\u60c5\u5831(\u6cb3\u5ddd\u30c7\u30fc\u30bf)\u5e73\u621018\u5e74\u56fd\u571f\u4ea4\u901a\u7701", "operator": "\u4ee5\u548c\u8cb4\u4f1a", "source": "MLIT Japan", "source_ref": "http://nlftp.mlit.go.jp/ksj/jpgis/datalist/KsjTmplt-P02-v2_0.html"}}, {"type": "node", "id": 1068027388, "lat": 24.769834, "lon": 125.342615, "tags": {"KSJ2:AAC": "47214", "KSJ2:APF": "4", "KSJ2:APF_V": "\u6c11\u9593", "KSJ2:PCA": "17", "KSJ2:PCA_V": "\u75c5\u9662", "KSJ2:PCI": "17001", "KSJ2:PCI_V": "\u4e00\u822c\u75c5\u9662\u3001\u56fd\u7acb\u7642\u990a\u6240\u3001\u533b\u7642\u30bb\u30f3\u30bf\u30fc", "KSJ2:RCN": "\u6570\u5024\u5730\u56f3", "addr:street": "\u5b57\u6771\u4ef2\u5b97\u6839\u6dfb1898-7", "amenity": "hospital", "name": "\u7950\u771f\u4f1a\u5bae\u53e4\u5cf6\u30ea\u30cf\u30d3\u30ea\u30c6\u30fc\u30b7\u30e7\u30f3\u75c5\u9662", "name:ja": "\u7950\u771f\u4f1a\u5bae\u53e4\u5cf6\u30ea\u30cf\u30d3\u30ea\u30c6\u30fc\u30b7\u30e7\u30f3\u75c5\u9662", "note": "National-Land Numerical Information 2006, MLIT Japan", "note:ja": "\u56fd\u571f\u6570\u5024\u60c5\u5831(\u6cb3\u5ddd\u30c7\u30fc\u30bf)\u5e73\u621018\u5e74\u56fd\u571f\u4ea4\u901a\u7701", "source": "MLIT Japan", "source_ref": "http://nlftp.mlit.go.jp/ksj/jpgis/datalist/KsjTmplt-P02-v2_0.html"}}, {"type": "node", "id": 1068028104, "lat": 26.3418967, "lon": 126.764627, "tags": {"KSJ2:AAC": "47361", "KSJ2:AAC_V": "\u6c96\u7e04\u770c\u5cf6\u5c3b\u90e1\u4e45\u7c73\u5cf6\u753a", "KSJ2:APF": "2", "KSJ2:APF_V": "\u90fd\u9053\u5e9c\u770c", "KSJ2:PCA": "17", "KSJ2:PCA_V": "\u75c5\u9662", "KSJ2:PCI": "17001", "KSJ2:PCI_V": "\u4e00\u822c\u75c5\u9662\u3001\u56fd\u7acb\u7642\u990a\u6240\u3001\u533b\u7642\u30bb\u30f3\u30bf\u30fc", "KSJ2:RCN": "\u6570\u5024\u5730\u56f3", "addr:street": "\u5b57\u5609\u624b\u82c5572-3", "amenity": "hospital", "emergency": "yes", "healthcare": "hospital", "name": "\u516c\u7acb\u4e45\u7c73\u5cf6\u75c5\u9662", "name:ja": "\u516c\u7acb\u4e45\u7c73\u5cf6\u75c5\u9662", "note": "National-Land Numerical Information 2006, MLIT Japan", "note:ja": "\u56fd\u571f\u6570\u5024\u60c5\u5831(\u6cb3\u5ddd\u30c7\u30fc\u30bf)\u5e73\u621018\u5e74\u56fd\u571f\u4ea4\u901a\u7701", "source": "MLIT Japan;survey;local knowledge", "source_ref": "http://nlftp.mlit.go.jp/ksj/jpgis/datalist/KsjTmplt-P02-v2_0.html"}}, {"type": "node", "id": 1068028359, "lat": 26.251891, "lon": 127.752857, "tags": {"KSJ2:AAC": "47208", "KSJ2:AAC_V": "\u6c96\u7e04\u770c\u6d66\u6dfb\u5e02", "KSJ2:APF": "4", "KSJ2:APF_V": "\u6c11\u9593", "KSJ2:PCA": "17", "KSJ2:PCA_V": "\u75c5\u9662", "KSJ2:PCI": "17001", "KSJ2:PCI_V": "\u4e00\u822c\u75c5\u9662\u3001\u56fd\u7acb\u7642\u990a\u6240\u3001\u533b\u7642\u30bb\u30f3\u30bf\u30fc", "KSJ2:RCN": "\u6570\u5024\u5730\u56f3", "addr:street": "\u5b57\u897f\u539f1840", "amenity": "hospital", "healthcare": "hospital", "name": "\u5dba\u4e95\u7b2c\u4e8c\u75c5\u9662", "name:en": "Minei Second Hospital", "name:ja": "\u5dba\u4e95\u7b2c\u4e8c\u75c5\u9662", "note": "National-Land Numerical Information 2006, MLIT Japan", "note:ja": "\u56fd\u571f\u6570\u5024\u60c5\u5831(\u6cb3\u5ddd\u30c7\u30fc\u30bf)\u5e73\u621018\u5e74\u56fd\u571f\u4ea4\u901a\u7701", "operator": "\u5927\u5e73\u4f1a", "source": "MLIT Japan", "source_ref": "http://nlftp.mlit.go.jp/ksj/jpgis/datalist/KsjTmplt-P02-v2_0.html"}}, {"type": "node", "id": 1068029052, "lat": 26.342329, "lon": 127.816848, "tags": {"KSJ2:AAC": "47211", "KSJ2:AAC_V": "\u6c96\u7e04\u770c\u6c96\u7e04\u5e02", "KSJ2:APF": "4", "KSJ2:APF_V": "\u6c11\u9593", "KSJ2:PCA": "17", "KSJ2:PCA_V": "\u75c5\u9662", "KSJ2:PCI": "17001", "KSJ2:PCI_V": "\u4e00\u822c\u75c5\u9662\u3001\u56fd\u7acb\u7642\u990a\u6240\u3001\u533b\u7642\u30bb\u30f3\u30bf\u30fc", "KSJ2:RCN": "\u6570\u5024\u5730\u56f3", "addr:housenumber": "\u6c96\u7e04\u770c\u6c96\u7e04\u5e02\u77e5\u82b16-25-5", "addr:postcode": "904-2143", "addr:street": "\u7f8e\u91cc1-31-15", "amenity": "hospital", "name": "\u4e2d\u90e8\u5354\u540c\u75c5\u9662", "name:en": "Chubu cooperative hospital", "name:ja": "\u4e2d\u90e8\u5354\u540c\u75c5\u9662", "note": "National-Land Numerical Information 2006, MLIT Japan", "note:ja": "\u56fd\u571f\u6570\u5024\u60c5\u5831(\u6cb3\u5ddd\u30c7\u30fc\u30bf)\u5e73\u621018\u5e74\u56fd\u571f\u4ea4\u901a\u7701", "phone": "098-938-8828", "source": "MLIT Japan", "source_ref": "http://nlftp.mlit.go.jp/ksj/jpgis/datalist/KsjTmplt-P02-v2_0.html", "website": "http://chu-kyo.jp"}}, {"type": "node", "id": 1068029669, "lat": 26.3296885, "lon": 127.7732087, "tags": {"KSJ2:AAC": "47326", "KSJ2:AAC_V": "\u6c96\u7e04\u770c\u4e2d\u982d\u90e1\u5317\u8c37\u753a", "KSJ2:APF": "4", "KSJ2:APF_V": "\u6c11\u9593", "KSJ2:PCA": "17", "KSJ2:PCA_V": "\u75c5\u9662", "KSJ2:PCI": "17001", "KSJ2:PCI_V": "\u4e00\u822c\u75c5\u9662\u3001\u56fd\u7acb\u7642\u990a\u6240\u3001\u533b\u7642\u30bb\u30f3\u30bf\u30fc", "KSJ2:RCN": "\u6570\u5024\u5730\u56f3", "addr:street": "\u4e0a\u52e2\u982d631-4", "amenity": "hospital", "name": "\u5317\u8c37\u75c5\u9662", "name:en": "Chatan Hospital", "name:ja": "\u5317\u8c37\u75c5\u9662", "note": "National-Land Numerical Information 2006, MLIT Japan", "note:ja": "\u56fd\u571f\u6570\u5024\u60c5\u5831(\u6cb3\u5ddd\u30c7\u30fc\u30bf)\u5e73\u621018\u5e74\u56fd\u571f\u4ea4\u901a\u7701", "source": "MLIT Japan", "source_ref": "http://nlftp.mlit.go.jp/ksj/jpgis/datalist/KsjTmplt-P02-v2_0.html"}}, {"type": "node", "id": 1068030259, "lat": 26.365132, "lon": 127.811182, "tags": {"KSJ2:AAC": "47211", "KSJ2:AAC_V": "\u6c96\u7e04\u770c\u6c96\u7e04\u5e02", "KSJ2:APF": "4", "KSJ2:APF_V": "\u6c11\u9593", "KSJ2:PCA": "17", "KSJ2:PCA_V": "\u75c5\u9662", "KSJ2:PCI": "17002", "KSJ2:PCI_V": "\u7cbe\u795e\u75c5\u9662", "KSJ2:RCN": "\u6570\u5024\u5730\u56f3", "addr:street": "\u5b57\u77e5\u82b15-26-1", "amenity": "hospital", "name": "\u4e00\u706f\u306e\u4f1a\u6c96\u7e04\u4e2d\u592e\u75c5\u9662", "name:ja": "\u4e00\u706f\u306e\u4f1a\u6c96\u7e04\u4e2d\u592e\u75c5\u9662", "note": "National-Land Numerical Information 2006, MLIT Japan", "note:ja": "\u56fd\u571f\u6570\u5024\u60c5\u5831(\u6cb3\u5ddd\u30c7\u30fc\u30bf)\u5e73\u621018\u5e74\u56fd\u571f\u4ea4\u901a\u7701", "source": "MLIT Japan", "source_ref": "http://nlftp.mlit.go.jp/ksj/jpgis/datalist/KsjTmplt-P02-v2_0.html"}}, {"type": "node", "id": 1068031155, "lat": 24.80194, "lon": 125.291064, "tags": {"KSJ2:AAC": "47214", "KSJ2:APF": "2", "KSJ2:APF_V": "\u90fd\u9053\u5e9c\u770c", "KSJ2:PCA": "17", "KSJ2:PCA_V": "\u75c5\u9662", "KSJ2:PCI": "17001", "KSJ2:PCI_V": "\u4e00\u822c\u75c5\u9662\u3001\u56fd\u7acb\u7642\u990a\u6240\u3001\u533b\u7642\u30bb\u30f3\u30bf\u30fc", "KSJ2:RCN": "\u6570\u5024\u5730\u56f3", "addr:street": "\u5b57\u6771\u4ef2\u5b97\u6839807", "amenity": "hospital", "name": "\u770c\u7acb\u5bae\u53e4\u75c5\u9662", "name:ja": "\u770c\u7acb\u5bae\u53e4\u75c5\u9662", "note": "National-Land Numerical Information 2006, MLIT Japan", "note:ja": "\u56fd\u571f\u6570\u5024\u60c5\u5831(\u6cb3\u5ddd\u30c7\u30fc\u30bf)\u5e73\u621018\u5e74\u56fd\u571f\u4ea4\u901a\u7701", "source": "MLIT Japan", "source_ref": "http://nlftp.mlit.go.jp/ksj/jpgis/datalist/KsjTmplt-P02-v2_0.html"}}, {"type": "node", "id": 1068031592, "lat": 26.194952, "lon": 127.726334, "tags": {"KSJ2:AAC": "47350", "KSJ2:AAC_V": "\u6c96\u7e04\u770c\u5cf6\u5c3b\u90e1\u5357\u98a8\u539f\u753a", "KSJ2:APF": "4", "KSJ2:APF_V": "\u6c11\u9593", "KSJ2:PCA": "17", "KSJ2:PCA_V": "\u75c5\u9662", "KSJ2:PCI": "17001", "KSJ2:PCI_V": "\u4e00\u822c\u75c5\u9662\u3001\u56fd\u7acb\u7642\u990a\u6240\u3001\u533b\u7642\u30bb\u30f3\u30bf\u30fc", "KSJ2:RCN": "\u6570\u5024\u5730\u56f3", "addr:street": "\u5b57\u517c\u57ce642-1", "amenity": "hospital", "healthcare": "hospital", "name": "\u6c96\u7e04\u7b2c\u4e00\u75c5\u9662", "name:ja": "\u6c96\u7e04\u7b2c\u4e00\u75c5\u9662", "note": "National-Land Numerical Information 2006, MLIT Japan", "note:ja": "\u56fd\u571f\u6570\u5024\u60c5\u5831(\u6cb3\u5ddd\u30c7\u30fc\u30bf)\u5e73\u621018\u5e74\u56fd\u571f\u4ea4\u901a\u7701", "operator": "\u4fe1\u548c\u4f1a", "source": "MLIT Japan", "source_ref": "http://nlftp.mlit.go.jp/ksj/jpgis/datalist/KsjTmplt-P02-v2_0.html"}}, {"type": "node", "id": 1068031832, "lat": 26.242779, "lon": 127.710916, "tags": {"KSJ2:AAC": "47208", "KSJ2:AAC_V": "\u6c96\u7e04\u770c\u6d66\u6dfb\u5e02", "KSJ2:APF": "4", "KSJ2:APF_V": "\u6c11\u9593", "KSJ2:PCA": "17", "KSJ2:PCA_V": "\u75c5\u9662", "KSJ2:PCI": "17001", "KSJ2:PCI_V": "\u4e00\u822c\u75c5\u9662\u3001\u56fd\u7acb\u7642\u990a\u6240\u3001\u533b\u7642\u30bb\u30f3\u30bf\u30fc", "KSJ2:RCN": "\u6570\u5024\u5730\u56f3", "addr:street": "\u5b57\u5927\u5e73466", "amenity": "hospital", "name": "\u5dba\u4e95\u7b2c\u4e00\u75c5\u9662", "name:ja": "\u5dba\u4e95\u7b2c\u4e00\u75c5\u9662", "note": "National-Land Numerical Information 2006, MLIT Japan", "note:ja": "\u56fd\u571f\u6570\u5024\u60c5\u5831(\u6cb3\u5ddd\u30c7\u30fc\u30bf)\u5e73\u621018\u5e74\u56fd\u571f\u4ea4\u901a\u7701", "operator": "\u5927\u5e73\u4f1a", "source": "MLIT Japan", "source_ref": "http://nlftp.mlit.go.jp/ksj/jpgis/datalist/KsjTmplt-P02-v2_0.html"}}, {"type": "node", "id": 1068032238, "lat": 26.36391, "lon": 127.8160509, "tags": {"KSJ2:AAC": "47211", "KSJ2:AAC_V": "\u6c96\u7e04\u770c\u6c96\u7e04\u5e02", "KSJ2:APF": "4", "KSJ2:APF_V": "\u6c11\u9593", "KSJ2:PCA": "17", "KSJ2:PCA_V": "\u75c5\u9662", "KSJ2:PCI": "17001", "KSJ2:PCI_V": "\u4e00\u822c\u75c5\u9662\u3001\u56fd\u7acb\u7642\u990a\u6240\u3001\u533b\u7642\u30bb\u30f3\u30bf\u30fc", "KSJ2:RCN": "\u6570\u5024\u5730\u56f3", "addr:street": "\u77e5\u82b16-25-5", "amenity": "hospital", "name": "\u4e2d\u90e8\u5354\u540c\u75c5\u9662", "name:en": "Keiaikai Nakagami Hospital", "name:ja": "\u4e2d\u90e8\u5354\u540c\u75c5\u9662", "note": "National-Land Numerical Information 2006, MLIT Japan", "note:ja": "\u56fd\u571f\u6570\u5024\u60c5\u5831(\u6cb3\u5ddd\u30c7\u30fc\u30bf)\u5e73\u621018\u5e74\u56fd\u571f\u4ea4\u901a\u7701", "source": "MLIT Japan", "source_ref": "http://nlftp.mlit.go.jp/ksj/jpgis/datalist/KsjTmplt-P02-v2_0.html"}}, {"type": "node", "id": 1068034331, "lat": 26.353161, "lon": 127.829319, "tags": {"KSJ2:AAC": "47213", "KSJ2:APF": "4", "KSJ2:APF_V": "\u6c11\u9593", "KSJ2:PCA": "17", "KSJ2:PCA_V": "\u75c5\u9662", "KSJ2:PCI": "17001", "KSJ2:PCI_V": "\u4e00\u822c\u75c5\u9662\u3001\u56fd\u7acb\u7642\u990a\u6240\u3001\u533b\u7642\u30bb\u30f3\u30bf\u30fc", "KSJ2:RCN": "\u6570\u5024\u5730\u56f3", "addr:street": "\u5b57\u8d64\u9053174-6", "amenity": "hospital", "name": "\u7523\u79d1\u5a66\u4eba\u79d1\u540d\u57ce\u75c5\u9662", "name:en": "Nashiro Obstetrics and gynecologists Hospital", "name:ja": "\u7523\u79d1\u5a66\u4eba\u79d1\u540d\u57ce\u75c5\u9662", "note": "National-Land Numerical Information 2006, MLIT Japan", "note:ja": "\u56fd\u571f\u6570\u5024\u60c5\u5831(\u6cb3\u5ddd\u30c7\u30fc\u30bf)\u5e73\u621018\u5e74\u56fd\u571f\u4ea4\u901a\u7701", "source": "MLIT Japan", "source_ref": "http://nlftp.mlit.go.jp/ksj/jpgis/datalist/KsjTmplt-P02-v2_0.html"}}, {"type": "node", "id": 1068034588, "lat": 26.207588, "lon": 127.695891, "tags": {"KSJ2:AAC": "47201", "KSJ2:AAC_V": "\u6c96\u7e04\u770c\u90a3\u8987\u5e02", "KSJ2:APF": "4", "KSJ2:APF_V": "\u6c11\u9593", "KSJ2:PCA": "17", "KSJ2:PCA_V": "\u75c5\u9662", "KSJ2:PCI": "17001", "KSJ2:PCI_V": "\u4e00\u822c\u75c5\u9662\u3001\u56fd\u7acb\u7642\u990a\u6240\u3001\u533b\u7642\u30bb\u30f3\u30bf\u30fc", "KSJ2:RCN": "\u6570\u5024\u5730\u56f3", "addr:street": "\u5bc4\u5bae2-3-1", "amenity": "hospital", "name": "\u6c96\u7e04\u6574\u80a2\u7642\u8b77\u5712", "name:ja": "\u6c96\u7e04\u6574\u80a2\u7642\u8b77\u5712", "note": "National-Land Numerical Information 2006, MLIT Japan", "note:ja": "\u56fd\u571f\u6570\u5024\u60c5\u5831(\u6cb3\u5ddd\u30c7\u30fc\u30bf)\u5e73\u621018\u5e74\u56fd\u571f\u4ea4\u901a\u7701", "operator": "\u6c96\u7e04\u80a2\u4f53\u4e0d\u81ea\u7531\u5150\u5354\u4f1a", "source": "MLIT Japan", "source_ref": "http://nlftp.mlit.go.jp/ksj/jpgis/datalist/KsjTmplt-P02-v2_0.html"}}, {"type": "node", "id": 1068034980, "lat": 26.236975, "lon": 127.725359, "tags": {"KSJ2:AAC": "47208", "KSJ2:AAC_V": "\u6c96\u7e04\u770c\u6d66\u6dfb\u5e02", "KSJ2:APF": "2", "KSJ2:APF_V": "\u90fd\u9053\u5e9c\u770c", "KSJ2:PCA": "17", "KSJ2:PCA_V": "\u75c5\u9662", "KSJ2:PCI": "17001", "KSJ2:PCI_V": "\u4e00\u822c\u75c5\u9662\u3001\u56fd\u7acb\u7642\u990a\u6240\u3001\u533b\u7642\u30bb\u30f3\u30bf\u30fc", "KSJ2:RCN": "\u6570\u5024\u5730\u56f3", "addr:street": "\u5b57\u7d4c\u585a714", "amenity": "hospital", "name": "\u6c96\u7e04\u770c\u7acb\u6c96\u7e04\u7642\u80b2\u5712", "name:en": "Okinawa Prefecture Okinawa Ryouikuen", "name:ja": "\u770c\u7acb\u6c96\u7e04\u7642\u80b2\u5712", "note": "National-Land Numerical Information 2006, MLIT Japan", "note:ja": "\u56fd\u571f\u6570\u5024\u60c5\u5831(\u6cb3\u5ddd\u30c7\u30fc\u30bf)\u5e73\u621018\u5e74\u56fd\u571f\u4ea4\u901a\u7701", "source": "MLIT Japan", "source_ref": "http://nlftp.mlit.go.jp/ksj/jpgis/datalist/KsjTmplt-P02-v2_0.html"}}, {"type": "node", "id": 1068035446, "lat": 26.336829, "lon": 127.802877, "tags": {"KSJ2:AAC": "47211", "KSJ2:AAC_V": "\u6c96\u7e04\u770c\u6c96\u7e04\u5e02", "KSJ2:APF": "4", "KSJ2:APF_V": "\u6c11\u9593", "KSJ2:PCA": "17", "KSJ2:PCA_V": "\u75c5\u9662", "KSJ2:PCI": "17001", "KSJ2:PCI_V": "\u4e00\u822c\u75c5\u9662\u3001\u56fd\u7acb\u7642\u990a\u6240\u3001\u533b\u7642\u30bb\u30f3\u30bf\u30fc", "KSJ2:RCN": "\u6570\u5024\u5730\u56f3", "addr:street": "\u80e1\u5c4b1-6-2", "amenity": "hospital", "name": "\u6d77\u79c0\u4f1a\u4e0a\u6751\u75c5\u9662", "name:ja": "\u6d77\u79c0\u4f1a\u4e0a\u6751\u75c5\u9662", "note": "National-Land Numerical Information 2006, MLIT Japan", "note:ja": "\u56fd\u571f\u6570\u5024\u60c5\u5831(\u6cb3\u5ddd\u30c7\u30fc\u30bf)\u5e73\u621018\u5e74\u56fd\u571f\u4ea4\u901a\u7701", "source": "MLIT Japan", "source_ref": "http://nlftp.mlit.go.jp/ksj/jpgis/datalist/KsjTmplt-P02-v2_0.html"}}, {"type": "node", "id": 1068036279, "lat": 26.219416, "lon": 127.692754, "tags": {"KSJ2:AAC": "47201", "KSJ2:AAC_V": "\u6c96\u7e04\u770c\u90a3\u8987\u5e02", "KSJ2:APF": "4", "KSJ2:APF_V": "\u6c11\u9593", "KSJ2:PCA": "17", "KSJ2:PCA_V": "\u75c5\u9662", "KSJ2:PCI": "17001", "KSJ2:PCI_V": "\u4e00\u822c\u75c5\u9662\u3001\u56fd\u7acb\u7642\u990a\u6240\u3001\u533b\u7642\u30bb\u30f3\u30bf\u30fc", "KSJ2:RCN": "\u6570\u5024\u5730\u56f3\u753b\u50cf", "addr:street": "\u770c\u905329\u53f7", "amenity": "hospital", "healthcare": "hospital", "name": "\u5927\u9053\u4e2d\u592e\u75c5\u9662", "name:en": "Omichi Central Hospital", "name:ja": "\u5927\u9053\u4e2d\u592e\u75c5\u9662", "note": "National-Land Numerical Information 2006, MLIT Japan", "note:ja": "\u56fd\u571f\u6570\u5024\u60c5\u5831(\u6cb3\u5ddd\u30c7\u30fc\u30bf)\u5e73\u621018\u5e74\u56fd\u571f\u4ea4\u901a\u7701", "operator": "\u967d\u5fc3\u4f1a", "source": "MLIT Japan", "source_ref": "http://nlftp.mlit.go.jp/ksj/jpgis/datalist/KsjTmplt-P02-v2_0.html"}}, {"type": "node", "id": 1068037523, "lat": 26.32711, "lon": 127.882286, "tags": {"KSJ2:AAC": "47213", "KSJ2:APF": "4", "KSJ2:APF_V": "\u6c11\u9593", "KSJ2:PCA": "17", "KSJ2:PCA_V": "\u75c5\u9662", "KSJ2:PCI": "17001", "KSJ2:PCI_V": "\u4e00\u822c\u75c5\u9662\u3001\u56fd\u7acb\u7642\u990a\u6240\u3001\u533b\u7642\u30bb\u30f3\u30bf\u30fc", "KSJ2:RCN": "\u6570\u5024\u5730\u56f3", "addr:street": "\u5b57\u5357\u98a8\u539f3584", "amenity": "hospital", "name": "\u6c96\u7e04\u5bff\u5149\u4f1a\u4e0e\u52dd\u75c5\u9662", "name:en": "Okinawa Jyukokai Yokatsu Hospital", "name:ja": "\u6c96\u7e04\u5bff\u5149\u4f1a\u4e0e\u52dd\u75c5\u9662", "note": "National-Land Numerical Information 2006, MLIT Japan", "note:ja": "\u56fd\u571f\u6570\u5024\u60c5\u5831(\u6cb3\u5ddd\u30c7\u30fc\u30bf)\u5e73\u621018\u5e74\u56fd\u571f\u4ea4\u901a\u7701", "source": "MLIT Japan", "source_ref": "http://nlftp.mlit.go.jp/ksj/jpgis/datalist/KsjTmplt-P02-v2_0.html"}}, {"type": "node", "id": 1068039008, "lat": 26.314767, "lon": 127.824204, "tags": {"KSJ2:AAC": "47211", "KSJ2:AAC_V": "\u6c96\u7e04\u770c\u6c96\u7e04\u5e02", "KSJ2:APF": "4", "KSJ2:APF_V": "\u6c11\u9593", "KSJ2:PCA": "17", "KSJ2:PCA_V": "\u75c5\u9662", "KSJ2:PCI": "17001", "KSJ2:PCI_V": "\u4e00\u822c\u75c5\u9662\u3001\u56fd\u7acb\u7642\u990a\u6240\u3001\u533b\u7642\u30bb\u30f3\u30bf\u30fc", "KSJ2:RCN": "\u6570\u5024\u5730\u56f3\u753b\u50cf", "addr:street": "\u5b57\u6bd4\u5c4b\u6839963", "amenity": "hospital", "name": "\u30bf\u30d4\u30c3\u30af\u6c96\u7e04\u30ea\u30cf\u30d3\u30ea\u30c6\u30fc\u30b7\u30e7\u30f3\u30bb\u30f3\u30bf\u30fc\u75c5\u9662", "name:en": "Tapic Okinawa Rehabilitation center Hospital", "name:ja": "\u30bf\u30d4\u30c3\u30af\u6c96\u7e04 \u30ea\u30cf\u30d3\u30ea\u30c6\u30fc\u30b7\u30e7\u30f3\u30bb\u30f3\u30bf\u30fc\u75c5\u9662", "note": "National-Land Numerical Information 2006, MLIT Japan", "note:ja": "\u56fd\u571f\u6570\u5024\u60c5\u5831(\u6cb3\u5ddd\u30c7\u30fc\u30bf)\u5e73\u621018\u5e74\u56fd\u571f\u4ea4\u901a\u7701", "source": "MLIT Japan", "source_ref": "http://nlftp.mlit.go.jp/ksj/jpgis/datalist/KsjTmplt-P02-v2_0.html"}}, {"type": "node", "id": 1068039544, "lat": 26.657273, "lon": 127.883943, "tags": {"KSJ2:AAC": "47308", "KSJ2:AAC_V": "\u6c96\u7e04\u770c\u56fd\u982d\u90e1\u672c\u90e8\u753a", "KSJ2:APF": "4", "KSJ2:APF_V": "\u6c11\u9593", "KSJ2:PCA": "17", "KSJ2:PCA_V": "\u75c5\u9662", "KSJ2:PCI": "17001", "KSJ2:PCI_V": "\u4e00\u822c\u75c5\u9662\u3001\u56fd\u7acb\u7642\u990a\u6240\u3001\u533b\u7642\u30bb\u30f3\u30bf\u30fc", "KSJ2:RCN": "\u6570\u5024\u5730\u56f3", "addr:street": "\u5927\u6d5c880-1", "amenity": "hospital", "name": "\u91ce\u6bdb\u4f1a\u3082\u3068\u3076\u91ce\u6bdb\u75c5\u9662", "name:ja": "\u91ce\u6bdb\u4f1a\u3082\u3068\u3076\u91ce\u6bdb\u75c5\u9662", "note": "National-Land Numerical Information 2006, MLIT Japan", "note:ja": "\u56fd\u571f\u6570\u5024\u60c5\u5831(\u6cb3\u5ddd\u30c7\u30fc\u30bf)\u5e73\u621018\u5e74\u56fd\u571f\u4ea4\u901a\u7701", "source": "MLIT Japan", "source_ref": "http://nlftp.mlit.go.jp/ksj/jpgis/datalist/KsjTmplt-P02-v2_0.html"}}, {"type": "node", "id": 1068039904, "lat": 26.208394, "lon": 127.699197, "tags": {"KSJ2:AAC": "47201", "KSJ2:AAC_V": "\u6c96\u7e04\u770c\u90a3\u8987\u5e02", "KSJ2:APF": "4", "KSJ2:APF_V": "\u6c11\u9593", "KSJ2:PCA": "17", "KSJ2:PCA_V": "\u75c5\u9662", "KSJ2:PCI": "17001", "KSJ2:PCI_V": "\u4e00\u822c\u75c5\u9662\u3001\u56fd\u7acb\u7642\u990a\u6240\u3001\u533b\u7642\u30bb\u30f3\u30bf\u30fc", "KSJ2:RCN": "\u6570\u5024\u5730\u56f3", "addr:street": "\u5bc4\u5bae3-12-12", "amenity": "hospital", "name": "\u5927\u539f\u75c5\u9662", "name:en": "OHara Hospital", "name:ja": "\u5927\u539f\u75c5\u9662", "note": "National-Land Numerical Information 2006, MLIT Japan", "note:ja": "\u56fd\u571f\u6570\u5024\u60c5\u5831(\u6cb3\u5ddd\u30c7\u30fc\u30bf)\u5e73\u621018\u5e74\u56fd\u571f\u4ea4\u901a\u7701", "source": "MLIT Japan", "source_ref": "http://nlftp.mlit.go.jp/ksj/jpgis/datalist/KsjTmplt-P02-v2_0.html"}}, {"type": "node", "id": 1068040455, "lat": 26.2676382, "lon": 127.715369, "tags": {"KSJ2:AAC": "47208", "KSJ2:AAC_V": "\u6c96\u7e04\u770c\u6d66\u6dfb\u5e02", "KSJ2:APF": "4", "KSJ2:APF_V": "\u6c11\u9593", "KSJ2:PCA": "17", "KSJ2:PCA_V": "\u75c5\u9662", "KSJ2:PCI": "17001", "KSJ2:PCI_V": "\u4e00\u822c\u75c5\u9662\u3001\u56fd\u7acb\u7642\u990a\u6240\u3001\u533b\u7642\u30bb\u30f3\u30bf\u30fc", "KSJ2:RCN": "\u6570\u5024\u5730\u56f3", "addr:street": "\u7267\u6e2f1199", "amenity": "hospital", "healthcare": "hospital", "name": "\u7267\u6e2f\u4e2d\u592e\u75c5\u9662", "name:en": "Makiminato Central Hospital", "name:ja": "\u7267\u6e2f\u4e2d\u592e\u75c5\u9662", "note": "National-Land Numerical Information 2006, MLIT Japan", "note:ja": "\u56fd\u571f\u6570\u5024\u60c5\u5831(\u6cb3\u5ddd\u30c7\u30fc\u30bf)\u5e73\u621018\u5e74\u56fd\u571f\u4ea4\u901a\u7701", "source": "MLIT Japan", "source_ref": "http://nlftp.mlit.go.jp/ksj/jpgis/datalist/KsjTmplt-P02-v2_0.html"}}, {"type": "node", "id": 1068041157, "lat": 26.200589, "lon": 127.684143, "tags": {"KSJ2:AAC": "47201", "KSJ2:AAC_V": "\u6c96\u7e04\u770c\u90a3\u8987\u5e02", "KSJ2:APF": "4", "KSJ2:APF_V": "\u6c11\u9593", "KSJ2:PCA": "17", "KSJ2:PCA_V": "\u75c5\u9662", "KSJ2:PCI": "17001", "KSJ2:PCI_V": "\u4e00\u822c\u75c5\u9662\u3001\u56fd\u7acb\u7642\u990a\u6240\u3001\u533b\u7642\u30bb\u30f3\u30bf\u30fc", "KSJ2:RCN": "\u6570\u5024\u5730\u56f3", "addr:street": "\u53e4\u6ce2\u85353-5-25", "amenity": "hospital", "name": "\u5ddd\u5e73\u75c5\u9662", "name:en": "Kawahira Hospital", "name:ja": "\u5ddd\u5e73\u75c5\u9662", "note": "National-Land Numerical Information 2006, MLIT Japan", "note:ja": "\u56fd\u571f\u6570\u5024\u60c5\u5831(\u6cb3\u5ddd\u30c7\u30fc\u30bf)\u5e73\u621018\u5e74\u56fd\u571f\u4ea4\u901a\u7701", "operator": "\u304b\u3073\u3089\u4f1a", "source": "MLIT Japan", "source_ref": "http://nlftp.mlit.go.jp/ksj/jpgis/datalist/KsjTmplt-P02-v2_0.html"}}, {"type": "node", "id": 1068041593, "lat": 26.359439, "lon": 127.859622, "tags": {"KSJ2:AAC": "47213", "KSJ2:APF": "4", "KSJ2:APF_V": "\u6c11\u9593", "KSJ2:PCA": "17", "KSJ2:PCA_V": "\u75c5\u9662", "KSJ2:PCI": "17002", "KSJ2:PCI_V": "\u7cbe\u795e\u75c5\u9662", "KSJ2:RCN": "\u6570\u5024\u5730\u56f3", "addr:street": "\u5b57\u4e0a\u6c5f\u6d32665", "amenity": "hospital", "name": "\u5fd7\u8aa0\u4f1a\u5e73\u548c\u75c5\u9662", "name:en": "Shiseikai Heiwa Hospital", "name:ja": "\u5fd7\u8aa0\u4f1a\u5e73\u548c\u75c5\u9662", "note": "National-Land Numerical Information 2006, MLIT Japan", "note:ja": "\u56fd\u571f\u6570\u5024\u60c5\u5831(\u6cb3\u5ddd\u30c7\u30fc\u30bf)\u5e73\u621018\u5e74\u56fd\u571f\u4ea4\u901a\u7701", "source": "MLIT Japan", "source_ref": "http://nlftp.mlit.go.jp/ksj/jpgis/datalist/KsjTmplt-P02-v2_0.html"}}, {"type": "node", "id": 1068042766, "lat": 26.2129572, "lon": 127.6753239, "tags": {"KSJ2:AAC": "47201", "KSJ2:AAC_V": "\u6c96\u7e04\u770c\u90a3\u8987\u5e02", "KSJ2:APF": "4", "KSJ2:APF_V": "\u6c11\u9593", "KSJ2:PCA": "17", "KSJ2:PCA_V": "\u75c5\u9662", "KSJ2:PCI": "17001", "KSJ2:PCI_V": "\u4e00\u822c\u75c5\u9662\u3001\u56fd\u7acb\u7642\u990a\u6240\u3001\u533b\u7642\u30bb\u30f3\u30bf\u30fc", "KSJ2:RCN": "\u6570\u5024\u5730\u56f3", "addr:street": "\u6771\u753a5-22", "amenity": "hospital", "name": "\u897f\u6b66\u9580\u75c5\u9662", "name:ja": "\u897f\u6b66\u9580\u75c5\u9662", "note": "National-Land Numerical Information 2006, MLIT Japan", "note:ja": "\u56fd\u571f\u6570\u5024\u60c5\u5831(\u6cb3\u5ddd\u30c7\u30fc\u30bf)\u5e73\u621018\u5e74\u56fd\u571f\u4ea4\u901a\u7701", "operator": "\u65b0\u897f\u4f1a", "source": "MLIT Japan", "source_ref": "http://nlftp.mlit.go.jp/ksj/jpgis/datalist/KsjTmplt-P02-v2_0.html"}}, {"type": "node", "id": 1068043488, "lat": 26.2558771, "lon": 127.7081856, "tags": {"KSJ2:AAC": "47208", "KSJ2:AAC_V": "\u6c96\u7e04\u770c\u6d66\u6dfb\u5e02", "KSJ2:APF": "4", "KSJ2:APF_V": "\u6c11\u9593", "KSJ2:PCA": "17", "KSJ2:PCA_V": "\u75c5\u9662", "KSJ2:PCI": "17001", "KSJ2:PCI_V": "\u4e00\u822c\u75c5\u9662\u3001\u56fd\u7acb\u7642\u990a\u6240\u3001\u533b\u7642\u30bb\u30f3\u30bf\u30fc", "KSJ2:RCN": "\u6570\u5024\u5730\u56f3", "addr:street": "\u57ce\u95932606", "amenity": "hospital", "healthcare": "hospital", "name": "\u540c\u4ec1\u75c5\u9662", "name:en": "Dojin Hospital", "name:ja": "\u540c\u4ec1\u75c5\u9662", "note": "National-Land Numerical Information 2006, MLIT Japan", "note:ja": "\u56fd\u571f\u6570\u5024\u60c5\u5831(\u6cb3\u5ddd\u30c7\u30fc\u30bf)\u5e73\u621018\u5e74\u56fd\u571f\u4ea4\u901a\u7701", "operator": "\u516b\u91cd\u702c\u4f1a", "source": "MLIT Japan", "source_ref": "http://nlftp.mlit.go.jp/ksj/jpgis/datalist/KsjTmplt-P02-v2_0.html"}}, {"type": "node", "id": 1068044009, "lat": 26.330858, "lon": 127.813293, "tags": {"KSJ2:AAC": "47211", "KSJ2:AAC_V": "\u6c96\u7e04\u770c\u6c96\u7e04\u5e02", "KSJ2:APF": "4", "KSJ2:APF_V": "\u6c11\u9593", "KSJ2:PCA": "17", "KSJ2:PCA_V": "\u75c5\u9662", "KSJ2:PCI": "17001", "KSJ2:PCI_V": "\u4e00\u822c\u75c5\u9662\u3001\u56fd\u7acb\u7642\u990a\u6240\u3001\u533b\u7642\u30bb\u30f3\u30bf\u30fc", "KSJ2:RCN": "\u6570\u5024\u5730\u56f3", "addr:street": "\u7167\u5c4b3-20-1", "amenity": "hospital", "name": "\u4e2d\u90e8\u5fb3\u6d32\u4f1a\u75c5\u9662", "name:en": "Chubu Tokushukai Hospital", "name:ja": "\u4e2d\u90e8\u5fb3\u6d32\u4f1a\u75c5\u9662", "note": "National-Land Numerical Information (Public Facility) 2006, MLIT Japan;National-Land Numerical Information 2006, MLIT Japan", "note:ja": "\u56fd\u571f\u6570\u5024\u60c5\u5831\uff08\u516c\u5171\u65bd\u8a2d\u30c7\u30fc\u30bf\uff09\u5e73\u621019\u5e74\u3000\u56fd\u571f\u4ea4\u901a\u7701;\u56fd\u571f\u6570\u5024\u60c5\u5831(\u6cb3\u5ddd\u30c7\u30fc\u30bf)\u5e73\u621018\u5e74\u56fd\u571f\u4ea4\u901a\u7701", "source": "MLIT Japan;KSJ2", "source_ref": "http://nlftp.mlit.go.jp/ksj/jpgis/datalist/KsjTmplt-P02-v2_0.html"}}, {"type": "node", "id": 1199486558, "lat": 23.7805308, "lon": 120.4414969, "tags": {"amenity": "hospital", "is_in": "Siluo, Yunlin County, Taiwan", "is_in:zh": "\u53f0\u7063\u96f2\u6797\u7e23\u897f\u87ba\u93ae", "name": "\u96f2\u6797\u57fa\u7763\u6559\u91ab\u9662", "name:en": "Yunlin Christian Hospital", "name:zh": "\u96f2\u6797\u57fa\u7763\u6559\u91ab\u9662"}}, {"type": "node", "id": 1250789308, "lat": 29.9044465, "lon": 121.5875713, "tags": {"amenity": "hospital", "emergency": "yes", "name": "\u5b54\u6d66\u533b\u9662"}}, {"type": "node", "id": 1256473800, "lat": 24.9613108, "lon": 121.2268834, "tags": {"amenity": "hospital", "emergency": "no", "healthcare": "hospital", "name": "\u5b8f\u5176\u5a66\u5e7c\u91ab\u9662"}}, {"type": "node", "id": 1256473841, "lat": 24.9625358, "lon": 121.2290259, "tags": {"amenity": "hospital", "emergency": "yes", "healthcare": "hospital", "name": "\u5929\u665f\u91ab\u9662"}}, {"type": "node", "id": 1398023537, "lat": 28.0985017, "lon": 121.2768136, "tags": {"amenity": "hospital", "emergency": "yes", "name": "\u7389\u73af\u7ea2\u5341\u5b57\u533b\u9662"}}, {"type": "node", "id": 1423925578, "lat": 27.727671, "lon": 129.018838, "tags": {"KSJ2:ADS": "\u4e80\u6d25\u65b0\u6804\u753a7268", "KSJ2:AdminArea": "\u9e7f\u5150\u5cf6\u770c\u5927\u5cf6\u90e1\u5fb3\u4e4b\u5cf6\u753a", "KSJ2:PubFacAdmin": "\u6c11\u9593", "amenity": "hospital", "name": "\u5357\u51a5\u4f1a\u5bae\u4e0a\u75c5\u9662", "name:ja": "\u5357\u51a5\u4f1a\u5bae\u4e0a\u75c5\u9662", "note": "National-Land Numerical Information (Public Facility) 2006, MLIT Japan", "note:ja": "\u56fd\u571f\u6570\u5024\u60c5\u5831\uff08\u516c\u5171\u65bd\u8a2d\u30c7\u30fc\u30bf\uff09\u5e73\u621019\u5e74\u3000\u56fd\u571f\u4ea4\u901a\u7701", "source": "KSJ2", "source_ref": "http://nlftp.mlit.go.jp/ksj/jpgis/datalist/KsjTmplt-P02-v2_0.html"}}, {"type": "node", "id": 1423925659, "lat": 26.3258959, "lon": 127.8165181, "tags": {"amenity": "hospital", "name": "\u536f\u306e\u4f1a\u65b0\u57a3\u75c5\u9662", "name:en": "Unokai Arakaki Hospital", "note": "National-Land Numerical Information (Public Facility) 2006, MLIT Japan", "note:ja": "\u56fd\u571f\u6570\u5024\u60c5\u5831\uff08\u516c\u5171\u65bd\u8a2d\u30c7\u30fc\u30bf\uff09\u5e73\u621019\u5e74\u3000\u56fd\u571f\u4ea4\u901a\u7701", "source": "KSJ2", "source_ref": "http://nlftp.mlit.go.jp/ksj/jpgis/datalist/KsjTmplt-P02-v2_0.html"}}, {"type": "node", "id": 1423926132, "lat": 28.384845, "lon": 129.5166206, "tags": {"amenity": "hospital", "healthcare": "hospital", "name": "\u56fd\u7acb\u7642\u990a\u6240\u5944\u7f8e\u548c\u5149\u5712", "note": "National-Land Numerical Information (Public Facility) 2006, MLIT Japan", "note:ja": "\u56fd\u571f\u6570\u5024\u60c5\u5831\uff08\u516c\u5171\u65bd\u8a2d\u30c7\u30fc\u30bf\uff09\u5e73\u621019\u5e74\u3000\u56fd\u571f\u4ea4\u901a\u7701", "source": "KSJ2", "source_ref": "http://nlftp.mlit.go.jp/ksj/jpgis/datalist/KsjTmplt-P02-v2_0.html", "wikidata": "Q4659989", "wikipedia": "ja:\u56fd\u7acb\u7642\u990a\u6240\u5944\u7f8e\u548c\u5149\u5712"}}, {"type": "node", "id": 1423926550, "lat": 28.386243, "lon": 129.474506, "tags": {"KSJ2:ADS": "\u5c0f\u5bbf\u5b57\u82d7\u4ee3\u75303411", "KSJ2:AdminArea": "\u9e7f\u5150\u5cf6\u770c\u5782\u6c34\u5e02", "KSJ2:PubFacAdmin": "\u6c11\u9593", "amenity": "hospital", "name": "\u5927\u5cf6\u90e1\u533b\u5e2b\u4f1a\u75c5\u9662", "note": "National-Land Numerical Information (Public Facility) 2006, MLIT Japan", "note:ja": "\u56fd\u571f\u6570\u5024\u60c5\u5831\uff08\u516c\u5171\u65bd\u8a2d\u30c7\u30fc\u30bf\uff09\u5e73\u621019\u5e74\u3000\u56fd\u571f\u4ea4\u901a\u7701", "source": "KSJ2", "source_ref": "http://nlftp.mlit.go.jp/ksj/jpgis/datalist/KsjTmplt-P02-v2_0.html"}}, {"type": "node", "id": 1423926751, "lat": 28.3944442, "lon": 129.493616, "tags": {"amenity": "hospital", "name": "\u5944\u7f8e\u4e2d\u592e\u75c5\u9662", "note": "National-Land Numerical Information (Public Facility) 2006, MLIT Japan", "note:ja": "\u56fd\u571f\u6570\u5024\u60c5\u5831\uff08\u516c\u5171\u65bd\u8a2d\u30c7\u30fc\u30bf\uff09\u5e73\u621019\u5e74\u3000\u56fd\u571f\u4ea4\u901a\u7701", "source": "KSJ2", "source_ref": "http://nlftp.mlit.go.jp/ksj/jpgis/datalist/KsjTmplt-P02-v2_0.html", "wikidata": "Q97191924", "wikipedia": "ja:\u5944\u7f8e\u4e2d\u592e\u75c5\u9662"}}, {"type": "node", "id": 1423930142, "lat": 28.398758, "lon": 129.526369, "tags": {"amenity": "hospital", "name": "\u540d\u702c\u5fb3\u6d32\u4f1a\u75c5\u9662", "note": "National-Land Numerical Information (Public Facility) 2006, MLIT Japan", "note:ja": "\u56fd\u571f\u6570\u5024\u60c5\u5831\uff08\u516c\u5171\u65bd\u8a2d\u30c7\u30fc\u30bf\uff09\u5e73\u621019\u5e74\u3000\u56fd\u571f\u4ea4\u901a\u7701", "source": "KSJ2", "source_ref": "http://nlftp.mlit.go.jp/ksj/jpgis/datalist/KsjTmplt-P02-v2_0.html"}}, {"type": "node", "id": 1423930143, "lat": 28.31768, "lon": 129.932955, "tags": {"KSJ2:ADS": "\u6e7e315", "KSJ2:AdminArea": "\u9e7f\u5150\u5cf6\u770c\u5927\u5cf6\u90e1\u559c\u754c\u753a", "KSJ2:PubFacAdmin": "\u6c11\u9593", "amenity": "hospital", "name": "\u5fb3\u6d32\u4f1a\u559c\u754c\u5fb3\u6d32\u4f1a\u75c5\u9662", "note": "National-Land Numerical Information (Public Facility) 2006, MLIT Japan", "note:ja": "\u56fd\u571f\u6570\u5024\u60c5\u5831\uff08\u516c\u5171\u65bd\u8a2d\u30c7\u30fc\u30bf\uff09\u5e73\u621019\u5e74\u3000\u56fd\u571f\u4ea4\u901a\u7701", "source": "KSJ2", "source_ref": "http://nlftp.mlit.go.jp/ksj/jpgis/datalist/KsjTmplt-P02-v2_0.html"}}, {"type": "node", "id": 1423930145, "lat": 27.734367, "lon": 129.021032, "tags": {"KSJ2:ADS": "\u4e80\u6d257588", "KSJ2:AdminArea": "\u9e7f\u5150\u5cf6\u770c\u5927\u5cf6\u90e1\u5fb3\u4e4b\u5cf6\u753a", "KSJ2:PubFacAdmin": "\u6c11\u9593", "amenity": "hospital", "name": "\u5fb3\u6d32\u4f1a\u5fb3\u4e4b\u5cf6\u5fb3\u6d32\u4f1a\u75c5\u9662", "note": "National-Land Numerical Information (Public Facility) 2006, MLIT Japan", "note:ja": "\u56fd\u571f\u6570\u5024\u60c5\u5831\uff08\u516c\u5171\u65bd\u8a2d\u30c7\u30fc\u30bf\uff09\u5e73\u621019\u5e74\u3000\u56fd\u571f\u4ea4\u901a\u7701", "source": "KSJ2", "source_ref": "http://nlftp.mlit.go.jp/ksj/jpgis/datalist/KsjTmplt-P02-v2_0.html"}}, {"type": "node", "id": 1423930146, "lat": 27.3351342, "lon": 128.5768189, "tags": {"KSJ2:ADS": "\u702c\u5229\u899a2208", "KSJ2:AdminArea": "\u9e7f\u5150\u5cf6\u770c\u5927\u5cf6\u90e1\u77e5\u540d\u753a", "KSJ2:PubFacAdmin": "\u6c11\u9593", "amenity": "hospital", "name": "\u5fb3\u6d32\u4f1a\u6c96\u6c38\u826f\u90e8\u5fb3\u6d32\u4f1a\u75c5\u9662", "note": "National-Land Numerical Information (Public Facility) 2006, MLIT Japan", "note:ja": "\u56fd\u571f\u6570\u5024\u60c5\u5831\uff08\u516c\u5171\u65bd\u8a2d\u30c7\u30fc\u30bf\uff09\u5e73\u621019\u5e74\u3000\u56fd\u571f\u4ea4\u901a\u7701", "source": "KSJ2", "source_ref": "http://nlftp.mlit.go.jp/ksj/jpgis/datalist/KsjTmplt-P02-v2_0.html"}}, {"type": "node", "id": 1423930147, "lat": 28.1375838, "lon": 129.3225083, "tags": {"amenity": "hospital", "name": "\u5fb3\u6d32\u4f1a\u702c\u6238\u5185\u5fb3\u6d32\u4f1a\u75c5\u9662", "note": "National-Land Numerical Information (Public Facility) 2006, MLIT Japan", "note:ja": "\u56fd\u571f\u6570\u5024\u60c5\u5831\uff08\u516c\u5171\u65bd\u8a2d\u30c7\u30fc\u30bf\uff09\u5e73\u621019\u5e74\u3000\u56fd\u571f\u4ea4\u901a\u7701", "source": "KSJ2", "source_ref": "http://nlftp.mlit.go.jp/ksj/jpgis/datalist/KsjTmplt-P02-v2_0.html"}}, {"type": "node", "id": 1423930260, "lat": 28.4535301, "lon": 129.6764495, "tags": {"amenity": "hospital", "name": "\u611b\u90f7\u4f1a\u7b20\u5229\u75c5\u9662", "note": "National-Land Numerical Information (Public Facility) 2006, MLIT Japan", "note:ja": "\u56fd\u571f\u6570\u5024\u60c5\u5831\uff08\u516c\u5171\u65bd\u8a2d\u30c7\u30fc\u30bf\uff09\u5e73\u621019\u5e74\u3000\u56fd\u571f\u4ea4\u901a\u7701", "source": "KSJ2", "source_ref": "http://nlftp.mlit.go.jp/ksj/jpgis/datalist/KsjTmplt-P02-v2_0.html"}}, {"type": "node", "id": 1423930280, "lat": 28.396994, "lon": 129.4720827, "tags": {"amenity": "hospital", "name": "\u6148\u611b\u4f1a\u5944\u7f8e\u75c5\u9662", "note": "National-Land Numerical Information (Public Facility) 2006, MLIT Japan", "note:ja": "\u56fd\u571f\u6570\u5024\u60c5\u5831\uff08\u516c\u5171\u65bd\u8a2d\u30c7\u30fc\u30bf\uff09\u5e73\u621019\u5e74\u3000\u56fd\u571f\u4ea4\u901a\u7701", "source": "KSJ2", "source_ref": "http://nlftp.mlit.go.jp/ksj/jpgis/datalist/KsjTmplt-P02-v2_0.html"}}, {"type": "node", "id": 1423930281, "lat": 27.719813, "lon": 129.020394, "tags": {"KSJ2:ADS": "\u4e80\u6d25\u4e0b\u971c\u539f5190", "KSJ2:AdminArea": "\u9e7f\u5150\u5cf6\u770c\u5927\u5cf6\u90e1\u5fb3\u4e4b\u5cf6\u753a", "KSJ2:PubFacAdmin": "\u6c11\u9593", "amenity": "hospital", "name": "\u6148\u611b\u4f1a\u5fb3\u4e4b\u5cf6\u75c5\u9662", "name:ja": "\u6148\u611b\u4f1a\u5fb3\u4e4b\u5cf6\u75c5\u9662", "note": "National-Land Numerical Information (Public Facility) 2006, MLIT Japan", "note:ja": "\u56fd\u571f\u6570\u5024\u60c5\u5831\uff08\u516c\u5171\u65bd\u8a2d\u30c7\u30fc\u30bf\uff09\u5e73\u621019\u5e74\u3000\u56fd\u571f\u4ea4\u901a\u7701", "source": "KSJ2", "source_ref": "http://nlftp.mlit.go.jp/ksj/jpgis/datalist/KsjTmplt-P02-v2_0.html"}}, {"type": "node", "id": 1423931229, "lat": 27.0438427, "lon": 128.4163431, "tags": {"amenity": "hospital", "healthcare": "hospital", "name": "\u6c96\u7e04\u5fb3\u6d32\u4f1a\u4e0e\u8ad6\u5fb3\u6d32\u4f1a\u75c5\u9662", "note": "National-Land Numerical Information (Public Facility) 2006, MLIT Japan", "note:ja": "\u56fd\u571f\u6570\u5024\u60c5\u5831\uff08\u516c\u5171\u65bd\u8a2d\u30c7\u30fc\u30bf\uff09\u5e73\u621019\u5e74\u3000\u56fd\u571f\u4ea4\u901a\u7701", "source": "KSJ2", "source_ref": "http://nlftp.mlit.go.jp/ksj/jpgis/datalist/KsjTmplt-P02-v2_0.html"}}, {"type": "node", "id": 1423932455, "lat": 26.241892, "lon": 127.759857, "tags": {"KSJ2:ADS": "\u5b57\u4e0a\u539f207", "KSJ2:AdminArea": "\u6c96\u7e04\u770c\u4e2d\u982d\u90e1\u897f\u539f\u753a", "KSJ2:PubFacAdmin": "\u56fd", "amenity": "hospital", "name": "\u7409\u7403\u5927\u5b66\u533b\u5b66\u90e8\u9644\u5c5e\u75c5\u9662", "name:en": "University of the Ryukyus Hospital", "note": "National-Land Numerical Information (Public Facility) 2006, MLIT Japan", "note:ja": "\u56fd\u571f\u6570\u5024\u60c5\u5831\uff08\u516c\u5171\u65bd\u8a2d\u30c7\u30fc\u30bf\uff09\u5e73\u621019\u5e74\u3000\u56fd\u571f\u4ea4\u901a\u7701", "source": "KSJ2", "source_ref": "http://nlftp.mlit.go.jp/ksj/jpgis/datalist/KsjTmplt-P02-v2_0.html", "toilets:wheelchair": "yes", "wheelchair": "yes", "wikidata": "Q11573656", "wikipedia": "ja:\u7409\u7403\u5927\u5b66\u75c5\u9662"}}, {"type": "node", "id": 1423933119, "lat": 28.3668685, "lon": 129.5009571, "tags": {"amenity": "hospital", "name": "\u770c\u7acb\u5927\u5cf6\u75c5\u9662", "note": "National-Land Numerical Information (Public Facility) 2006, MLIT Japan", "note:ja": "\u56fd\u571f\u6570\u5024\u60c5\u5831\uff08\u516c\u5171\u65bd\u8a2d\u30c7\u30fc\u30bf\uff09\u5e73\u621019\u5e74\u3000\u56fd\u571f\u4ea4\u901a\u7701", "source": "KSJ2", "source_ref": "http://nlftp.mlit.go.jp/ksj/jpgis/datalist/KsjTmplt-P02-v2_0.html", "wikidata": "Q11582693"}}, {"type": "node", "id": 1423933411, "lat": 28.166383, "lon": 129.336184, "tags": {"KSJ2:ADS": "\u963f\u6728\u540d65", "KSJ2:AdminArea": "\u9e7f\u5150\u5cf6\u770c\u5927\u5cf6\u90e1\u702c\u6238\u5185\u753a", "KSJ2:PubFacAdmin": "\u6c11\u9593", "amenity": "hospital", "name": "\u78a9\u6e08\u4f1a\u5927\u5cf6\u4fdd\u990a\u9662", "note": "National-Land Numerical Information (Public Facility) 2006, MLIT Japan", "note:ja": "\u56fd\u571f\u6570\u5024\u60c5\u5831\uff08\u516c\u5171\u65bd\u8a2d\u30c7\u30fc\u30bf\uff09\u5e73\u621019\u5e74\u3000\u56fd\u571f\u4ea4\u901a\u7701", "source": "KSJ2", "source_ref": "http://nlftp.mlit.go.jp/ksj/jpgis/datalist/KsjTmplt-P02-v2_0.html"}}, {"type": "node", "id": 1517456001, "lat": 23.1604134, "lon": 120.1765381, "tags": {"amenity": "hospital", "healthcare": "hospital", "name": "\u65b0\u751f\u91ab\u9662"}}, {"type": "node", "id": 1535695628, "lat": 29.8839606, "lon": 121.5394853, "tags": {"amenity": "hospital", "name": "Ningbo No. 2 Hospital", "wikidata": "Q30260623"}}, {"type": "node", "id": 1535695633, "lat": 29.8854363, "lon": 121.556573, "tags": {"amenity": "hospital", "name": "Ningbo No. 3 Hospital"}}, {"type": "node", "id": 1590313743, "lat": 23.2345865, "lon": 120.1814432, "tags": {"amenity": "hospital", "name": "\u73fe\u4ee3\u91ab\u9662"}}, {"type": "node", "id": 1591540196, "lat": 23.231118, "lon": 120.1802241, "tags": {"amenity": "hospital", "name": "\u8056\u6069\u91ab\u9662"}}, {"type": "node", "id": 1703712014, "lat": 29.9343232, "lon": 121.6084792, "tags": {"amenity": "hospital", "healthcare": "hospital", "name": "\u4f69\u73cd\u533b\u9662"}}, {"type": "node", "id": 1703810054, "lat": 24.1487352, "lon": 120.48593, "tags": {"amenity": "hospital", "emergency": "yes", "healthcare": "hospital", "name": "\u5fe0\u5b5d\u91ab\u9662"}}, {"type": "node", "id": 1704024738, "lat": 27.6713124, "lon": 120.5621313, "tags": {"amenity": "hospital", "name": "\u5e73\u9633\u53bf\u4eba\u6c11\u533b\u9662"}}, {"type": "node", "id": 1720493825, "lat": 26.3824521, "lon": 127.7487445, "tags": {"amenity": "hospital", "name": "\u3088\u307f\u305f\u3093\u773c\u79d1", "name:en": "Yomitan Ophthalmic Clinic"}}, {"type": "node", "id": 1773363053, "lat": 24.8002245, "lon": 125.2905958, "tags": {"amenity": "hospital", "emergency": "no", "name": "\u7802\u5ddd\u5185\u79d1", "name:en": "Sunagawa Internal Medicine Clinic", "name:ja": "\u7802\u5ddd\u5185\u79d1\u533b\u9662", "wheelchair": "yes"}}, {"type": "node", "id": 1809909143, "lat": 29.9139692, "lon": 121.8456621, "tags": {"amenity": "hospital", "name": "\u5b81\u6ce2\u6e2f\u804c\u5de5\u533b\u9662\u5317\u4ed1\u536b\u751f\u6240"}}, {"type": "node", "id": 1815541856, "lat": 29.9068908, "lon": 121.8239586, "tags": {"amenity": "hospital", "name": "\u957f\u6d77\u7efc\u5408\u533b\u9662"}}, {"type": "node", "id": 1817067652, "lat": 29.9238903, "lon": 121.8254887, "tags": {"amenity": "hospital", "name": "\u5317\u4ed1\u533a\u4e2d\u533b\u9662"}}, {"type": "node", "id": 1818458409, "lat": 29.8794038, "lon": 121.9105844, "tags": {"amenity": "hospital", "name": "\u67f4\u6865\u533b\u9662"}}, {"type": "node", "id": 1939706251, "lat": 29.9577473, "lon": 120.5173055, "tags": {"amenity": "hospital", "healthcare": "hospital", "name": "\u5170\u4ead\u9547\u4eba\u6c11\u533b\u9662", "name:en": "People's Hospital of Lanting Town ", "name:zh": "\u5170\u4ead\u9547\u4eba\u6c11\u533b\u9662"}}, {"type": "node", "id": 1993232489, "lat": 26.3222675, "lon": 127.7657934, "tags": {"KSJ2:AAC": "47326", "KSJ2:AAC_V": "\u6c96\u7e04\u770c\u4e2d\u982d\u90e1\u5317\u8c37\u753a", "KSJ2:APF": "4", "KSJ2:APF_V": "\u6c11\u9593", "KSJ2:PCA": "17", "KSJ2:PCA_V": "\u75c5\u9662", "KSJ2:PCI": "17001", "KSJ2:PCI_V": "\u4e00\u822c\u75c5\u9662\u3001\u56fd\u7acb\u7642\u990a\u6240\u3001\u533b\u7642\u30bb\u30f3\u30bf\u30fc", "KSJ2:RCN": "\u6570\u5024\u5730\u56f3", "addr:street": "\u5b57\u6851\u6c5f399-1", "amenity": "hospital", "bus": "yes", "highway": "bus_stop", "name": "\u3061\u3085\u3046\u3056\u3093\u75c5\u9662", "name:en": "Chuzan Hospital", "name:ja": "\u3061\u3085\u3046\u3056\u3093\u75c5\u9662", "note": "National-Land Numerical Information 2006, MLIT Japan", "note:ja": "\u56fd\u571f\u6570\u5024\u60c5\u5831(\u6cb3\u5ddd\u30c7\u30fc\u30bf)\u5e73\u621018\u5e74\u56fd\u571f\u4ea4\u901a\u7701", "public_transport": "platform", "source": "survey;MLIT Japan", "source_ref": "http://nlftp.mlit.go.jp/ksj/jpgis/datalist/KsjTmplt-P02-v2_0.html", "survey:date": "2012-10-01"}}, {"type": "node", "id": 2022888048, "lat": 25.0614695, "lon": 121.5316526, "tags": {"amenity": "hospital", "healthcare": "hospital", "name": "\u6cf0\u5b89\u91ab\u9662"}}, {"type": "node", "id": 2043420086, "lat": 23.9206318, "lon": 120.5474229, "tags": {"amenity": "hospital", "designation": "\u54e1\u751f\u91ab\u9662\u9644\u8a2d\u91ab\u9662", "healthcare": "hospital", "name": "\u5b8f\u5143\u91ab\u9662"}}, {"type": "node", "id": 2051204038, "lat": 24.078463, "lon": 120.5428484, "tags": {"amenity": "hospital", "name": "\u8000\u5b89\u91ab\u9662"}}, {"type": "node", "id": 2085900124, "lat": 23.9553328, "lon": 120.5701224, "tags": {"amenity": "hospital", "healthcare": "hospital", "name": "\u5b8f\u4ec1\u91ab\u9662"}}, {"type": "node", "id": 2088030900, "lat": 23.953673, "lon": 120.5747662, "tags": {"amenity": "hospital", "emergency": "yes", "healthcare": "hospital", "name": "\u54e1\u69ae\u91ab\u9662"}}, {"type": "node", "id": 2090847087, "lat": 24.1157082, "lon": 120.4957453, "tags": {"amenity": "hospital", "name": "\u9806\u5929\u91ab\u9662"}}, {"type": "node", "id": 2093336298, "lat": 23.893666, "lon": 120.3633298, "tags": {"amenity": "hospital", "name": "\u5f70\u5316\u57fa\u7763\u6559\u91ab\u9662\u4e8c\u6797\u5206\u9662"}}, {"type": "node", "id": 2162041800, "lat": 24.9561894, "lon": 121.2099686, "tags": {"amenity": "hospital", "emergency": "no", "healthcare": "hospital", "name": "\u5b8b\u4fca\u5b8f\u5a66\u5e7c\u91ab\u9662"}}, {"type": "node", "id": 2162041802, "lat": 24.9481842, "lon": 121.2115994, "tags": {"amenity": "hospital", "healthcare": "hospital", "name": "\u79c9\u5764\u5a66\u5e7c\u91ab\u9662"}}, {"type": "node", "id": 2162043731, "lat": 24.953369, "lon": 121.2220707, "tags": {"amenity": "hospital", "healthcare": "hospital", "name": "\u627f\u5b89\u91ab\u9662"}}, {"type": "node", "id": 2214858464, "lat": 26.341387, "lon": 127.8231024, "tags": {"amenity": "hospital"}}, {"type": "node", "id": 2400157273, "lat": 29.9601555, "lon": 120.528813, "tags": {"amenity": "hospital", "healthcare": "hospital", "name": "\u5927\u592b\u8bca\u6240"}}, {"type": "node", "id": 2401070551, "lat": 22.7111887, "lon": 120.2956585, "tags": {"amenity": "hospital", "emergency": "yes", "healthcare": "hospital", "name": "\u984f\u5a01\u88d5\u91ab\u9662"}}, {"type": "node", "id": 2471771755, "lat": 29.9050531, "lon": 121.856584, "tags": {"amenity": "hospital", "name": "\u5317\u4ed1\u533a\u5987\u5e7c\u4fdd\u5065\u9662"}}, {"type": "node", "id": 2508997030, "lat": 29.934586, "lon": 120.5697336, "tags": {"amenity": "hospital", "healthcare": "hospital", "name": "\u9274\u6e56\u9547\u793e\u533a\u536b\u751f\u670d\u52a1\u4e2d\u5fc3"}}, {"type": "node", "id": 2520647415, "lat": 24.1398923, "lon": 120.6495059, "tags": {"amenity": "hospital", "name": "\u53cb\u4ec1\u91ab\u9662"}}, {"type": "node", "id": 2525017221, "lat": 24.2693708, "lon": 123.8802925, "tags": {"amenity": "hospital", "name": "\u5927\u539f\u8a3a\u7642\u6240", "name:en": "\u014chara Clinic", "name:ja-Latn": "\u014chara Shinry\u014djo", "name:ja_kana": "\u304a\u304a\u306f\u3089\u3057\u3093\u308a\u3087\u3046\u3058\u3087"}}, {"type": "node", "id": 2526366661, "lat": 28.6485525, "lon": 121.2684081, "tags": {"amenity": "hospital", "healthcare": "hospital", "name": "\u9632\u75ab\u7ad9"}}, {"type": "node", "id": 2594649876, "lat": 24.9574178, "lon": 121.2036573, "tags": {"addr:city": "\u6843\u5712\u5e02", "addr:country": "TW", "addr:district": "\u4e2d\u58e2\u5340", "addr:housename": "\u7950\u6c11\u91ab\u9662", "addr:housenumber": "180", "addr:street": "\u6c11\u65cf\u8def\u4e8c\u6bb5", "amenity": "hospital", "healthcare": "hospital", "name": "\u7950\u6c11\u91ab\u9662"}}, {"type": "node", "id": 2614152982, "lat": 28.106863, "lon": 120.9673978, "tags": {"addr:city": "\u4e50\u6e05\u5e02", "addr:housename": "\u4e50\u6e05\u5e02\u4eba\u6c11\u533b\u9662", "addr:housenumber": "318\u53f7", "addr:street": "\u6e05\u8fdc\u8def", "amenity": "hospital", "name": "\u4e50\u6e05\u5e02\u4eba\u6c11\u533b\u9662"}}, {"type": "node", "id": 2630657579, "lat": 25.0168281, "lon": 121.4563572, "tags": {"amenity": "hospital", "healthcare": "hospital", "name": "\u677f\u65b0\u91ab\u9662"}}, {"type": "node", "id": 2632454601, "lat": 24.2428493, "lon": 120.5611553, "tags": {"amenity": "hospital", "name": "\u7ae5\u7d9c\u5408\u91ab\u9662", "wikidata": "Q16929172", "wikipedia": "zh:\u7ae5\u7d9c\u5408\u91ab\u9662", "wikipedia:zh": "\u7ae5\u7d9c\u5408\u91ab\u9662"}}, {"type": "node", "id": 2697598178, "lat": 29.210162, "lon": 120.0116457, "tags": {"amenity": "hospital", "healthcare": "hospital", "name": "\u4e49\u4e4c\u4e8c\u9662"}}, {"type": "node", "id": 2792930658, "lat": 22.9902881, "lon": 120.1988495, "tags": {"amenity": "hospital", "healthcare": "hospital", "name": "\u6c38\u548c\u91ab\u9662"}}, {"type": "node", "id": 2861447050, "lat": 29.7934763, "lon": 121.6357133, "tags": {"amenity": "hospital", "name": "Qianhu hospital", "name:zh": "\u94b1\u6e56\u533b\u9662"}}, {"type": "node", "id": 2881830823, "lat": 24.551601, "lon": 120.82066, "tags": {"amenity": "hospital", "healthcare": "hospital", "name": "\u65b0\u751f\u91ab\u9662"}}, {"type": "node", "id": 2967352128, "lat": 23.799911, "lon": 120.7141044, "tags": {"amenity": "hospital", "emergency": "yes", "name": "\u7af9\u5c71\u79c0\u50b3\u91ab\u9662\u6025\u8a3a\u8655"}}, {"type": "node", "id": 2978413248, "lat": 25.0038084, "lon": 121.5119881, "tags": {"amenity": "hospital", "healthcare": "hospital", "name": "\u6c38\u548c\u5fa9\u5eb7\u91ab\u9662"}}, {"type": "node", "id": 3049890627, "lat": 24.0648956, "lon": 120.6988646, "tags": {"addr:city": "\u53f0\u4e2d\u5e02", "addr:country": "TW", "addr:district": "\u9727\u5cf0\u5340", "addr:full": "413\u53f0\u7063\u53f0\u4e2d\u5e02\u9727\u5cf0\u5340\u4e2d\u6b63\u8def928\u865f", "addr:housenumber": "928", "addr:postcode": "413", "addr:street": "\u4e2d\u6b63\u8def", "amenity": "hospital", "healthcare": "hospital", "name": "\u6cf0\u5b89\u91ab\u9662", "phone": "+886 4 2339 3015"}}, {"type": "node", "id": 3049890935, "lat": 24.0698889, "lon": 120.6992467, "tags": {"addr:city": "\u81fa\u4e2d\u5e02", "addr:country": "TW", "addr:district": "\u9727\u5cf0\u5340", "addr:full": "41341\u81fa\u4e2d\u5e02\u9727\u5cf0\u5340\u4e2d\u6b63\u8def1129\u865f", "addr:housenumber": "1129", "addr:postcode": "41341", "addr:street": "\u4e2d\u6b63\u8def", "amenity": "hospital", "name": "\u9727\u5cf0\u6f84\u6e05\u91ab\u9662", "phone": "+886 4 23397900"}}, {"type": "node", "id": 3204028773, "lat": 25.0545582, "lon": 121.6067548, "tags": {"amenity": "hospital", "emergency": "no", "healthcare": "hospital", "name": "\u5357\u6e2f\u9580\u8a3a\u90e8", "operator": "\u81fa\u5317\u5e02\u7acb\u806f\u5408\u91ab\u9662"}}, {"type": "node", "id": 3204028774, "lat": 25.0575853, "lon": 121.6119216, "tags": {"amenity": "hospital", "name": "\u5357\u8edf\u9580\u8a3a\u90e8", "operator": "\u81fa\u5317\u5e02\u7acb\u806f\u5408\u91ab\u9662"}}, {"type": "node", "id": 3259855995, "lat": 22.6651442, "lon": 120.3035288, "tags": {"addr:city": "\u9ad8\u96c4\u5e02", "addr:country": "TW", "addr:district": "\u5de6\u71df\u5340", "addr:housenumber": "354", "addr:postcode": "81358", "addr:street": "\u535a\u611b\u4e8c\u8def", "amenity": "hospital", "healthcare": "hospital", "name": "\u67cf\u4ec1\u91ab\u9662", "name:en": "Pojen Hospital", "name:zh": "\u67cf\u4ec1\u91ab\u9662"}}, {"type": "node", "id": 3262810293, "lat": 22.6722991, "lon": 120.2982742, "tags": {"addr:city": "\u9ad8\u96c4\u5e02", "addr:country": "TW", "addr:district": "\u5de6\u71df\u5340", "addr:housenumber": "328-1", "addr:postcode": "81355", "addr:street": "\u65b0\u838a\u4e00\u8def", "amenity": "hospital", "healthcare": "hospital", "name": "\u5049\u4ec1\u5065\u5eb7\u8a3a\u6240", "opening_hours": "mo-su 09:30-22:20", "website": "http://woodpeckers.com.tw/"}}, {"type": "node", "id": 3292775593, "lat": 25.0184062, "lon": 121.464544, "tags": {"addr:city": "\u65b0\u5317\u5e02", "addr:country": "TW", "addr:district": "\u677f\u6a4b\u5340", "addr:housenumber": "269", "addr:postcode": "22050", "addr:street": "\u6587\u5316\u8def\u4e00\u6bb5", "amenity": "hospital", "healthcare": "hospital", "name": "\u677f\u82f1\u91ab\u9662", "operator": "\u4e2d\u82f1\u91ab\u7642\u793e\u5718\u6cd5\u4eba", "phone": "+886-2-82513923"}}, {"type": "node", "id": 3314190129, "lat": 28.6492486, "lon": 121.2638648, "tags": {"amenity": "hospital", "capacity": "18", "healthcare": "hospital", "name": "\u7ea2\u5341\u5b57"}}, {"type": "node", "id": 3328449233, "lat": 25.0018801, "lon": 121.4985466, "tags": {"amenity": "hospital", "healthcare": "hospital", "name": "\u6021\u548c\u91ab\u9662", "wheelchair": "yes"}}, {"type": "node", "id": 3345510824, "lat": 28.556802, "lon": 121.2578101, "tags": {"amenity": "hospital", "name": "\u9662\u6865\u4e2d\u5fc3\u536b\u751f\u9662"}}, {"type": "node", "id": 3349344418, "lat": 28.6477838, "lon": 121.2392192, "tags": {"amenity": "hospital", "name": "\u9ec4\u5ca9\u4e09\u533b\u9662"}}, {"type": "node", "id": 3370276660, "lat": 29.9648276, "lon": 121.4407588, "tags": {"amenity": "hospital", "emergency": "yes", "name": "Woman & Children Hospital"}}, {"type": "node", "id": 3398190879, "lat": 24.1450539, "lon": 120.714113, "tags": {"addr:city": "\u53f0\u4e2d\u5e02", "addr:country": "TW", "addr:district": "\u592a\u5e73\u5340", "addr:housenumber": "420", "addr:postcode": "411", "addr:street": "\u5b9c\u660c\u8def", "amenity": "hospital", "healthcare": "hospital", "name": "\u8ce2\u5fb7\u91ab\u9662", "name:en": "Cender Hospital", "name:zh": "\u8ce2\u5fb7\u91ab\u9662", "phone": "+886 4 2273-2551", "website": "http://www.cender.url.tw/"}}, {"type": "node", "id": 3516757197, "lat": 29.3350235, "lon": 120.1213545, "tags": {"amenity": "hospital", "name": "\u6d59\u6c5f\u5927\u5b66\u533b\u5b66\u9662\u9644\u5c5e\u7b2c\u56db\u533b\u9662", "wikidata": "Q20062742"}}, {"type": "node", "id": 3555258802, "lat": 24.5605515, "lon": 120.8220694, "tags": {"addr:city": "\u82d7\u6817\u7e23", "addr:country": "TW", "addr:district": "\u82d7\u6817\u5e02", "addr:housenumber": "416", "addr:province": "\u53f0\u7063\u7701", "addr:street": "\u4e2d\u6b63\u8def", "amenity": "hospital", "building:levels": "6", "healthcare": "hospital", "name": "\u5927\u5ddd\u91ab\u9662"}}, {"type": "node", "id": 3662015857, "lat": 25.1158035, "lon": 121.5232832, "tags": {"amenity": "hospital", "name": "\u6025\u8a3a\u90e8", "name:en": "Department of Emergency Medicine", "name:zh": "\u6025\u8a3a\u90e8"}}, {"type": "node", "id": 3770068920, "lat": 24.1273383, "lon": 120.7155384, "tags": {"addr:city": "\u81fa\u4e2d\u5e02", "addr:country": "TW", "addr:district": "\u592a\u5e73\u5340", "addr:housenumber": "92", "addr:postcode": "411", "addr:street": "\u4e2d\u8208\u8def", "amenity": "hospital", "healthcare": "hospital", "name": "\u592a\u5e73\u6f84\u6e05\u91ab\u9662"}}, {"type": "node", "id": 3856927986, "lat": 25.0644863, "lon": 121.5258219, "tags": {"addr:city": "\u81fa\u5317\u5e02", "addr:country": "TW", "addr:district": "\u4e2d\u5c71\u5340", "addr:full": "\u53f0\u5317\u5e02\u4e2d\u5c71\u5340\u6797\u68ee\u5317\u8def561\u865f\u4e4b7", "addr:housenumber": "561\u865f\u4e4b7", "addr:postcode": "104", "addr:street": "\u6797\u68ee\u5317\u8def", "amenity": "hospital", "healthcare": "hospital", "name": "\u6176\u751f\u91ab\u9662", "phone": "+886-2-2598-3456"}}, {"type": "node", "id": 3860539101, "lat": 23.9005535, "lon": 120.3728314, "tags": {"amenity": "hospital", "name": "\u5b8b\u5fd7\u61ff\u91ab\u9662"}}, {"type": "node", "id": 3961911873, "lat": 24.2169346, "lon": 120.6664329, "tags": {"amenity": "hospital", "name": "\u6e05\u6cc9\u91ab\u9662"}}, {"type": "node", "id": 4043500353, "lat": 28.8713461, "lon": 121.1742686, "tags": {"amenity": "hospital", "healthcare": "hospital", "name": "\u517b\u62a4\u533b\u7597\u4e2d\u5fc3"}}, {"type": "node", "id": 4055740244, "lat": 24.4681383, "lon": 123.0041239, "tags": {"amenity": "hospital", "healthcare": "hospital", "name": "\u4e0e\u90a3\u56fd\u753a\u7acb\u8a3a\u7642\u6240", "name:en": "Yonaguni Town Clinic"}}, {"type": "node", "id": 4107330193, "lat": 23.5774293, "lon": 120.3012852, "tags": {"amenity": "hospital", "healthcare": "hospital", "name": "\u4ec1\u4e00\u91ab\u9662"}}, {"type": "node", "id": 4115974389, "lat": 26.3225376, "lon": 127.8289687, "tags": {"addr:city": "\u6c96\u7e04\u5e02", "addr:housenumber": "5-15-11", "addr:postcode": "904-2171", "addr:street": "\u9ad8\u539f", "amenity": "hospital", "name": "\u611b\u8056\u30af\u30ea\u30cb\u30c3\u30af", "name:en": "Aisei Hospital", "operator": "\u533b\u7642\u6cd5\u4eba\u3000\u5b89\u5fc3\u4f1a"}}, {"type": "node", "id": 4115974390, "lat": 26.3345082, "lon": 127.8029329, "tags": {"addr:city": "\u6c96\u7e04\u5e02", "addr:housenumber": "19-1", "addr:postcode": "904-0014", "addr:street": "\u4ef2\u5b97\u6839\u753a", "amenity": "hospital", "name": "\u30b3\u30b6\u30af\u30ea\u30cb\u30c3\u30af", "name:en": "Koza Clinic", "operator": "\u533b\u7642\u6cd5\u4eba\u304b\u306a\u306e\u4f1a"}}, {"type": "node", "id": 4115974391, "lat": 26.3636188, "lon": 127.8170415, "tags": {"addr:city": "\u7e04\u5e02", "addr:housenumber": "6-25-15", "addr:postcode": "904-2143", "addr:street": "\u77e5\u82b1", "amenity": "hospital", "name": "\u3061\u306a\u3070\u30af\u30ea\u30cb\u30c3\u30af", "name:en": "Chibana Clinic", "name:ja": "\u3061\u3070\u306a\u30af\u30ea\u30cb\u30c3\u30af", "operator": "\u793e\u4f1a\u533b\u7642\u6cd5\u4eba"}}, {"type": "node", "id": 4115974392, "lat": 26.3177572, "lon": 127.8246819, "tags": {"addr:city": "\u6c96\u7e04\u5e02", "addr:housenumber": "7-23-14", "addr:postcode": "904-2171", "addr:street": "\u9ad8\u539f", "amenity": "hospital", "name": "\u4ef2\u5b97\u6839\u30af\u30ea\u30cb\u30c3\u30af", "name:en": "Nakasone Clinic", "operator": "\u533b\u7642\u6cd5\u4eba\u5eb7\u967d\u4f1a"}}, {"type": "node", "id": 4115974393, "lat": 26.2629232, "lon": 127.7622138, "tags": {"addr:city": "\u5b9c\u91ce\u6e7e\u5e02", "addr:housenumber": "1-29-1", "addr:postcode": "901-2212", "addr:street": "\u9577\u7530", "amenity": "hospital", "name": "\u304a\u3084\u304b\u308f\u30af\u30ea\u30cb\u30c3\u30af", "name:en": "Oyakawa Clinic"}}, {"type": "node", "id": 4115974401, "lat": 26.2618681, "lon": 127.7287977, "tags": {"addr:city": "\u5b9c\u91ce\u6e7e\u5e02", "addr:housenumber": "4-25-15", "addr:postcode": "901-2226", "addr:street": "\u5609\u6570", "amenity": "hospital", "name": "\u304b\u308a\u3086\u3057\u30af\u30ea\u30cb\u30c3\u30af", "name:en": "Kariyushi Clinic"}}, {"type": "node", "id": 4115974402, "lat": 26.2875259, "lon": 127.7453819, "tags": {"addr:city": "\u5b9c\u91ce\u6e7e\u5e02", "addr:housenumber": "7-7-22", "addr:postcode": "901-2223", "amenity": "hospital", "name": "\u30af\u30ea\u30cb\u30c3\u30af\u304e\u306e\u308f\u3093", "name:en": "Ginowan Clinic"}}, {"type": "node", "id": 4115974403, "lat": 26.2551338, "lon": 127.7395488, "tags": {"addr:city": "\u5b9c\u91ce\u6e7e\u5e02", "addr:housenumber": "2\u4e01\u76ee2\u22121\u3001\u5e83\u6804\u30e1\u30c7\u30a3\u30ab\u30eb\u30d3\u30eb 2F", "addr:postcode": "901-2226", "addr:street": "\u5609\u6570", "amenity": "hospital", "healthcare": "hospital", "name": "\u5149\u30af\u30ea\u30cb\u30c3\u30af", "name:en": "Hikari Clinic"}}, {"type": "node", "id": 4115974404, "lat": 26.263939, "lon": 127.7440132, "tags": {"addr:city": "\u5b9c\u91ce\u6e7e\u5e02", "addr:housenumber": "3\u4e01\u76ee19\u22128", "addr:postcode": "901-2215", "addr:street": "\u771f\u6804\u539f", "amenity": "hospital", "name": "\u307e\u3048\u306f\u3089\u5185\u79d1", "name:en": "Maehara Internal Medicine Clinic"}}, {"type": "node", "id": 4115974405, "lat": 26.4190344, "lon": 127.8203657, "tags": {"addr:city": "\u3046\u308b\u307e\u5e02", "addr:housenumber": "431", "addr:postcode": "904-1115", "addr:street": "\u77f3\u5ddd\u4f0a\u6ce2", "amenity": "hospital", "name": "\u4f0a\u6ce2\u30af\u30ea\u30cb\u30c3\u30af", "name:en": "Iha Clinic", "operator": "\u533b\u7642\u6cd5\u4eba"}}, {"type": "node", "id": 4115974412, "lat": 26.3290024, "lon": 127.773609, "tags": {"addr:city": "\u4e2d\u982d\u90e1\u5317\u8c37\u753a", "addr:housenumber": "\uff16\uff13\uff10\u2212\uff17", "addr:postcode": "904-0101", "addr:street": "\u4e0a\u52e2\u982d", "amenity": "hospital", "name": "\u30a6\u30a7\u30eb\u30e9\u30a4\u30d5\u30af\u30ea\u30cb\u30c3\u30af\u305f\u307e\u304d\u5185\u79d1"}}, {"type": "node", "id": 4115974415, "lat": 26.4249725, "lon": 127.7307257, "tags": {"addr:city": "\u6c96\u7e04\u770c\u4e2d\u982d\u90e1\u8aad\u8c37\u6751\u702c\u540d\u6ce2", "addr:housenumber": "\u4e2d\u982d\u90e1\u8aad\u8c37\u6751\u702c\u540d\u6ce2\uff18\uff19\uff14\u2212\uff12", "addr:postcode": "904-0325", "addr:street": "\u702c\u540d\u6ce2", "amenity": "hospital", "healthcare": "hospital", "name": "\u307e\u3064\u3057\u307e\u30af\u30ea\u30cb\u30c3\u30af", "name:en": "Matsushima Clinic", "phone": "098-958-6888", "website": "http://hosp.pref.okinawa.jp"}}, {"type": "node", "id": 4115974416, "lat": 26.3002282, "lon": 127.7933884, "tags": {"addr:city": "\u6c96\u7e04\u770c\u5317\u4e2d\u57ce\u6751\u5b57", "addr:housenumber": "360\u756a\uff11", "addr:postcode": "901-2311", "addr:street": "\u559c\u820e\u5834", "amenity": "hospital", "name": "\u30a2\u30ac\u30da\u4f1a\u3000\u304d\u305f\u306a\u304b\u3050\u3059\u304f", "operator": "\u533b\u7642\u6cd5\u4eba\u30d5\u30a1\u30df\u30ea\u30fc\u30af\u30ea\u30cb\u30c3\u30af"}}, {"type": "node", "id": 4229177810, "lat": 24.1312016, "lon": 120.7196382, "tags": {"addr:city": "\u53f0\u4e2d\u5e02", "addr:country": "TW", "addr:district": "\u592a\u5e73\u5340", "addr:housenumber": "9", "addr:postcode": "411", "addr:street": "\u6c38\u5e73\u8def\u4e00\u6bb5", "amenity": "hospital", "emergency": "no", "healthcare": "hospital", "name": "\u9577\u5b89\u91ab\u9662", "name:en": "Everan Hospital", "name:zh": "\u9577\u5b89\u91ab\u9662", "operator": "\u9577\u5b89\u91ab\u9662", "phone": "+886 4-3611-3611", "website": "http://www.everanhospital.com.tw/"}}, {"type": "node", "id": 4356714291, "lat": 26.2068066, "lon": 127.6929098, "tags": {"amenity": "hospital", "healthcare": "hospital", "internet_access": "wlan", "name": "\u65e5\u672c\u8d64\u5341\u5b57\u75c5\u9662", "name:en": "Japan Red Cross Hospital", "name:ja": "\u65e5\u672c\u8d64\u5341\u5b57\u75c5\u9662", "opening_hours": "24/7"}}, {"type": "node", "id": 4365013335, "lat": 24.0610337, "lon": 120.438176, "tags": {"amenity": "hospital", "name": "\u9e7f\u57fa\u5065\u5eb7\u4fc3\u9032\u4e2d\u5fc3"}}, {"type": "node", "id": 4384207891, "lat": 26.1958426, "lon": 127.6765585, "tags": {"amenity": "hospital", "name": "\u5927\u7530\u6574\u5f62\u5916\u79d1", "name:en": "Ota Orthopedic Clinic", "name:ja": "\u5927\u7530\u6574\u5f62\u5916\u79d1"}}, {"type": "node", "id": 4389825890, "lat": 23.9605417, "lon": 120.6819227, "tags": {"addr:city": "\u5357\u6295\u7e23", "addr:country": "TW", "addr:district": "\u8349\u5c6f\u93ae", "addr:housenumber": "200", "addr:postcode": "542", "addr:province": "\u53f0\u7063\u7701", "addr:street": "\u592a\u5e73\u8def\u4e00\u6bb5", "amenity": "hospital", "emergency": "yes", "healthcare": "hospital", "name": "\u4f51\u6c11\u91ab\u9662", "name:en": "Yumin Medical Corporation Yumin Hospital", "name:zh": "\u4f51\u6c11\u91ab\u9662", "official_name": "\u5f70\u5316\u57fa\u7763\u6559\u91ab\u7642\u5408\u4f5c\u91ab\u9662-\u4f51\u6c11\u91ab\u7642\u793e\u5718\u6cd5\u4eba\u4f51\u6c11\u91ab\u9662", "operator": "\u4f51\u6c11\u91ab\u7642\u793e\u5718\u6cd5\u4eba\u4f51\u6c11\u91ab\u9662", "phone": "+886 49 235 8151", "website": "http://www.yumin.com.tw/"}}, {"type": "node", "id": 4483303090, "lat": 25.0930194, "lon": 121.5199961, "tags": {"amenity": "hospital", "healthcare": "hospital", "name": "\u53f0\u5317\u5e02\u7acb\u806f\u5408\u91ab\u9662\u58eb\u6797\u9580\u8a3a\u5340", "wheelchair": "yes"}}, {"type": "node", "id": 4577315694, "lat": 26.3665319, "lon": 127.8259156, "tags": {"addr:housenumber": "\u6c96\u7e04\u770c\u6c96\u7e04\u5e02\u767b\u5ddd610", "addr:postcode": "904-2195", "amenity": "hospital", "name": "\u4e2d\u982d\u75c5\u9662", "name:en": "Keiaikai Nakagami Hospital", "name:ja": "\u656c\u611b\u4f1a\u4e2d\u982d\u75c5\u9662", "phone": "098-939-1300", "website": "https://nakagami.or.jp/"}}, {"type": "node", "id": 4586418806, "lat": 26.3392104, "lon": 126.8051496, "tags": {"amenity": "hospital", "name": "\u4e45\u7c73\u5cf6\u753a\u7acb\u4e2d\u592e\u533b\u9662", "name:en": "Kumejima Town Central Clinic", "operator": "\u4e45\u7c73\u5cf6\u753a"}}, {"type": "node", "id": 4586421705, "lat": 26.339308, "lon": 126.8048393, "tags": {"addr:street": "\u4e45\u7c73\u5cf6\u7a7a\u6e2f\u771f\u6cca\u7dda", "amenity": "hospital", "name": "\u4e45\u7c73\u5cf6\u753a\u7acb\u4ef2\u91cc\u6b6f\u79d1\u533b\u9662", "name:en": "Kumejima Town Nakazato Dental Clinic", "operator": "\u4e45\u7c73\u5cf6\u753a"}}, {"type": "node", "id": 4649245510, "lat": 23.8579214, "lon": 120.5879642, "tags": {"amenity": "hospital", "healthcare": "hospital", "name": "\u4ec1\u548c\u91ab\u9662"}}, {"type": "node", "id": 4678210890, "lat": 22.9897693, "lon": 120.2115865, "tags": {"addr:city": "\u81fa\u5357\u5e02", "addr:country": "TW", "addr:district": "\u6771\u5340", "addr:housenumber": "10", "addr:street": "\u5317\u9580\u8def\u4e00\u6bb5", "amenity": "hospital", "healthcare": "hospital", "name": "\u4ec1\u611b\u91ab\u9662", "official_name": "\u4ec1\u611b\u91ab\u7642\u793e\u5718\u6cd5\u4eba\u4ec1\u611b\u91ab\u9662"}}, {"type": "node", "id": 4710328424, "lat": 24.1303984, "lon": 120.7054389, "tags": {"amenity": "hospital", "healthcare": "hospital", "name": "\u53f0\u65b0\u91ab\u9662"}}, {"type": "node", "id": 4748285621, "lat": 25.0032083, "lon": 121.5020088, "tags": {"addr:city": "\u65b0\u5317\u5e02", "addr:country": "TW", "addr:district": "\u4e2d\u548c\u5340", "addr:housenumber": "140", "addr:postcode": "235", "addr:street": "\u4e2d\u5c71\u8def\u4e8c\u6bb5", "amenity": "hospital", "healthcare": "hospital", "name": "\u4e2d\u7965\u91ab\u9662\u9644\u8a2d\u5c45\u5bb6\u8b77\u7406\u6240", "name:zh": "\u4e2d\u7965\u91ab\u9662\u9644\u8a2d\u5c45\u5bb6\u8b77\u7406\u6240"}}, {"type": "node", "id": 4779328195, "lat": 22.6122516, "lon": 120.3240946, "tags": {"addr:city": "\u9ad8\u96c4\u5e02", "addr:country": "TW", "addr:district": "\u524d\u93ae\u5340", "addr:floor": "1", "addr:housenumber": "100", "addr:postcode": "806", "addr:street": "\u4e8c\u8056\u4e00\u8def", "amenity": "hospital", "description": "\u96fb\u8a71 07-7166662 \u7db2\u5740 https://www.facebook.com/h2biomed/", "name": "\u6c2b\u6d3b\u5065\u5eb7\u9928", "operator": "\u6c2b\u6d3b\u79d1\u6280\u6709\u9650\u516c\u53f8"}}, {"type": "node", "id": 4854838884, "lat": 23.3036565, "lon": 120.3167013, "tags": {"amenity": "hospital", "healthcare": "hospital", "name": "\u65b0\u8208\u91ab\u9662"}}, {"type": "node", "id": 5047586876, "lat": 26.3169429, "lon": 127.7970112, "tags": {"amenity": "hospital", "emergency": "yes", "healthcare": "hospital", "name": "\u4e2d\u90e8\u5fb3\u6d32\u4f1a\u75c5\u9662", "name:en": "Chubu Tokushukai Hospital", "website": "http://www.cyutoku.or.jp"}}, {"type": "node", "id": 5061686948, "lat": 25.0493566, "lon": 121.5683513, "tags": {"addr:city": "\u53f0\u5317\u5e02", "addr:country": "TW", "addr:district": "\u677e\u5c71\u5340", "addr:full": "\u53f0\u5317\u5e02\u677e\u5c71\u5340\u516b\u5fb7\u8def\u56db\u6bb5355\u865f", "addr:housenumber": "355", "addr:postcode": "105", "addr:street": "\u516b\u5fb7\u8def\u56db\u6bb5", "amenity": "hospital", "healthcare": "hospital", "name": "\u57f9\u9748\u91ab\u9662", "phone": "+886-2-2760-6116", "website": "http://www.peiling.com.tw/taipei/"}}, {"type": "node", "id": 5136630182, "lat": 24.254167, "lon": 120.5383229, "tags": {"amenity": "hospital", "name": "\u7ae5\u7d9c\u5408\u91ab\u9662\u9644\u8a2d\u8b77\u7406\u4e4b\u5bb6"}}, {"type": "node", "id": 5255488621, "lat": 29.2908315, "lon": 120.0763345, "tags": {"amenity": "hospital", "healthcare": "hospital", "name:en": "Yiwu central hospital"}}, {"type": "node", "id": 5306594112, "lat": 22.7093767, "lon": 120.2930738, "tags": {"amenity": "hospital", "healthcare": "hospital", "name": "\u4f51\u5b89\u4e2d\u91ab\u91ab\u9662"}}, {"type": "node", "id": 5350686806, "lat": 25.1291236, "lon": 121.7387853, "tags": {"addr:city": "\u57fa\u9686\u5e02", "addr:country": "TW", "addr:district": "\u4ec1\u611b\u5340", "addr:housenumber": "39", "addr:postcode": "20042", "addr:province": "\u53f0\u7063\u7701", "addr:street": "\u5b5d\u4e8c\u8def", "amenity": "hospital", "emergency": "no", "healthcare": "hospital", "healthcare:speciality": "general", "name": "\u4e09\u8ecd\u7e3d\u91ab\u9662\u57fa\u9686\u5206\u9662\u5b5d\u4e8c\u9662\u5340", "operator": "\u4e09\u8ecd\u7e3d\u91ab\u9662", "phone": "+886 2 2423-1730"}}, {"type": "node", "id": 5440870841, "lat": 23.464712, "lon": 120.4679817, "tags": {"amenity": "hospital", "healthcare": "hospital", "name": "\u52d5\u7269\u6536\u5bb9\u4e2d\u5fc3"}}, {"type": "node", "id": 5504431648, "lat": 22.4665522, "lon": 120.4510797, "tags": {"amenity": "hospital", "healthcare": "hospital", "name": "\u674e\u6fa4\u91ab\u9662"}}, {"type": "node", "id": 5713762889, "lat": 22.6109681, "lon": 120.5680499, "tags": {"addr:city": "\u5c4f\u6771\u7e23", "addr:country": "TW", "addr:district": "\u5167\u57d4\u9109", "addr:housenumber": "7", "addr:postcode": "912", "addr:province": "\u53f0\u7063\u7701", "addr:street": "\u4ec1\u548c\u8def", "amenity": "hospital", "healthcare": "hospital", "name": "\u9577\u751f\u85e5\u5c40", "operator": "\u9577\u751f\u85e5\u5c40"}}, {"type": "node", "id": 5885017090, "lat": 24.7993361, "lon": 125.2763354, "tags": {"addr:housenumber": "\u5bae\u53e4\u5cf6\u5e02\u5e73\u826f\u5b57\u4e0b\u91cc427\u22121", "addr:postcode": "906-0013", "amenity": "hospital", "healthcare": "hospital", "name": "\u6c96\u7e04\u770c\u7acb\u5bae\u53e4\u75c5\u9662", "name:en": "Okinawa Prefecture Miyako Hospital", "phone": "098-072-3151", "website": "http://hosp.pref.okinawa.jp", "wikidata": "Q11552794", "wikipedia": "ja:\u6c96\u7e04\u770c\u7acb\u5bae\u53e4\u75c5\u9662"}}, {"type": "node", "id": 5885018498, "lat": 26.674703, "lon": 127.970983, "tags": {"amenity": "hospital", "name": "\u306f\u308b\u304b\u52d5\u7269\u75c5\u9662", "name:en": "Haruka Animal Hospital"}}, {"type": "node", "id": 5985032816, "lat": 22.5920545, "lon": 120.325157, "tags": {"amenity": "hospital", "healthcare": "hospital", "name": "\u60e0\u5fb7\u91ab\u9662", "name:en": "Huide Hospital", "name:zh": "\u60e0\u5fb7\u91ab\u9662", "official_name": "\u9ad8\u96c4\u5e02\u9cf3\u5c71\u5340\u60e0\u5fb7\u91ab\u9662"}}, {"type": "node", "id": 6024282261, "lat": 25.0198152, "lon": 121.4662163, "tags": {"addr:city": "\u65b0\u5317\u5e02", "addr:country": "TW", "addr:district": "\u677f\u6a4b\u5340", "addr:full": "\u65b0\u5317\u5e02\u677f\u6a4b\u5340\u6587\u5316\u8def\u4e00\u6bb5196\u865f", "addr:housenumber": "196", "addr:street": "\u6587\u5316\u8def\u4e00\u6bb5", "amenity": "hospital", "healthcare": "hospital", "name": "\u4e2d\u82f1\u91ab\u9662", "name:en": "Sinobritish Hospital", "name:zh": "\u4e2d\u82f1\u91ab\u9662", "official_name": "\u4e2d\u82f1\u91ab\u7642\u793e\u5718\u6cd5\u4eba\u4e2d\u82f1\u91ab\u9662", "phone": "+886 2 2256 3584", "website": "http://www.choninn.com.tw/", "wikidata": "Q106919843"}}, {"type": "node", "id": 6096179057, "lat": 22.7957388, "lon": 120.2958409, "tags": {"amenity": "hospital", "name": "\u5289\u5609\u4fee\u91ab\u9662"}}, {"type": "node", "id": 6241151885, "lat": 24.9565613, "lon": 121.2228339, "tags": {"amenity": "hospital", "healthcare": "hospital", "name": "Universal eyes hospital"}}, {"type": "node", "id": 6468971186, "lat": 29.8701515, "lon": 121.530688, "tags": {"amenity": "hospital", "name:en": "Ningbo International Travel and Healthcare Center"}}, {"type": "node", "id": 6533220121, "lat": 23.1276524, "lon": 120.286898, "tags": {"amenity": "hospital", "healthcare": "hospital", "name": "\u5b8f\u79d1\u91ab\u9662"}}, {"type": "node", "id": 6545468870, "lat": 29.3504685, "lon": 121.910871, "tags": {"amenity": "hospital", "name": "\u65e6\u95e8\u536b\u751f\u9662", "name:en": "Danmen Health Center", "name:zh": "\u65e6\u95e8\u536b\u751f\u9662"}}, {"type": "node", "id": 6565496785, "lat": 24.1666873, "lon": 120.6941887, "tags": {"amenity": "hospital", "name": "\u8302\u76db\u91ab\u9662"}}, {"type": "node", "id": 6578511188, "lat": 29.883755, "lon": 121.5459928, "tags": {"amenity": "hospital", "healthcare": "hospital", "healthcare:speciality": "gynaecology;paediatrics", "name:en": "Ningbo Women and children's hospital"}}, {"type": "node", "id": 6702046541, "lat": 22.9974053, "lon": 120.1886708, "tags": {"addr:city": "\u53f0\u5357\u5e02", "addr:country": "TW", "addr:district": "\u4e2d\u897f\u5340", "addr:floor": "1", "addr:housenumber": "391", "addr:postcode": "700", "addr:street": "\u6c11\u751f\u8def\u4e8c\u6bb5", "amenity": "hospital", "healthcare": "hospital", "name": "\u9ec3\u7948\u771f\u4e2d\u91ab\u8a3a\u6240"}}, {"type": "node", "id": 7809979137, "lat": 24.6782711, "lon": 121.7704691, "tags": {"amenity": "hospital", "healthcare": "hospital", "name": "\u5f97\u798f\u4e2d\u91ab\u8a3a\u6240"}}, {"type": "node", "id": 7809979139, "lat": 24.6786782, "lon": 121.7699359, "tags": {"amenity": "hospital", "healthcare": "hospital", "name": "\u9ec3\u8000\u767c\u5c0f\u5152\u79d1\u8a3a\u6240"}}, {"type": "node", "id": 7814754481, "lat": 22.6685039, "lon": 120.4957973, "tags": {"amenity": "hospital", "healthcare": "hospital", "name": "\u5fa9\u8208\u91ab\u9662"}},