{"version": 0.6, "generator": "Overpass API 0.7.61.5 4133829e", "osm3s": {"timestamp_osm_base": "2023-10-31T20:54:41Z", "copyright": "The data included in this document is from www.openstreetmap.org. The data is made available under ODbL."}, "elements": [{"type": "node", "id": 638379012, "lat": 29.3311591, "lon": 48.0503646, "tags": {"amenity": "hospital"}}, {"type": "node", "id": 638385527, "lat": 29.3284145, "lon": 48.0559783, "tags": {"amenity": "hospital", "name": "\u0645\u0633\u062a\u0641\u0649 \u0627\u0644\u0631\u0627\u0634\u062f", "name:ar": "\u0645\u0633\u062a\u0641\u0649 \u0627\u0644\u0631\u0627\u0634\u062f", "name:en": "Al-Rashid Hospital"}}, {"type": "node", "id": 672612225, "lat": 24.6994716, "lon": 46.6899776, "tags": {"addr:street": "Tahliya St.", "amenity": "hospital", "name": "Al Nokhba Clinics", "wheelchair": "yes"}}, {"type": "node", "id": 672727262, "lat": 24.6793946, "lon": 46.7270653, "tags": {"amenity": "hospital", "emergency": "yes", "name": "\u0627\u0644\u0645\u0633\u062a\u0634\u0641\u064a \u0627\u0644\u0648\u0637\u0646\u064a", "name:ar": "\u0627\u0644\u0645\u0633\u062a\u0634\u0641\u0649 \u0627\u0644\u0648\u0637\u0646\u064a \u0631\u0639\u0627\u064a\u0647", "name:en": "National Hospital (1,398 patient )", "phone": "920004585"}}, {"type": "node", "id": 746341536, "lat": 24.68704, "lon": 46.7972478, "tags": {"amenity": "hospital"}}, {"type": "node", "id": 751551242, "lat": 29.3373875, "lon": 47.9792274, "tags": {"amenity": "hospital", "name": "Faiha Primary Healthcare Center", "name:en": "Faiha Primary Healthcare Center", "wheelchair": "yes"}}, {"type": "node", "id": 830293890, "lat": 29.354035, "lon": 47.9506659, "tags": {"amenity": "hospital", "healthcare": "hospital", "name": "Shuwaikh Residential Primary Healthcare Center", "name:en": "Shuwaikh Residential Primary Healthcare Center"}}, {"type": "node", "id": 978265130, "lat": 24.77919, "lon": 46.7395065, "tags": {"addr:city": "RIYADH", "addr:district": "Al Hamra", "addr:housenumber": "2917", "addr:postcode": "13216 - 8119", "addr:street": "Imam Saud Bin Abdulaziz Bin Mohammed Rd - Al Hamra Dist", "amenity": "hospital", "emergency": "yes", "healthcare": "hospital", "healthcare:speciality": "general;dentist;internal", "internet_access": "wlan", "name": "\u0645\u0633\u062a\u0634\u0641\u0649 \u0623\u0633\u062a\u0631 \u0633\u0646\u062f", "name:ar": "\u0645\u0633\u062a\u0634\u0641\u0649 \u0623\u0633\u062a\u0631 \u0633\u0646\u062f", "name:en": "Aster Sanad Hospital", "opening_hours": "24/7", "phone": "0112407778", "website": "http://www.sanadhospital.com"}}, {"type": "node", "id": 1082928372, "lat": 29.0908663, "lon": 48.0557586, "tags": {"amenity": "hospital", "name": "Ahmadi Hospital", "name:ar": "ahmadi hospital", "name:en": "Ahmadi Hospital"}}, {"type": "node", "id": 1242612369, "lat": 24.820636, "lon": 46.9211311, "tags": {"amenity": "hospital"}}, {"type": "node", "id": 1267900197, "lat": 24.7466763, "lon": 46.6518327, "tags": {"amenity": "hospital", "emergency": "yes", "name": "Dallah Hospital \u0645\u0633\u062a\u0634\u0641\u0649 \u0627\u0644\u062f\u0627\u0644\u0629", "name:ar": "Dallah Hospital \u0645\u0633\u062a\u0634\u0641\u0649 \u062f\u0644\u0629", "name:en": "Dallah Hospital \u0645\u0633\u062a\u0634\u0641\u0649 \u062f\u0644\u0629"}}, {"type": "node", "id": 1279112146, "lat": 25.3963364, "lon": 49.7288675, "tags": {"amenity": "hospital", "emergency": "no", "name": "\u0627\u0644\u0645\u0631\u0643\u0632 \u0627\u0644\u0635\u062d\u064a \u0628\u0627\u0644\u0645\u0631\u0643\u0632"}}, {"type": "node", "id": 1354660020, "lat": 24.5833126, "lon": 46.864015, "tags": {"amenity": "hospital"}}, {"type": "node", "id": 1505822506, "lat": 26.1043807, "lon": 43.9920977, "tags": {"amenity": "hospital", "healthcare": "hospital", "name": "\u0645\u0633\u062a\u0634\u0641\u0649 \u0627\u0644\u0645\u0644\u0643 \u0633\u0639\u0648\u062f"}}, {"type": "node", "id": 1532731904, "lat": 29.3897664, "lon": 47.9934946, "tags": {"amenity": "hospital", "emergency": "no", "name": "Dasman Diabetes Institute", "name:en": "Dasman Diabetes Institute", "phone": "+965 2224 2999", "website": "https://www.dasmaninstitute.org/", "wheelchair": "yes"}}, {"type": "node", "id": 1533706371, "lat": 29.3758423, "lon": 47.9799265, "tags": {"amenity": "hospital", "name": "\u0645\u0633\u062a\u0648\u0635\u0641 \u0627\u0644\u0635\u0648\u0627\u0628\u0631", "name:ar": "\u0645\u0633\u062a\u0648\u0635\u0641 \u0627\u0644\u0635\u0648\u0627\u0628\u0631", "name:en": "Swaber Primary Healthcare Center"}}, {"type": "node", "id": 1533716613, "lat": 29.3540605, "lon": 47.9652607, "tags": {"amenity": "hospital", "name": "\u0645\u0633\u062a\u0648\u0635\u0641 \u0627\u0644\u0634\u0627\u0645\u064a\u0629", "name:en": "Shamiya Primary Healthcare Center"}}, {"type": "node", "id": 1533720387, "lat": 29.348889, "lon": 48.0267262, "tags": {"amenity": "hospital", "name": "\u0645\u0633\u062a\u0648\u0635\u0641 \u0627\u0644\u0634\u0639\u0628", "name:ar": "\u0645\u0633\u062a\u0648\u0635\u0641 \u0627\u0644\u0634\u0639\u0628", "name:en": "Sha\u2019ab Primary Healthcare Center"}}, {"type": "node", "id": 1533721913, "lat": 29.3616348, "lon": 48.0119633, "tags": {"amenity": "hospital", "name": "\u0645\u0633\u062a\u0648\u0635\u0641 \u0627\u0644\u062f\u0639\u064a\u0629", "name:ar": "\u0645\u0633\u062a\u0648\u0635\u0641 \u0627\u0644\u062f\u0639\u064a\u0629", "name:en": "Daiy\u2019aa Primary Healthcare Center"}}, {"type": "node", "id": 1533729350, "lat": 29.3416987, "lon": 47.9987683, "tags": {"amenity": "hospital", "name": "Nuzha Primary Healthcare Center", "name:en": "Nuzha Primary Healthcare Center"}}, {"type": "node", "id": 1533732614, "lat": 29.3488039, "lon": 48.002949, "tags": {"amenity": "hospital", "name": "\u0645\u0633\u062a\u0648\u0635\u0641 \u0627\u0644\u0641\u064a\u062d\u0627\u0621", "name:ar": "\u0645\u0633\u062a\u0648\u0635\u0641 \u0627\u0644\u0641\u064a\u062d\u0627\u0621", "name:en": "Faiha Primary Healthcare Center"}}, {"type": "node", "id": 1533734256, "lat": 29.3012959, "lon": 47.7995716, "tags": {"amenity": "hospital", "name": "Qairawan Primary Healthcare Center", "name:en": "Qairawan Primary Healthcare Center"}}, {"type": "node", "id": 1533754052, "lat": 29.3284072, "lon": 47.9365821, "tags": {"addr:street": "Ghazali Road", "amenity": "hospital", "name": "Shuwaikh Industrial Primary Healthcare Center", "name:en": "Shuwaikh Industrial Primary Healthcare Center"}}, {"type": "node", "id": 1533777407, "lat": 29.310907, "lon": 47.9707729, "tags": {"amenity": "hospital", "name": "\u0645\u0633\u062a\u0648\u0635\u0641 \u0627\u0644\u064a\u0631\u0645\u0648\u0643", "name:ar": "\u0645\u0633\u062a\u0648\u0635\u0641 \u0627\u0644\u064a\u0631\u0645\u0648\u0643", "name:en": "Yarmouk Primary Healthcare Center"}}, {"type": "node", "id": 1533854391, "lat": 29.3172358, "lon": 48.0152658, "tags": {"amenity": "hospital", "healthcare": "hospital", "name": "\u0645\u0633\u062a\u0648\u0635\u0641 \u0627\u0644\u0633\u0631\u0629", "name:ar": "\u0645\u0633\u062a\u0648\u0635\u0641 \u0627\u0644\u0633\u0631\u0629", "name:en": "Surrah Primary Healthcare Center"}}, {"type": "node", "id": 1533864678, "lat": 29.3334603, "lon": 47.9862546, "tags": {"amenity": "hospital", "fixme": "name, name:en mismatch. name, name:en mismatch.", "name": "Adailiya Primary Healthcare Center", "name:ar": "\u0645\u0633\u062a\u0648\u0635\u0641 \u062d\u0645\u062f \u0627\u0644\u0635\u0642\u0631 \u0627\u0644\u0635\u062d\u064a \u0627\u0644\u062a\u062e\u0635\u0635\u064a", "name:en": "Hamad Al-Saqer Primary Healthcare Center"}}, {"type": "node", "id": 1533876162, "lat": 29.3283264, "lon": 47.963285, "tags": {"amenity": "hospital", "name": "Khaldiya Primary Healthcare Center", "name:en": "Khaldiya Primary Healthcare Center"}}, {"type": "node", "id": 1659762375, "lat": 25.704286, "lon": 45.8760285, "tags": {"amenity": "hospital", "healthcare": "hospital", "name": "\u0645\u0633\u062a\u0634\u0641\u0649 \u062a\u0645\u064a\u0631 \u0627\u0644\u0639\u0627\u0645", "name:en": "Tumair General Hospital"}}, {"type": "node", "id": 1704771382, "lat": 20.1472837, "lon": 40.2752673, "tags": {"amenity": "hospital", "name": "\u0627\u0644\u0639\u064a\u0627\u062f\u0627\u062a \u0627\u0644\u062e\u0627\u0631\u062c\u064a\u0629 \u0628\u0645\u0633\u062a\u0634\u0641\u0649 \u0627\u0644\u0644\u064a\u062b"}}, {"type": "node", "id": 1704797400, "lat": 20.1508609, "lon": 40.2786906, "tags": {"amenity": "hospital", "name": "\u0645\u0633\u062a\u0648\u0635\u0641 \u0627\u0644\u0644\u064a\u062b"}}, {"type": "node", "id": 1705031064, "lat": 28.4179519, "lon": 45.9773394, "tags": {"amenity": "hospital", "emergency": "yes", "healthcare": "hospital", "name": "\u0645\u0633\u062a\u0634\u0641\u0649 \u0646\u0648\u0631 \u062e\u0627\u0646", "name:en": "Noor Moh'd khan's general hospital (1,682 patient )"}}, {"type": "node", "id": 1707699455, "lat": 20.1544822, "lon": 40.2672152, "tags": {"amenity": "hospital", "name": "\u0627\u0644\u0647\u0644\u0627\u0644 \u0627\u0644\u0627\u062d\u0645\u0631 \u0627\u0644\u0633\u0639\u0648\u062f\u064a"}}, {"type": "node", "id": 1707712701, "lat": 20.146495, "lon": 40.274999, "tags": {"amenity": "hospital", "name": "\u0637\u0648\u0627\u0631\u0626 \u0645\u0633\u062a\u0634\u0641\u0649 \u0627\u0644\u0644\u064a\u062b"}}, {"type": "node", "id": 1707767187, "lat": 20.144833, "lon": 40.2670918, "tags": {"amenity": "hospital", "name": "\u0645\u0631\u0643\u0632 \u0627\u0644\u0631\u0639\u0627\u064a\u0629 \u0627\u0644\u0627\u0648\u0644\u064a\u0629"}}, {"type": "node", "id": 1711176373, "lat": 20.1478171, "lon": 40.2677507, "tags": {"amenity": "hospital", "name": "\u0627\u0644\u0648\u062d\u062f\u0629 \u0627\u0644\u0635\u062d\u064a\u0629 \u0644\u0644\u0628\u0646\u064a\u0646"}}, {"type": "node", "id": 1767305266, "lat": 26.9952938, "lon": 49.6595907, "tags": {"amenity": "hospital", "healthcare": "hospital", "name": "Al Jubail New Hospital entrance", "name:en": "Al Jubail New Hospital Entrance", "source": "Field observation"}}, {"type": "node", "id": 1784944936, "lat": 29.3428683, "lon": 48.0756118, "tags": {"amenity": "hospital", "emergency": "no", "healthcare": "hospital", "name": "\u0645\u0633\u062a\u0648\u0635\u0641 \u0627\u0644\u0633\u0627\u0644\u0645\u064a\u0629", "name:ar": "\u0645\u0633\u062a\u0648\u0635\u0641 \u0627\u0644\u0633\u0627\u0644\u0645\u064a\u0629", "name:en": "Salmiya Polyclinic"}}, {"type": "node", "id": 2097170052, "lat": 25.8458989, "lon": 44.2073322, "tags": {"amenity": "hospital", "emergency": "yes", "name": "\u0645\u0633\u062a\u0634\u0641\u0649 \u0627\u0644\u0645\u0630\u0646\u0628 \u0627\u0644\u0639\u0627\u0645"}}, {"type": "node", "id": 2185089811, "lat": 29.2710784, "lon": 47.9048992, "tags": {"amenity": "hospital", "name": "\u0645\u0633\u062a\u0634\u0641\u0649 \u0627\u0644\u0641\u0631\u0648\u0627\u0646\u064a\u0629", "name:ar": "\u0645\u0633\u062a\u0634\u0641\u0649 \u0627\u0644\u0641\u0631\u0648\u0627\u0646\u064a\u0629", "name:de": "Farwaniya Hospital", "name:en": "Farwaniya Hospital", "phone": "+965 2488 8000"}}, {"type": "node", "id": 2304169447, "lat": 20.0614362, "lon": 41.4394797, "tags": {"amenity": "hospital", "emergency": "yes", "name": "\u0645\u0633\u062a\u0634\u0641\u0649 \u0627\u0644\u0645\u0644\u0643 \u0641\u0647\u062f"}}, {"type": "node", "id": 2356707555, "lat": 20.0004106, "lon": 42.601912, "tags": {"amenity": "hospital"}}, {"type": "node", "id": 2429936983, "lat": 24.6712998, "lon": 46.7330847, "tags": {"amenity": "hospital", "emergency": "no", "healthcare": "hospital", "internet_access": "wlan", "name": "Alam El Teb", "name:ar": "\u0645\u0633\u062a\u0648\u0635\u0641 \u0639\u0627\u0644\u0645 \u0627\u0644\u0637\u0628"}}, {"type": "node", "id": 2429936997, "lat": 24.6669612, "lon": 46.7227958, "tags": {"amenity": "hospital", "name": "Obied hospital", "name:ar": "\u0645\u0633\u062a\u0634\u0641\u0649 \u0639\u0628\u064a\u062f \u0627\u0644\u062a\u062e\u0635\u0635\u064a"}}, {"type": "node", "id": 2632155107, "lat": 20.4552265, "lon": 44.739824, "tags": {"amenity": "hospital", "name:en": "Wadi ad Dawasir General Hospital"}}, {"type": "node", "id": 2699804434, "lat": 27.0938621, "lon": 49.5687382, "tags": {"amenity": "hospital", "name": "Al Mana Hospital"}}, {"type": "node", "id": 2721108200, "lat": 22.6648079, "lon": 40.3157891, "tags": {"amenity": "hospital"}}, {"type": "node", "id": 2930726644, "lat": 24.69339, "lon": 46.6785028, "tags": {"amenity": "hospital", "emergency": "yes", "name": "KAL Medical Development Foundation"}}, {"type": "node", "id": 2999668498, "lat": 22.0272505, "lon": 46.562062, "tags": {"amenity": "hospital", "name": "\u0645\u0631\u0643\u0632 \u0627\u0644\u0631\u0639\u0627\u064a\u0629 \u0627\u0644\u0635\u062d\u064a\u0629 \u0627\u0644\u0623\u0648\u0644\u064a\u0629 \u0628\u0627\u0644\u0628\u062f\u064a\u0639"}}, {"type": "node", "id": 3193875001, "lat": 26.9944536, "lon": 49.6469075, "tags": {"amenity": "hospital", "healthcare": "hospital", "name": "Dina Dispensary"}}, {"type": "node", "id": 3335057970, "lat": 20.1030552, "lon": 42.6599445, "tags": {"amenity": "hospital", "name": "\u0645\u0633\u062a\u0648\u0635\u0641 \u0627\u0644\u062f\u062d\u0648"}}, {"type": "node", "id": 3420857534, "lat": 29.1588937, "lon": 48.1179871, "tags": {"amenity": "hospital", "name": "Long Life Clinic", "name:en": "Long Life Clinic"}}, {"type": "node", "id": 3422927529, "lat": 29.0352116, "lon": 48.1220322, "tags": {"amenity": "hospital", "name": "Government Hospital", "name:en": "Government Hospital"}}, {"type": "node", "id": 3431774841, "lat": 29.2336744, "lon": 48.0652631, "tags": {"amenity": "hospital", "healthcare": "centre", "name": "Qurain Health Center (Specialized)", "name:ar": "\u0645\u0633\u062a\u0648\u0635\u0641 \u0627\u0644\u0639\u062f\u0627\u0646", "name:en": "Qurain Health Center (Specialized)"}}, {"type": "node", "id": 3631527750, "lat": 24.7512906, "lon": 46.6999612, "tags": {"addr:city": "Riyadh", "addr:housenumber": "An Nuzhah", "addr:postcode": "12471", "addr:street": "Abi Bakr As Siddiq Rd", "amenity": "hospital", "name": "Dr Soliman Al-Kharashi Medical Center", "operator": "Dr Soliman Al-Kharashi", "phone": "+966112222822", "website": "http://www.drsolimanalkharashi.com.sa/"}}, {"type": "node", "id": 3709907173, "lat": 28.3618645, "lon": 45.9943914, "tags": {"amenity": "hospital", "healthcare": "hospital", "name": "\u0627\u0644\u062a\u0623\u0647\u064a\u0644 \u0627\u0644\u0634\u0627\u0645\u0644"}}, {"type": "node", "id": 3748554664, "lat": 25.3743798, "lon": 49.5644902, "tags": {"addr:city": "\u0627\u0644\u0647\u0641\u0648\u0641", "addr:city:en": "AL HUFUF", "addr:district": "\u062d\u064a \u0627\u0644\u0645\u062d\u0645\u062f\u064a\u0629", "addr:district:en": "Al Muhammadiyah Dist.", "addr:housenumber": "8046", "addr:postcode": "36421-5158", "addr:street": "\u0627\u0644\u0627\u0645\u064a\u0631 \u0633\u0639\u0648\u062f \u0628\u0646 \u062c\u0644\u0648\u064a", "amenity": "hospital", "healthcare": "hospital", "name": "\u0645\u0633\u062a\u0648\u0635\u0641 \u0645\u0646\u0628\u0631 \u0627\u0644\u0647\u062f\u0649", "phone": "+966135750500"}}, {"type": "node", "id": 3835882185, "lat": 24.7991145, "lon": 46.7832812, "tags": {"amenity": "hospital", "healthcare": "hospital"}}, {"type": "node", "id": 3856703650, "lat": 24.7983522, "lon": 46.7819482, "tags": {"addr:street": "\u0634\u0627\u0631\u0639 \u0627\u0644\u0625\u0645\u0627\u0645 \u0639\u0628\u062f \u0627\u0644\u0644\u0647 \u0628\u0646 \u0633\u0639\u0648\u062f \u0628\u0646 \u0639\u0628\u062f \u0627\u0644\u0639\u0632\u064a\u0632", "amenity": "hospital", "name": "\u0641\u0627\u0644 \u0627\u0644\u0639\u0627\u0641\u064a\u0629"}}, {"type": "node", "id": 4129960497, "lat": 24.6100189, "lon": 46.7280761, "tags": {"addr:street": "\u0634\u0627\u0631\u0639 \u0627\u0644\u0623\u0645\u064a\u0631 \u0645\u062d\u0645\u062f \u0628\u0646 \u0639\u0628\u062f \u0627\u0644\u0631\u062d\u0645\u0646", "amenity": "hospital", "name": "\u0645\u062c\u0645\u0639 \u0637\u0628 \u0627\u0644\u0627\u0633\u0631\u0629 2"}}, {"type": "node", "id": 4208930091, "lat": 29.3267073, "lon": 48.038142, "tags": {"amenity": "hospital", "name": "\u0645\u0631\u0643\u0632 \u0633\u064a\u0627\u0631\u0627\u062a \u0627\u0644\u0625\u0633\u0639\u0627\u0641", "name:ar": "\u0645\u0631\u0643\u0632 \u0633\u064a\u0627\u0631\u0627\u062a \u0627\u0644\u0625\u0633\u0639\u0627\u0641", "name:en": "Ambulance Centre", "opening_hours": "24/7", "phone": "112"}}, {"type": "node", "id": 4212531789, "lat": 27.5071999, "lon": 41.6970573, "tags": {"amenity": "hospital", "name": "\u0645\u0633\u062a\u0634\u0641\u0649 \u0627\u0644\u0645\u0644\u0643 \u062e\u0627\u0644\u062f", "opening_hours": "24/7"}}, {"type": "node", "id": 4215102592, "lat": 27.5165593, "lon": 41.6992539, "tags": {"addr:street": "\u0634\u0627\u0631\u0639 \u0627\u0644\u0631\u0627\u0632\u064a", "amenity": "hospital", "name": "\u0645\u0633\u062a\u0634\u0641\u0649 \u062d\u0627\u0626\u0644 \u0627\u0644\u0639\u0627\u0645", "opening_hours": "24/7", "phone": "016 532 8080"}}, {"type": "node", "id": 4222319390, "lat": 24.6018367, "lon": 46.7020164, "tags": {"amenity": "hospital"}}, {"type": "node", "id": 4222647492, "lat": 24.6566664, "lon": 46.706969, "tags": {"amenity": "hospital", "healthcare": "hospital", "name": "\u0645\u0633\u062a\u0634\u0641\u0649 \u0627\u0644\u0645\u0628\u0627\u0631\u0643", "name:en": "Mubarak hospital"}}, {"type": "node", "id": 4227738192, "lat": 24.80364, "lon": 46.7947663, "tags": {"amenity": "hospital", "name": "\u0645\u062c\u0645\u0639 \u0639\u064a\u0627\u062f\u0627\u062a \u0627\u0644\u0644\u0648\u062a\u0633"}}, {"type": "node", "id": 4227738390, "lat": 24.8103493, "lon": 46.7908317, "tags": {"amenity": "hospital", "name": "\u0645\u0633\u062a\u0648\u0635\u0641 \u0627\u0644\u064a\u0631\u0645\u0648\u0643"}}, {"type": "node", "id": 4227753689, "lat": 24.78625, "lon": 46.8019821, "tags": {"amenity": "hospital", "name": "\u0627\u0644\u0641\u0627\u0631\u0627\u0628\u064a"}}, {"type": "node", "id": 4231042891, "lat": 29.3334015, "lon": 47.9014606, "tags": {"amenity": "hospital", "name": "Sabah Al-Ahmed urology center", "name:en": "Sabah Al-Ahmed urology center"}}, {"type": "node", "id": 4239906094, "lat": 24.6940156, "lon": 46.7727851, "tags": {"addr:street": "Omer bin AbdulAziz", "amenity": "hospital", "name": "Hayat National Hospital"}}, {"type": "node", "id": 4243601659, "lat": 24.6794458, "lon": 46.6866873, "tags": {"amenity": "hospital", "healthcare": "hospital", "name": "SMC"}}, {"type": "node", "id": 4244291528, "lat": 24.6191751, "lon": 46.7292391, "tags": {"addr:street": "\u0634\u0627\u0631\u0639 \u063a\u0628\u064a\u0631\u0629 \u0627\u0644\u0639\u0627\u0645", "amenity": "hospital", "name": "\u0645\u0633\u062a\u0634\u0641\u0649 \u0627\u0644\u0641\u0644\u0627\u062d"}}, {"type": "node", "id": 4269850493, "lat": 29.6294739, "lon": 43.5236114, "tags": {"amenity": "hospital", "name": "\u0645\u062c\u0645\u0639 \u0627\u0644\u0634\u0641\u0627\u0621 \u0627\u0644\u0637\u0628\u064a"}}, {"type": "node", "id": 4270706791, "lat": 27.5823584, "lon": 41.7093007, "tags": {"amenity": "hospital", "name": "\u0645\u0633\u062a\u0634\u0641\u064a \u0627\u0644\u0633\u0639\u0648\u062f\u064a \u0627\u0644\u0627\u0644\u0645\u0627\u0646\u064a \u062d\u0627\u0626\u0644"}}, {"type": "node", "id": 4275831390, "lat": 25.358418, "lon": 49.560269, "tags": {"addr:city": "\u0627\u0644\u0647\u0641\u0648\u0641", "amenity": "hospital", "emergency": "yes", "healthcare": "hospital", "healthcare:speciality": "general", "name": "\u0645\u0633\u062a\u0634\u0641\u0649 \u0627\u0644\u0645\u0644\u0643 \u0641\u0647\u062f", "name:en": "King Fahad hofuf hospital", "operator": "Ministry of Health", "operator:type": "government"}}, {"type": "node", "id": 4292058589, "lat": 28.4197389, "lon": 48.472512, "tags": {"amenity": "hospital", "name": "\u0645\u0633\u062a\u0634\u0641\u0649 \u0627\u0644\u062e\u0641\u062c\u064a \u0627\u0644\u0639\u0627\u0645", "name:en": "Al khafji national hospital (2,157)", "opening_hours": "24/7"}}, {"type": "node", "id": 4300430789, "lat": 24.6022144, "lon": 46.7030747, "tags": {"amenity": "hospital", "name": "Hammadi suwadi", "name:en": "Hammadi suwadi (5 patient )"}}, {"type": "node", "id": 4301336112, "lat": 25.2522577, "lon": 45.8702787, "tags": {"amenity": "hospital", "emergency": "yes", "name": "\u0627\u0644\u0647\u0644\u0627\u0644 \u0627\u0644\u0627\u062d\u0645\u0631", "name:en": "Saudi Red Crescent Authority", "operator": "Saudi Red Crescent Authority", "website": "https://www.srca.org.sa/en"}}, {"type": "node", "id": 4312627390, "lat": 27.4987122, "lon": 41.6939409, "tags": {"addr:street": "\u0627\u0644\u0645\u0644\u0643 \u0633\u0639\u0648\u062f \u0628\u0646 \u0639\u0628\u062f\u0627\u0644\u0639\u0632\u064a\u0632", "amenity": "hospital", "name": "\u0645\u0633\u062a\u0648\u0635\u0641 \u0633\u0644\u0627\u0645\u0627\u062a", "name:en": "Salamat polyclinic (470 patient )", "phone": "+966 16 531 2346"}}, {"type": "node", "id": 4313844889, "lat": 25.393991, "lon": 49.6051016, "tags": {"amenity": "hospital", "name": "hussain ali hospital"}}, {"type": "node", "id": 4325375298, "lat": 24.7779808, "lon": 46.5904055, "tags": {"amenity": "hospital", "name": "\u0645\u0633\u062a\u0648\u0635\u0641 \u062d\u0643\u0648\u0645\u064a"}}, {"type": "node", "id": 4351353190, "lat": 24.7011303, "lon": 46.6998164, "tags": {"amenity": "hospital", "name": "Olaya Medical Center"}}, {"type": "node", "id": 4357451393, "lat": 29.3260998, "lon": 47.9040688, "tags": {"amenity": "hospital", "name": "AL Sabah Hospital", "name:en": "AL Sabah Hospital"}}, {"type": "node", "id": 4360035907, "lat": 20.0949904, "lon": 41.1090438, "tags": {"amenity": "hospital", "name": "\u0645\u0631\u0643\u0632 \u0635\u062d\u064a \u0627\u0644\u0645\u0636\u062d\u0627\u0647", "name:ar": "\u0645\u0631\u0643\u0632 \u0635\u062d\u064a \u0627\u0644\u0645\u0636\u062d\u0627\u0647"}}, {"type": "node", "id": 4363484091, "lat": 28.31148, "lon": 45.9540772, "tags": {"addr:street": "\u0637\u0631\u064a\u0642 \u0627\u0644\u0645\u0644\u0643 \u0639\u0628\u062f\u0627\u0644\u0639\u0632\u064a\u0632", "amenity": "hospital", "internet_access": "wlan", "name:en": "Hafr Al Batin Central Hospital", "opening_hours": "24/7", "phone": "065270001"}}, {"type": "node", "id": 4365353489, "lat": 29.3277124, "lon": 47.680776, "tags": {"amenity": "hospital", "name": "\u0645\u0633\u062a\u0648\u0635\u0641 \u062a\u064a\u0645\u0627\u0621", "name:ar": "\u0645\u0633\u062a\u0648\u0635\u0641 \u062a\u064a\u0645\u0627\u0621"}}, {"type": "node", "id": 4365886397, "lat": 29.3203453, "lon": 47.880963, "tags": {"amenity": "hospital", "name": "\u0648\u0632\u0627\u0631\u0629 \u0627\u0644\u0635\u062d\u0629", "name:ar": "\u0648\u0632\u0627\u0631\u0629 \u0627\u0644\u0635\u062d\u0629"}}, {"type": "node", "id": 4378219310, "lat": 24.4009602, "lon": 46.8351733, "tags": {"amenity": "hospital", "name": "\u0645\u0633\u062a\u0648\u0635\u0641 \u0627\u0644\u062d\u0627\u064a\u0631", "name:ar": "\u0645\u0633\u062a\u0648\u0635\u0641 \u0627\u0644\u062d\u0627\u064a\u0631", "opening_hours": "Su-Th"}}, {"type": "node", "id": 4381940492, "lat": 26.7927776, "lon": 44.2055319, "tags": {"amenity": "hospital", "name": "\u0645\u0633\u062a\u0634\u0641\u0649 \u0627\u0644\u0623\u0633\u064a\u0627\u062d \u0627\u0644\u0639\u0627\u0645", "name:ar": "\u0645\u0633\u062a\u0634\u0641\u0649 \u0627\u0644\u0623\u0633\u064a\u0627\u062d \u0627\u0644\u0639\u0627\u0645", "name:en": "Alasyah General Hospital (457 patient )"}}, {"type": "node", "id": 4385410790, "lat": 24.6755467, "lon": 46.661891, "tags": {"amenity": "hospital", "healthcare": "hospital", "name": "\u0627\u0644\u0645\u062c\u0645\u0639 \u0627\u0644\u0637\u0628\u064a"}}, {"type": "node", "id": 4397361589, "lat": 24.7682894, "lon": 46.7898996, "tags": {"addr:street": "Abi Saeed Al Khidri", "amenity": "hospital", "healthcare": "hospital", "name": "\u0627\u0644\u0631\u0639\u0627\u064a\u0647 \u0627\u0644\u0623\u0648\u0644\u064a\u0647. \u062d\u064a \u0627\u0644\u062e\u0644\u064a\u062c", "name:ar": "\u0627\u0644\u0631\u0639\u0627\u064a\u0647 \u0627\u0644\u0623\u0648\u0644\u064a\u0647. \u062d\u064a \u0627\u0644\u062e\u0644\u064a\u062c"}}, {"type": "node", "id": 4398032289, "lat": 22.2920933, "lon": 46.7223008, "tags": {"amenity": "hospital", "name": "\u0645\u0633\u062a\u0634\u0641\u0626\u0649 \u0627\u0644\u0627\u0641\u0644\u0627\u062c", "name:ar": "\u0645\u0633\u062a\u0634\u0641\u0626\u0649 \u0627\u0644\u0627\u0641\u0644\u0627\u062c", "toilets:wheelchair": "yes", "wheelchair": "yes"}}, {"type": "node", "id": 4398308091, "lat": 28.3937235, "lon": 45.9405598, "tags": {"addr:housenumber": "123", "addr:street": "\u0627\u0628\u0646 \u062d\u0632\u0645", "amenity": "hospital", "healthcare": "hospital", "healthcare:speciality": "general", "name": "\u0645\u0633\u062a\u0648\u0635\u0641 \u0627\u0644\u0633\u0644\u064a\u0645\u0627\u0646\u064a\u0647", "name:ar": "\u0645\u0633\u062a\u0648\u0635\u0641 \u0627\u0644\u0633\u0644\u064a\u0645\u0627\u0646\u064a\u0647", "operator": "\u0648\u0632\u0627\u0631\u0629 \u0627\u0644\u0635\u062d\u0629", "operator:type": "government"}}, {"type": "node", "id": 4413247390, "lat": 24.5288033, "lon": 46.6527136, "tags": {"addr:street": "Derab Road", "amenity": "hospital", "name": "\u0627\u0644\u0627\u0645\u0627\u0645 \u0639\u0628\u062f \u0627\u0644\u0631\u062d\u0645\u0646 \u0627\u0644\u0641\u064a\u0635\u0644", "name:ar": "\u0627\u0644\u0627\u0645\u0627\u0645 \u0639\u0628\u062f \u0627\u0644\u0631\u062d\u0645\u0646 \u0627\u0644\u0641\u064a\u0635\u0644"}}, {"type": "node", "id": 4416302589, "lat": 27.1381337, "lon": 49.5368567, "tags": {"amenity": "hospital", "healthcare": "hospital", "name": "\u0627\u0644\u0645\u0648\u0627\u0633\u0627\u0629", "name:ar": "\u0627\u0644\u0645\u0648\u0627\u0633\u0627\u0629", "name:en": "Mouwasat (2,206 patient )", "opening_hours": "Sa-Th 08:30-11:30, 15:30-20:30"}}, {"type": "node", "id": 4489601189, "lat": 28.5619272, "lon": 48.0606272, "tags": {"addr:street": "\u0637\u0631\u064a\u0642 \u0663\u0660\u0660 \u0642\u0637\u0639\u0629 \u0663", "amenity": "hospital", "name": "\u0645\u0633\u062a\u0648\u0635\u0641 \u0627\u0644\u0648\u0641\u0631\u0629", "name:ar": "\u0645\u0633\u062a\u0648\u0635\u0641 \u0627\u0644\u0648\u0641\u0631\u0629"}}, {"type": "node", "id": 4518646789, "lat": 24.6278072, "lon": 46.6903989, "tags": {"amenity": "hospital", "name": "\u0645\u0633\u062a\u0634\u0641\u0649 \u0627\u0644\u0634\u0645\u064a\u0633\u064a", "name:en": "King Saud Medical City"}}, {"type": "node", "id": 4525669790, "lat": 24.8287332, "lon": 46.6921323, "tags": {"amenity": "hospital", "name": "\u0645\u0631\u0643\u0632 \u0627\u0644\u0645\u0644\u0643 \u0641\u0647\u062f \u0627\u0644\u0648\u0637\u0646\u064a \u0644\u0633\u0631\u0637\u0627\u0646 \u0627\u0644\u0627\u0637\u0641\u0627\u0644", "name:ar": "\u0645\u0631\u0643\u0632 \u0627\u0644\u0645\u0644\u0643 \u0641\u0647\u062f \u0627\u0644\u0648\u0637\u0646\u064a \u0644\u0633\u0631\u0637\u0627\u0646 \u0627\u0644\u0627\u0637\u0641\u0627\u0644"}}, {"type": "node", "id": 4547232194, "lat": 22.8578446, "lon": 40.5741991, "tags": {"amenity": "hospital", "name:en": "Al Amal polyclinic Rabigh (183 patient )"}}, {"type": "node", "id": 4547232196, "lat": 25.3735251, "lon": 49.5868012, "tags": {"addr:city": "\u0627\u0644\u0647\u0641\u0648\u0641", "amenity": "hospital", "name:en": "Al Moosa hospital (10,029 patient )"}}, {"type": "node", "id": 4547232197, "lat": 27.4703075, "lon": 48.4735344, "tags": {"amenity": "hospital", "name:en": "Nuairiyah National Clinic (971 patient )"}}, {"type": "node", "id": 4547233790, "lat": 20.9000152, "lon": 42.733384, "tags": {"addr:postcode": "18211", "amenity": "hospital", "name": "\u0645\u0633\u062a\u0634\u0641\u0649 \u0627\u0644\u0633\u0644\u064a\u0644 \u0627\u0644\u0639\u0627\u0645", "name:en": "sulayyil national clinic (1,034 patient )"}}, {"type": "node", "id": 4547233791, "lat": 26.9936969, "lon": 49.6543784, "tags": {"amenity": "hospital", "healthcare": "hospital", "name:en": "Royal Commission Hospital (2,544 Patient)"}}, {"type": "node", "id": 4547239097, "lat": 24.6723908, "lon": 46.7463366, "tags": {"addr:street": "Ali Ibn Talib Road", "amenity": "hospital", "name:en": "Al Ajaj Polyclinic (58 patient )"}}, {"type": "node", "id": 4547254091, "lat": 23.9953378, "lon": 47.1319433, "tags": {"addr:postcode": "16231", "addr:street": "King Abdullah Rd", "amenity": "hospital", "name:en": "Al Taawin Medical Clinic (2,104 patient )", "phone": "0115410399"}}, {"type": "node", "id": 4547254891, "lat": 24.6326975, "lon": 46.7104187, "tags": {"amenity": "hospital", "name:en": "Dallah hospital (20,586 patient )"}}, {"type": "node", "id": 4576041993, "lat": 24.6035617, "lon": 46.7029077, "tags": {"amenity": "hospital", "name": "\u0645\u0633\u062a\u0648\u0635\u0641 \u062d\u0631\u0627\u0621 \u0627\u0644\u0637\u0628\u064a", "opening_hours": "24/7"}}, {"type": "node", "id": 4578372590, "lat": 29.1454209, "lon": 48.1005556, "tags": {"amenity": "hospital", "name": "\u0645\u0633\u062a\u0648\u0635\u0641 \u0627\u0644\u0631\u0642\u0629", "name:ar": "\u0645\u0633\u062a\u0648\u0635\u0641 \u0627\u0644\u0631\u0642\u0629"}}, {"type": "node", "id": 4578479898, "lat": 21.4356293, "lon": 40.4921462, "tags": {"addr:street": "\u0634\u0627\u0631\u0639 \u0627\u0644\u0633\u062a\u064a\u0646", "amenity": "hospital", "name": "\u0645\u0631\u0643\u0632 \u0635\u062d\u064a \u0648\u0633\u0637 \u0627\u0644\u062d\u0648\u064a\u0629", "opening_hours": "Su-Th 08:00-16:00"}}, {"type": "node", "id": 4578480693, "lat": 21.4479803, "lon": 40.5042792, "tags": {"addr:street": "Riyadh - Makkah", "amenity": "hospital", "name": "\u0645\u0631\u0643\u0632 \u0635\u062d\u064a \u0634\u0631\u0642 \u0627\u0644\u062d\u0648\u064a\u0629", "opening_hours": "Su-Th 08:00-16:00; Fr-Sa 16:00-22:00"}}, {"type": "node", "id": 4580064191, "lat": 27.5453448, "lon": 41.7032518, "tags": {"amenity": "hospital", "name": "\u0645\u0631\u0643\u0632 \u0635\u062d\u064a", "name:en": "\u0627\u0644\u0645\u0646\u062a\u0632\u0629 \u0627\u0644\u0634\u0631\u0642\u064a"}}, {"type": "node", "id": 4581368391, "lat": 26.1561506, "lon": 43.6532769, "tags": {"amenity": "hospital", "healthcare": "hospital", "name": "\u0645\u0631\u0643\u0632 \u0627\u0633\u0639\u0627\u0641 \u0627\u0644\u0628\u0643\u064a\u0631\u064a\u0629", "opening_hours": "24/7"}}, {"type": "node", "id": 4586142389, "lat": 28.4313066, "lon": 45.9823169, "tags": {"addr:postcode": "39921", "addr:street": "\u062d\u0633\u0627\u0646 \u0628\u0646 \u062b\u0627\u0628\u062a", "amenity": "hospital", "healthcare": "hospital", "name": "\u0645\u0633\u062a\u0634\u0641\u0649 \u0627\u0644\u0645\u0639\u0627\u0644\u064a", "name:en": "Al Maali Hospital", "opening_hours": "24/7", "phone": "0137200025", "website": "http://www.almaali.sa/"}}, {"type": "node", "id": 4594406390, "lat": 25.3652563, "lon": 49.5990222, "tags": {"amenity": "hospital", "name": "\u0645\u0633\u062a\u0634\u0641\u0649 \u0627\u0644\u0645\u0627\u0646\u0639 \u0627\u0644\u0639\u0627\u0645 \u0628\u0627\u0644\u0647\u0641\u0648\u0641", "name:ar": "\u0645\u0633\u062a\u0634\u0641\u0649 \u0627\u0644\u0645\u0627\u0646\u0639 \u0627\u0644\u0639\u0627\u0645 \u0628\u0627\u0644\u0647\u0641\u0648\u0641"}}, {"type": "node", "id": 4597725991, "lat": 25.4373036, "lon": 49.5721065, "tags": {"addr:street": "\u0634\u0627\u0631\u0639 \u0627\u0644\u0638\u0647\u0631\u0627\u0646", "amenity": "hospital", "name": "\u0645\u0633\u062a\u0634\u0641\u0649 \u0627\u0644\u0645\u0648\u0633\u0649", "name:ar": "\u0645\u0633\u062a\u0634\u0641\u0649 \u0627\u0644\u0645\u0648\u0633\u0649", "name:en": "Almoosa Specialist Hospital"}}, {"type": "node", "id": 4618465692, "lat": 26.0326111, "lon": 44.9389714, "tags": {"amenity": "hospital", "name": "\u0645\u0633\u062a\u0634\u0641\u0649 \u0627\u0644\u063a\u0627\u0637", "name:ar": "\u0645\u0633\u062a\u0634\u0641\u0649 \u0627\u0644\u063a\u0627\u0637"}}, {"type": "node", "id": 4653594889, "lat": 26.3667154, "lon": 43.9366684, "tags": {"amenity": "hospital", "name": "\u0645\u062c\u0645\u0639 \u0631\u0634\u064a\u062f \u0627\u0644\u0637\u0628\u064a"}}, {"type": "node", "id": 4659468097, "lat": 26.3936892, "lon": 43.9308401, "tags": {"amenity": "hospital", "healthcare": "hospital", "name": "\u0627\u0644\u0648\u062d\u062f\u0629 \u0627\u0644\u0635\u062d\u064a\u0629 \u0644\u0644\u0628\u0646\u064a\u0646", "name:ar": "\u0627\u0644\u0648\u062d\u062f\u0629 \u0627\u0644\u0635\u062d\u064a\u0629 \u0644\u0644\u0628\u0646\u064a\u0646"}}, {"type": "node", "id": 4662384190, "lat": 25.4564244, "lon": 49.5528582, "tags": {"amenity": "hospital", "name": "\u0645\u0633\u062a\u0634\u0641\u0649 \u0627\u0644\u0623\u0645\u064a\u0631 \u0633\u0639\u0648\u062f \u0628\u0646 \u062c\u0644\u0648\u064a", "opening_hours": "24/7"}}, {"type": "node", "id": 4662644992, "lat": 29.3214365, "lon": 47.904616, "tags": {"addr:street": "\u0627\u0644\u062c\u0647\u0631\u0627\u0621 \u0627\u0644\u0633\u0631\u064a\u0639", "amenity": "hospital", "internet_access": "wlan", "name": "\u0645\u0631\u0643\u0632 \u0627\u0644\u0646\u0641\u064a\u0633\u064a \u0644\u0644\u063a\u0633\u064a\u0644 \u0627\u0644\u0643\u0644\u0648\u064a", "name:ar": "\u0645\u0631\u0643\u0632 \u0627\u0644\u0646\u0641\u064a\u0633\u064a \u0644\u0644\u063a\u0633\u064a\u0644 \u0627\u0644\u0643\u0644\u0648\u064a", "name:en": "Al-Nfesi center for dialysis", "opening_hours": "24/7"}}, {"type": "node", "id": 4681231793, "lat": 24.6640318, "lon": 46.7171387, "tags": {"amenity": "hospital"}}, {"type": "node", "id": 4683795504, "lat": 27.0104888, "lon": 49.6513324, "tags": {"amenity": "hospital", "healthcare": "hospital", "name": "Jubail Medical Center"}}, {"type": "node", "id": 4683848995, "lat": 26.9972269, "lon": 49.6453023, "tags": {"amenity": "hospital", "healthcare": "hospital", "name:en": "KIMS Hospital"}}, {"type": "node", "id": 4691206490, "lat": 24.713169, "lon": 46.6213305, "tags": {"addr:street": "King Khalid Road", "amenity": "hospital", "name": "Dc 41", "name:ar": "Dc 41"}}, {"type": "node", "id": 4693900090, "lat": 24.6138392, "lon": 46.698579, "tags": {"addr:street": "\u0634\u0627\u0631\u0639 \u0627\u0644\u0628\u0631\u062f\u0629", "amenity": "hospital", "internet_access": "wlan", "name": "\u0645\u0631\u0643\u0632 \u0627\u0644\u0635\u062d\u064a \u0639\u0633\u064a\u0631", "opening_hours": "Sa-Th"}}, {"type": "node", "id": 4699902293, "lat": 29.2512174, "lon": 48.0810462, "tags": {"addr:city": "\u0635\u0628\u0627\u062d \u0627\u0644\u0633\u0627\u0644\u0645", "addr:country": "KW", "amenity": "hospital", "facebook": "https://ar-ar.facebook.com/TaibaHospitalQ8/", "name": "\u0645\u0633\u062a\u0634\u0641\u0649 \u0637\u064a\u0628\u0629", "name:ar": "\u0645\u0633\u062a\u0634\u0641\u0649 \u0637\u064a\u0628\u0629", "name:en": "Taiba Hospital", "website": "https://www.taibahospital.com/"}}, {"type": "node", "id": 4701208889, "lat": 27.5701397, "lon": 41.6921432, "tags": {"amenity": "hospital", "name": "\u0645\u0633\u062a\u0634\u0641\u0649 \u0627\u0644\u0645\u0644\u0643 \u0633\u0644\u0645\u0627\u0646 \u0627\u0644\u062a\u062e\u0635\u0635\u064a", "name:ar": "\u0645\u0633\u062a\u0634\u0641\u0649 \u0627\u0644\u0645\u0644\u0643 \u0633\u0644\u0645\u0627\u0646 \u0627\u0644\u062a\u062e\u0635\u0635\u064a"}}, {"type": "node", "id": 4716880593, "lat": 28.4427704, "lon": 46.0071724, "tags": {"amenity": "hospital", "healthcare": "hospital", "name": "\u0645\u0633\u062a\u0634\u0641\u0649 \u0627\u0644\u0627\u0637\u0641\u0627\u0644 \u0648\u0627\u0644\u0648\u0644\u0627\u062f\u0647", "name:ar": "\u0645\u0633\u062a\u0634\u0641\u0649 \u0627\u0644\u0627\u0637\u0641\u0627\u0644 \u0648\u0627\u0644\u0648\u0644\u0627\u062f\u0647", "name:en": "Maternity & Children Hospital", "operator": "\u0648\u0632\u0627\u0631\u0629 \u0627\u0644\u0635\u062d\u0629", "operator:type": "public"}}, {"type": "node", "id": 4721511293, "lat": 27.5695444, "lon": 41.6897103, "tags": {"amenity": "hospital", "name": "\u0627\u062f\u0627\u0631\u0629 \u0627\u0644\u0645\u062e\u062a\u0628\u0631\u0627\u062a \u0648\u0628\u0646\u0648\u0643 \u0627\u0644\u062f\u0645 \u0648\u0627\u0644\u0645\u062e\u062a\u0628\u0631 \u0627\u0644\u0627\u0642\u0644\u064a\u0645\u064a", "name:ar": "\u0627\u062f\u0627\u0631\u0629 \u0627\u0644\u0645\u062e\u062a\u0628\u0631\u0627\u062a \u0648\u0628\u0646\u0648\u0643 \u0627\u0644\u062f\u0645 \u0648\u0627\u0644\u0645\u062e\u062a\u0628\u0631 \u0627\u0644\u0627\u0642\u0644\u064a\u0645\u064a", "name:en": "REGIONAL LABORATORY"}}, {"type": "node", "id": 4739716624, "lat": 27.5532813, "lon": 41.6797056, "tags": {"amenity": "hospital", "name": "\u0645\u0633\u062a\u0634\u0641\u0649 \u0633\u0644\u0627\u0645\u0627\u062a \u0627\u0644\u0637\u0628\u064a", "name:ar": "\u0645\u0633\u062a\u0634\u0641\u0649 \u0633\u0644\u0627\u0645\u0627\u062a \u0627\u0644\u0637\u0628\u064a"}}, {"type": "node", "id": 4741400726, "lat": 25.4398025, "lon": 49.5710508, "tags": {"amenity": "hospital", "name": "\u0645\u0633\u062a\u0634\u0641\u0649 \u0628\u0646 \u062c\u0644\u0648\u064a \u0627\u0644\u0642\u062f\u064a\u0645", "name:ar": "\u0645\u0633\u062a\u0634\u0641\u0649 \u0628\u0646 \u062c\u0644\u0648\u064a \u0627\u0644\u0642\u062f\u064a\u0645"}}, {"type": "node", "id": 4747459322, "lat": 29.3369909, "lon": 47.6781108, "tags": {"addr:city": "\u0627\u0644\u062c\u0647\u0631\u0627\u0621", "addr:city:en": "Jahra", "addr:country": "KW", "amenity": "hospital", "name": "\u0645\u0633\u062a\u0634\u0641\u0649 \u0627\u0644\u062c\u0647\u0631\u0627\u0621", "name:ar": "\u0645\u0633\u062a\u0634\u0641\u0649 \u0627\u0644\u062c\u0647\u0631\u0627\u0621", "name:en": "Jahra Hospital", "name:zh": "\u6770\u8d6b\u62c9\u533b\u9662"}}, {"type": "node", "id": 4781580722, "lat": 27.9847275, "lon": 45.5635263, "tags": {"amenity": "hospital", "name:en": "Northern areas Armed Forces Hospital"}}, {"type": "node", "id": 4781746022, "lat": 24.5623363, "lon": 46.5402127, "tags": {"amenity": "hospital", "name": "\u0645\u0631\u0643\u0632 \u0635\u062d\u064a", "name:ar": "\u0645\u0631\u0643\u0632 \u0635\u062d\u064a", "name:en": "Markz sahe"}}, {"type": "node", "id": 4789047421, "lat": 27.4294378, "lon": 41.7214427, "tags": {"amenity": "hospital", "healthcare": "hospital", "name": "\u0645\u0633\u062a\u0634\u0641\u0649 \u0627\u0644\u0635\u062d\u0629 \u0627\u0644\u0646\u0641\u0633\u064a\u0629 \u0628\u062d\u0627\u0626\u0644", "name:ar": "\u0645\u0633\u062a\u0634\u0641\u0649 \u0627\u0644\u0635\u062d\u0629 \u0627\u0644\u0646\u0641\u0633\u064a\u0629 \u0628\u062d\u0627\u0626\u0644"}}, {"type": "node", "id": 4796434721, "lat": 20.4537179, "lon": 44.8460303, "tags": {"amenity": "hospital", "email": "zafer.fe7an@gmail.com", "healthcare": "hospital", "name": "\u0645\u0631\u0643\u0632 \u0627\u0644\u0631\u0639\u0627\u064a\u0629 \u0627\u0644\u0635\u062d\u064a\u0647 \u0628\u0627\u0644\u0646\u0648\u064a\u0639\u0645\u0629"}}, {"type": "node", "id": 4827043324, "lat": 27.467447, "lon": 41.6326133, "tags": {"amenity": "hospital", "name": "\u0645\u0633\u062a\u0634\u0641\u0649 \u062d\u0627\u0626\u0644 \u0627\u0644\u0639\u0627\u0645 \u0627\u0644\u062c\u062f\u064a\u062f", "name:ar": "\u0645\u0633\u062a\u0634\u0641\u0649 \u062d\u0627\u0626\u0644 \u0627\u0644\u0639\u0627\u0645 \u0627\u0644\u062c\u062f\u064a\u062f"}}, {"type": "node", "id": 4848062528, "lat": 27.0064454, "lon": 49.6619392, "tags": {"addr:postcode": "31961", "amenity": "hospital", "healthcare": "hospital", "name": "\u0645\u062c\u0645\u0639 \u0645\u0631\u06a9\u0632 \u0627\u0644\u062e\u0644\u06cc\u062c \u0627\u0644\u0627\u0633\u06cc\u0648\u064a \u0627\u0644\u0637\u0628\u064a", "name:en": "Gulf Asian Medical Center", "opening_hours": "Sa-Th 09:00-21:00"}}, {"type": "node", "id": 4856005127, "lat": 25.3387406, "lon": 49.6125532, "tags": {"amenity": "hospital", "name:en": "almazroa health care center", "opening_hours": "Su-Th 08:00-16:00", "website": "https://www.moh.gov.sa/"}}, {"type": "node", "id": 4869593322, "lat": 20.4600558, "lon": 44.7523, "tags": {"amenity": "hospital", "name": "\u0645\u0633\u062a\u0634\u0641\u0649 \u0627\u0644\u0639\u0633\u0643\u0631\u064a", "name:ar": "\u0645\u0633\u062a\u0634\u0641\u0649 \u0627\u0644\u0639\u0633\u0643\u0631\u064a"}}, {"type": "node", "id": 4883439121, "lat": 24.5859269, "lon": 46.6798455, "tags": {"addr:street": "\u0634\u0627\u0631\u0639 \u0627\u0644 \u0639\u0628\u0627\u062f", "amenity": "hospital", "name": "\u0645\u0633\u062a\u0648\u0635\u0641 \u0627\u0644\u062e\u0644\u064a\u062c\u064a \u0627\u0644\u0637\u0628\u064a \u0628\u0634\u0628\u0631\u0627", "name:ar": "\u0645\u0633\u062a\u0648\u0635\u0641 \u0627\u0644\u062e\u0644\u064a\u062c\u064a \u0627\u0644\u0637\u0628\u064a \u0628\u0634\u0628\u0631\u0627"}}, {"type": "node", "id": 4893393221, "lat": 27.0134993, "lon": 49.6288545, "tags": {"amenity": "hospital", "healthcare": "hospital", "name": "\u0645\u062c\u0645\u0639 \u0639\u064a\u0627\u062f\u0627\u062a \u0627\u0644\u0631\u0627\u0632\u064a \u0627\u0644\u0637\u0628\u064a - \u0627\u0644\u062c\u0628\u064a\u0644", "name:en": "Arrazi Clinics", "opening_hours": "24/7"}}, {"type": "node", "id": 4921882922, "lat": 27.0141208, "lon": 49.6366869, "tags": {"addr:street": "jeddah Street", "amenity": "hospital", "healthcare": "hospital", "name": "Khonaini Medicare", "name:en": "Khonani Medicare"}}, {"type": "node", "id": 4977088529, "lat": 25.9457833, "lon": 42.3040167, "tags": {"amenity": "hospital", "name": "\u0645\u0633\u062a\u0648\u0635\u0641 \u0627\u0644\u0628\u0643\u0631\u0629"}}, {"type": "node", "id": 4986708825, "lat": 26.7839163, "lon": 42.0691912, "tags": {"addr:street": "\u0627\u0644\u0634\u0627\u0631\u0639 \u0627\u0644\u0639\u0627\u0645", "amenity": "hospital", "name": "\u0645\u0633\u062a\u0648\u0635\u0641 \u0639\u0642\u0644\u0629 \u0628\u0646 \u062f\u0627\u0646\u064a"}}, {"type": "node", "id": 4989396023, "lat": 27.118255, "lon": 49.5480621, "tags": {"amenity": "hospital", "emergency": "yes", "healthcare": "hospital", "healthcare:speciality": "Multi-Speciality", "name": "\u0645\u0633\u062a\u0634\u0641\u0649 \u0627\u0644\u0645\u0627\u0646\u0639", "name:en": "Al Mana Hospital Main Building"}}, {"type": "node", "id": 4989402222, "lat": 27.137316, "lon": 49.5366974, "tags": {"amenity": "hospital", "healthcare": "hospital", "name": "Mouwasat hospital"}}, {"type": "node", "id": 5021592921, "lat": 24.8009724, "lon": 46.8715477, "tags": {"amenity": "hospital", "name": "\u0645\u0633\u062a\u0634\u0641\u064a \u0639\u0646\u0627\u064a\u0629 \u0627\u0644\u0639\u0627\u0626\u0644\u0629", "name:ar": "\u0645\u0633\u062a\u0634\u0641\u064a \u0639\u0646\u0627\u064a\u0629 \u0627\u0644\u0639\u0627\u0626\u0644\u0629", "name:en": "family care hospital"}}, {"type": "node", "id": 5027405921, "lat": 26.3755837, "lon": 43.9587455, "tags": {"amenity": "hospital", "healthcare": "hospital", "name": "Al Fliew Hospital", "name:ar": "\u0645\u0633\u062a\u0648\u0635\u0641\u0627\u062a \u0627\u0644\u0641\u0644\u064a\u0648"}}, {"type": "node", "id": 5036092821, "lat": 27.4231606, "lon": 41.7313931, "tags": {"amenity": "hospital", "healthcare": "hospital", "name": "\u0645\u062c\u0645\u0639 \u0627\u0644\u0623\u0645\u0644 \u0644\u0644\u0635\u062d\u0629 \u0627\u0644\u0646\u0641\u0633\u064a\u0629 \u0628\u062d\u0627\u0626\u0644", "phone": "0165327755"}}, {"type": "node", "id": 5097052021, "lat": 29.3321125, "lon": 47.897482, "tags": {"amenity": "hospital", "name:en": "Chest disease hospital", "opening_hours": "24/7"}}, {"type": "node", "id": 5172454621, "lat": 24.1499125, "lon": 47.2707405, "tags": {"amenity": "hospital", "healthcare": "hospital", "name": "\u0645\u0633\u062a\u0648\u0635\u0641 \u0627\u0644\u0637\u0628 \u0627\u0644\u0639\u0627\u0644\u0645\u064a"}}, {"type": "node", "id": 5263321422, "lat": 24.7037444, "lon": 46.8017677, "tags": {"addr:postcode": "11433", "addr:street": "\u0634\u0627\u0631\u0639 \u0627\u0644\u0625\u0645\u0627\u0645 \u0627\u0644\u0634\u0627\u0641\u0639\u064a", "amenity": "hospital", "name": "\u0645\u0633\u062a\u0634\u0641\u0649 \u0627\u0644\u0633\u0644\u0627\u0645", "name:en": "Al Salam Hospital", "opening_hours": "24/7", "phone": "+9662222211"}}, {"type": "node", "id": 5300227324, "lat": 26.4957757, "lon": 43.6290799, "tags": {"amenity": "hospital", "name": "\u0645\u0633\u062a\u0634\u0641\u0649 \u0639\u064a\u0648\u0646 \u0627\u0644\u062c\u0648\u0627\u0621", "name:en": "Oyon ALJewaa Hospital"}}, {"type": "node", "id": 5456442721, "lat": 28.4219544, "lon": 45.926221, "tags": {"amenity": "hospital", "healthcare": "hospital", "internet_access": "wlan"}}, {"type": "node", "id": 6290939685, "lat": 25.4195236, "lon": 49.7449142, "tags": {"amenity": "hospital", "name": "\u0645\u0633\u062a\u0634\u0641\u0649 \u0627\u0644\u0639\u0645\u0631\u0627\u0646"}}, {"type": "node", "id": 6292916668, "lat": 24.6708929, "lon": 46.6781378, "tags": {"amenity": "hospital", "healthcare": "hospital", "name": "\u0627\u0644\u0637\u0648\u0627\u0631\u0626"}}, {"type": "node", "id": 6591379354, "lat": 24.7211092, "lon": 46.7749475, "tags": {"amenity": "hospital", "description": "\u0645\u0633\u062a\u0634\u0641\u0649 \u0627\u0644\u062f\u0643\u062a\u0648\u0631 \u0633\u0644\u064a\u0645\u0627\u0646 \u0627\u0644\u062d\u0628\u064a\u0628 - \u0641\u0631\u0639 \u0627\u0644\u0631\u064a\u0627\u0646", "healthcare": "hospital", "name": "\u0645\u0633\u062a\u0634\u0641\u0649 \u062f.\u0633\u0644\u064a\u0645\u0627\u0646 \u0627\u0644\u062d\u0628\u064a\u0628", "name:en": "Dr. Sulaiman Al Habib Hospital", "phone": "+966 11 490 9999", "url": "hmg.com.sa"}}, {"type": "node", "id": 6591379355, "lat": 24.7191157, "lon": 46.6569223, "tags": {"amenity": "hospital", "healthcare": "hospital", "name": "\u0645\u0633\u062a\u0634\u0641\u0649 \u062f.\u0633\u0644\u064a\u0645\u0627\u0646 \u0627\u0644\u062d\u0628\u064a\u0628", "name:en": "Dr. Sulaiman Al Habib Hospital", "phone": "+966 11 283 3333", "url": "hmg.com.sa"}}, {"type": "node", "id": 6591379374, "lat": 24.7043587, "lon": 46.6766773, "tags": {"amenity": "hospital", "description": "\u0645\u0633\u062a\u0634\u0641\u0649 \u0627\u0644\u062f\u0643\u062a\u0648\u0631 \u0633\u0644\u064a\u0645\u0627\u0646 \u0627\u0644\u062d\u0628\u064a\u0628 - \u0641\u0631\u0639 \u0627\u0644\u0639\u0644\u064a\u0627", "healthcare": "hospital", "name": "\u0645\u0633\u062a\u0634\u0641\u0649 \u062f.\u0633\u0644\u064a\u0645\u0627\u0646 \u0627\u0644\u062d\u0628\u064a\u0628", "name:en": "Dr. Sulaiman Al Habib Hospital", "phone": "+966 11 525 9999", "url": "hmg.com.sa"}}, {"type": "node", "id": 6685537807, "lat": 24.6714995, "lon": 46.6775189, "tags": {"amenity": "hospital", "healthcare": "hospital", "name": "\u0645\u0628\u0646\u0649 \u0627\u0644\u0639\u064a\u0627\u062f\u0627\u062a \u0627\u0644\u062e\u0627\u0631\u062c\u064a\u0629"}}, {"type": "node", "id": 6685537808, "lat": 24.6718644, "lon": 46.6767299, "tags": {"amenity": "hospital", "healthcare": "hospital", "name": "\u0645\u0628\u0646\u0649 \u0639\u064a\u0627\u062f\u0629 \u0627\u0644\u0623\u0648\u0631\u0627\u0645"}}, {"type": "node", "id": 6685537809, "lat": 24.6722421, "lon": 46.6764375, "tags": {"amenity": "hospital", "healthcare": "hospital", "name": "\u0645\u0631\u0643\u0632 \u0627\u0644\u0623\u0628\u062d\u0627\u062b"}}, {"type": "node", "id": 6685537810, "lat": 24.671922, "lon": 46.6753844, "tags": {"amenity": "hospital", "healthcare": "hospital", "name": "\u0627\u0644\u0628\u0631\u062c \u0627\u0644\u0634\u0645\u0627\u0644\u064a"}}, {"type": "node", "id": 6685537811, "lat": 24.6704529, "lon": 46.6765256, "tags": {"amenity": "hospital", "healthcare": "hospital", "name": "\u0628\u0646\u0643 \u0627\u0644\u062f\u0645"}}, {"type": "node", "id": 6685537812, "lat": 24.6696879, "lon": 46.6773498, "tags": {"amenity": "hospital", "healthcare": "hospital", "name": "\u0627\u0644\u0645\u062f\u062e\u0644 \u0627\u0644\u0631\u0626\u064a\u0633\u064a"}}, {"type": "node", "id": 6783657385, "lat": 24.663358, "lon": 46.6832163, "tags": {"amenity": "hospital", "healthcare": "hospital", "name": "\u0645\u0633\u062a\u0634\u0641\u0649 \u0627\u0644\u062f\u0627\u0631\u0629", "name:en": "Al Dara Hospital"}}, {"type": "node", "id": 6785915494, "lat": 26.7823385, "lon": 41.3136087, "tags": {"amenity": "hospital", "name": "\u0645\u0633\u062a\u0634\u0641\u0649 \u0627\u0644\u063a\u0632\u0627\u0644\u0629 \u0627\u0644\u0639\u0627\u0645"}}, {"type": "node", "id": 6787328729, "lat": 26.3016368, "lon": 44.8139952, "tags": {"amenity": "hospital", "name": "\u0645\u0633\u062a\u0648\u0635\u0641 \u0627\u0644\u0642\u0645\u0629"}}, {"type": "node", "id": 6793821387, "lat": 26.4323886, "lon": 44.6981918, "tags": {"amenity": "hospital", "name": "\u0645\u0631\u0643\u0632 \u0635\u062d\u064a \u0627\u0644\u062c\u0648\u064a"}}, {"type": "node", "id": 6834328901, "lat": 24.8629022, "lon": 46.5873739, "tags": {"amenity": "hospital", "designation": "general", "emergency": "yes", "name": "alhabib hospital", "source": "Bing"}}, {"type": "node", "id": 6855233076, "lat": 26.3063882, "lon": 44.811044, "tags": {"amenity": "hospital", "name": "\u0645\u0633\u062a\u0648\u0635\u0641 \u0627\u0644\u0632\u0644\u0641\u064a \u0627\u0644\u0637\u0628\u064a"}}, {"type": "node", "id": 6893614940, "lat": 26.3260136, "lon": 43.961376, "tags": {"amenity": "hospital", "name": "\u0627\u0644\u0639\u062c\u0627\u062c\u064a \u0644\u0637\u0628 \u0627\u0644\u0627\u0633\u0646\u0627\u0646"}}, {"type": "node", "id": 6894976437, "lat": 26.0494724, "lon": 43.5578551, "tags": {"amenity": "hospital", "name": "\u0645\u0633\u062a\u0634\u0641\u0649 \u0631\u064a\u0627\u0636 \u0627\u0644\u062e\u0628\u0631\u0627\u0621 \u0627\u0644\u0639\u0627\u0645"}}, {"type": "node", "id": 6899659685, "lat": 26.275344, "lon": 44.0400238, "tags": {"amenity": "hospital", "name": "\u0645\u062c\u0645\u0639 \u0627\u0644\u0623\u0645\u0644 \u0644\u0644\u0635\u062d\u0629 \u0627\u0644\u0646\u0641\u0633\u064a\u0629 \u0628\u0627\u0644\u0642\u0635\u064a\u0645"}}, {"type": "node", "id": 6900689669, "lat": 26.3280549, "lon": 43.9511213, "tags": {"amenity": "hospital", "name": "\u0628\u0631\u064a\u062f\u0629 \u0644\u0637\u0628 \u0627\u0644\u0623\u0633\u0646\u0627\u0646"}}, {"type": "node", "id": 6904865237, "lat": 26.3171557, "lon": 43.9824368, "tags": {"amenity": "hospital", "name": "\u0645\u0633\u062a\u0634\u0641\u0649 \u0627\u0644\u0641\u0631\u064a\u062d"}}, {"type": "node", "id": 6953249575, "lat": 24.6788288, "lon": 46.7760564, "tags": {"addr:city": "\u0627\u0644\u0631\u064a\u0627\u0636", "addr:housenumber": "\u062d\u064a \u0627\u0644\u0631\u0628\u0648\u0629", "addr:postcode": "12883", "addr:street": "\u0634\u0627\u0631\u0639 \u0635\u0644\u0627\u062d \u0627\u0644\u062f\u064a\u0646 \u0627\u0644\u0623\u064a\u0648\u0628\u064a", "amenity": "hospital", "emergency": "yes", "healthcare": "hospital", "healthcare:speciality": "dentist", "name": "\u0635\u0641\u0648\u0629 \u0627\u0644\u0645\u0647\u064a\u062f\u0628 - \u0641\u0631\u0639 \u0627\u0644\u0631\u0628\u0648\u0629", "operator": "\u0635\u0641\u0648\u0629 \u0627\u0644\u0645\u0647\u064a\u062f\u0628 - \u0641\u0631\u0639 \u0627\u0644\u0631\u0628\u0648\u0629", "operator:type": "business", "phone": "+966536536366"}}, {"type": "node", "id": 7011337045, "lat": 24.6944418, "lon": 46.7902221, "tags": {"addr:street": "\u0627\u0644\u0632\u0628\u064a\u0631 \u0628\u0646 \u0627\u0644\u0639\u0648\u0627\u0645", "amenity": "hospital", "name": "\u0639\u064a\u0627\u062f\u0627\u062a \u0633\u0645\u0627"}}, {"type": "node", "id": 7022884871, "lat": 24.6859304, "lon": 46.7664237, "tags": {"amenity": "hospital", "name": "\u0645\u0633\u062a\u0648\u0635\u0641 \u0627\u0644\u0637\u0628 \u0627\u0644\u062d\u062f\u064a\u062b"}}, {"type": "node", "id": 7029417034, "lat": 26.4956723, "lon": 42.1183943, "tags": {"amenity": "hospital", "healthcare": "hospital", "name": "\u0645\u0633\u062a\u0634\u0641\u0649 \u0633\u0645\u064a\u0631\u0627\u0621 \u0627\u0644\u0639\u0627\u0645"}}, {"type": "node", "id": 7040217026, "lat": 26.8831143, "lon": 44.1534318, "tags": {"amenity": "hospital", "healthcare": "hospital", "name": "\u0645\u0631\u0643\u0632 \u0627\u0644\u0631\u0639\u0627\u064a\u0629 \u0627\u0644\u0627\u0648\u0644\u064a\u0629 \u0628\u0627\u0644\u062e\u0635\u064a\u0628\u0629"}}, {"type": "node", "id": 7081771114, "lat": 25.4721, "lon": 44.4234, "tags": {"amenity": "hospital", "name": "\u0645\u0633\u062a\u0634\u0641\u0649 \u0648\u062b\u064a\u0644\u0627\u0646"}}, {"type": "node", "id": 7093354393, "lat": 27.8613313, "lon": 44.8951813, "tags": {"amenity": "hospital", "name": "\u0645\u0631\u0643\u0632 \u0627\u0644\u0631\u0639\u0627\u064a\u0629 \u0627\u0644\u0635\u062d\u064a\u0647 \u0628\u0633\u0627\u0645\u0648\u062f\u0647"}}, {"type": "node", "id": 7139090949, "lat": 20.4689165, "lon": 44.7905717, "tags": {"amenity": "hospital", "healthcare": "hospital", "name": "\u0635\u064a\u062f\u0644\u064a\u0629"}}, {"type": "node", "id": 7139094625, "lat": 20.4694751, "lon": 44.7905373, "tags": {"amenity": "hospital", "healthcare": "hospital", "name": "\u0635\u064a\u062f\u0644\u064a\u0629 \u0627\u0644\u0648\u0639\u0644\u0627\u0646"}}, {"type": "node", "id": 7139355122, "lat": 20.4730825, "lon": 44.7871564, "tags": {"amenity": "hospital", "healthcare": "hospital", "name": "\u0645\u062c\u0645\u0639 \u0639\u064a\u0627\u062f\u0627\u062a \u0627\u0644\u062e\u0645\u0627\u0633\u064a\u0646 \u0627\u0644\u0637\u0628\u064a"}}, {"type": "node", "id": 7139355174, "lat": 20.4485037, "lon": 44.824924, "tags": {"amenity": "hospital", "healthcare": "hospital", "name": "\u0645\u0633\u062a\u0648\u0635\u0641 \u0627\u0644\u0645\u0639\u062a\u0644\u0649"}}, {"type": "node", "id": 7139783457, "lat": 20.4472745, "lon": 44.8556762, "tags": {"amenity": "hospital", "name": "\u0645\u0633\u062a\u0634\u0641\u0649 \u0627\u0644\u0646\u0648\u064a\u0639\u0645\u0629-\u0627\u0644\u0645\u0633\u0646"}}, {"type": "node", "id": 7177521322, "lat": 21.2444509, "lon": 40.417303, "tags": {"addr:city": "\u0627\u0644\u0637\u0627\u0626\u0641", "addr:postcode": "21944", "addr:street": "\u0634\u0627\u0631\u0639 \u0634\u0647\u0627\u0631", "amenity": "hospital", "healthcare": "hospital", "name": "\u0645\u062c\u0645\u0639 \u0627\u0644\u0627\u0646\u062f\u0644\u0633 \u0627\u0644\u0637\u0628\u064a \u0627\u0644\u0639\u0627\u0645"}}, {"type": "node", "id": 7217806920, "lat": 24.7445982, "lon": 46.6980459, "tags": {"amenity": "hospital", "emergency": "yes"}}, {"type": "node", "id": 7227584111, "lat": 20.4607, "lon": 44.8045, "tags": {"amenity": "hospital", "name": "\u0645\u0633\u062a\u0648\u0635\u0641 \u0627\u0644\u0645\u0639\u0627\u0648\u062f\u0629 \u0644\u0637\u0628 \u0627\u0644\u0627\u0633\u0646\u0627\u0646"}}, {"type": "node", "id": 7236262103, "lat": 24.3051151, "lon": 43.7650593, "tags": {"amenity": "hospital", "name": "\u0645\u0633\u062a\u0634\u0641\u0649 \u0627\u0644\u0628\u062c\u0627\u062f\u064a\u0629 \u0627\u0644\u0639\u0627\u0645"}}, {"type": "node", "id": 7283267323, "lat": 26.0258, "lon": 43.2762, "tags": {"amenity": "hospital", "name": "\u0645\u0633\u062a\u0648\u0635\u0641"}}, {"type": "node", "id": 7335285643, "lat": 25.8527, "lon": 43.075, "tags": {"amenity": "hospital", "healthcare": "hospital", "name": "\u0645\u0633\u062a\u0634\u0641\u0649 \u0627\u0644\u0646\u0628\u0647\u0627\u0646\u064a\u0629 \u0627\u0644\u0639\u0627\u0645"}}, {"type": "node", "id": 7340042709, "lat": 26.0231, "lon": 43.0266, "tags": {"amenity": "hospital", "name": "\u0627\u0644\u0645\u0631\u0643\u0632 \u0627\u0644\u0637\u0628\u064a \u0641\u064a \u0635\u0628\u064a\u062d"}}, {"type": "node", "id": 7342656989, "lat": 24.7238, "lon": 42.9234, "tags": {"amenity": "hospital", "name": "\u0645\u0633\u062a\u0634\u0641\u0649 \u0636\u0631\u064a\u0629 \u0627\u0644\u0639\u0627\u0645"}}, {"type": "node", "id": 7343729782, "lat": 25.57072, "lon": 46.9813783, "tags": {"amenity": "hospital", "healthcare": "hospital", "name": "\u0645\u0631\u0643\u0632 \u0635\u062d\u064a"}}, {"type": "node", "id": 7350036570, "lat": 29.6376, "lon": 43.5153, "tags": {"amenity": "hospital", "name": "\u0645\u0633\u062a\u0634\u0641\u0649 \u0631\u0641\u062d\u0627\u0621 \u0627\u0644\u0645\u0631\u0643\u0632\u064a"}}, {"type": "node", "id": 7350487473, "lat": 27.408, "lon": 44.3269, "tags": {"amenity": "hospital", "name": "\u0645\u0633\u062a\u0634\u0641\u0649 \u0642\u0628\u0629 \u0627\u0644\u0639\u0627\u0645"}}, {"type": "node", "id": 7352258480, "lat": 27.4724, "lon": 48.4655, "tags": {"amenity": "hospital", "name": "\u0645\u0633\u062a\u0634\u0641\u0649 \u0627\u0644\u0646\u0639\u064a\u0631\u064a\u0629 \u0627\u0644\u0639\u0627\u0645"}}, {"type": "node", "id": 7358440101, "lat": 26.4977711, "lon": 45.3634113, "tags": {"amenity": "hospital", "name": "\u0645\u0633\u062a\u0634\u0641\u0649 \u0627\u0644\u0627\u0631\u0637\u0627\u0648\u064a\u0629 \u0627\u0644\u0639\u0627\u0645"}}, {"type": "node", "id": 7384346417, "lat": 25.0746, "lon": 45.4619, "tags": {"amenity": "hospital", "name": "\u0645\u0633\u062a\u0634\u0641\u0649 \u0645\u062d\u0627\u0641\u0638\u0629 \u0645\u0631\u0627\u062a \u0627\u0644\u0639\u0627\u0645"}}, {"type": "node", "id": 7440135188, "lat": 25.1136, "lon": 46.1102, "tags": {"amenity": "hospital", "name": "\u0645\u0633\u062a\u0634\u0641\u0649 \u062d\u0631\u064a\u0645\u0644\u0627\u0621 \u0627\u0644\u0639\u0627\u0645"}}, {"type": "node", "id": 7490880176, "lat": 25.0219, "lon": 43.8209, "tags": {"amenity": "hospital", "name": "\u0645\u0633\u062a\u0634\u0641\u0649 \u0646\u0641\u064a \u0627\u0644\u0639\u0627\u0645"}}, {"type": "node", "id": 7497406637, "lat": 27.1802, "lon": 42.4309, "tags": {"amenity": "hospital", "name": "\u0645\u0633\u062a\u0634\u0641\u0649 \u0627\u0644\u0634\u0646\u0627\u0646"}}, {"type": "node", "id": 7526717867, "lat": 25.9951, "lon": 40.8189, "tags": {"amenity": "hospital", "name": "\u0645\u0633\u062a\u0634\u0641\u0649 \u0627\u0644\u062d\u0644\u064a\u0641\u0629"}}, {"type": "node", "id": 7533176189, "lat": 25.825, "lon": 42.1878, "tags": {"amenity": "hospital", "name": "\u0645\u0633\u062a\u0634\u0641\u0649 \u0639\u0642\u0644\u0629 \u0627\u0644\u0635\u0642\u0648\u0631"}}, {"type": "node", "id": 7533557967, "lat": 23.502, "lon": 40.8829, "tags": {"amenity": "hospital", "name": "\u0645\u0633\u062a\u0634\u0641\u0649 \u0627\u0644\u0645\u0647\u062f \u0627\u0644\u0639\u0627\u0645"}}, {"type": "node", "id": 7535546651, "lat": 24.6114, "lon": 41.6087, "tags": {"amenity": "hospital", "name": "\u0645\u0633\u062a\u0634\u0641\u0649 \u0627\u0644\u062d\u0633\u0648"}}, {"type": "node", "id": 7535819590, "lat": 24.5442536, "lon": 44.4475726, "tags": {"amenity": "hospital", "name": "\u0645\u0633\u062a\u0634\u0641\u0649 \u0627\u0644\u062f\u0648\u0627\u062f\u0645\u064a \u0627\u0644\u0639\u0627\u0645"}}, {"type": "node", "id": 7543074990, "lat": 21.9088, "lon": 42.0158, "tags": {"amenity": "hospital", "name": "\u0645\u0633\u062a\u0634\u0641\u0649 \u0627\u0644\u062e\u0631\u0645\u0629 \u0627\u0644\u0639\u0627\u0645"}}, {"type": "node", "id": 7855983883, "lat": 22.4307083, "lon": 41.7464792, "tags": {"addr:street": "\u0637\u0631\u064a\u0642 \u0627\u0644\u0645\u0644\u0643 \u0639\u0628\u062f\u0627\u0644\u0639\u0632\u064a\u0632", "amenity": "hospital", "name": "\u0645\u0633\u062a\u0634\u0641\u0649 \u0627\u0644\u0645\u0648\u064a\u0629 \u0627\u0644\u0639\u0627\u0645", "opening_hours": "Mo-Th, Su 08:00-15:00"}}, {"type": "node", "id": 7865135653, "lat": 22.6243138, "lon": 41.3551525, "tags": {"amenity": "hospital", "name": "\u0645\u0633\u062a\u0634\u0641\u0649 \u0623\u0645 \u0627\u0644\u062f\u0648\u0645 \u0627\u0644\u0639\u0627\u0645"}}, {"type": "node", "id": 7954502486, "lat": 23.5039111, "lon": 46.893213, "tags": {"amenity": "hospital", "name:en": "Viola Medical Complex"}}, {"type": "node", "id": 8093059683, "lat": 24.5600138, "lon": 46.5850458, "tags": {"addr:city": "\u0627\u0644\u0631\u064a\u0627\u0636", "addr:street": "\u0639\u0644\u064a \u0628\u0646 \u0634\u064a\u0628\u0627\u0646", "amenity": "hospital", "email": "namarmedicalcomplex.marketing@gmail.com", "emergency": "yes", "healthcare": "hospital", "healthcare:speciality": "clinics;\u0645\u0633\u062a\u0634\u0641\u0649;gynaecology;\u0646\u0633\u0627\u0626\u064a\u0629_\u0648_\u0648\u0644\u0627\u062f\u0629;\u0639\u064a\u0627\u062f\u0627\u062a;specialist_pediatrician;internist", "image": "https://static.wixstatic.com/media/1e494d_3db7bd1f49624dd881033d59b33f6e69f000.jpg/v1/fill/w_521,h_296,al_c,q_80,usm_0.33_1.00_0.00/1e494d_3db7bd1f49624dd881033d59b33f6e69f000.webp", "name": "NAMAR MEDICAL COMPLEX", "operator": "NAMAR", "operator:type": "public", "phone": "00966550909684", "website": "https://namarmedicalcomple.wixsite.com/namarmedicalcomplex"}}, {"type": "node", "id": 8093262518, "lat": 20.4548154, "lon": 44.7399905, "tags": {"addr:postcode": "18415", "addr:street": "Wadi ad Dawasir road", "amenity": "hospital", "name:en": "WDGH ER Department", "opening_hours": "24/7", "phone": "011 784 5555"}}, {"type": "node", "id": 8627353681, "lat": 24.7880082, "lon": 46.6973078, "tags": {"addr:city": "Riyadh", "addr:country": "SA", "addr:district": "Al Wadi", "addr:district:ar": "\u0627\u0644\u0648\u0627\u062f\u064a", "addr:housenumber": "7179", "addr:postcode": "13313 - 3961", "addr:street": "Tarfa", "addr:street:ar": "\u0637\u0631\u0641\u0627", "amenity": "hospital", "emergency": "no", "healthcare": "hospital", "healthcare:speciality": "general", "name": "\u0645\u0631\u0643\u0632 \u0627\u0644\u0631\u0639\u0627\u064a\u0647 \u0627\u0644\u0635\u062d\u064a\u0647 \u0627\u0644\u0623\u0648\u0644\u064a\u0647 (\u0627\u0644\u0648\u0627\u062f\u064a)", "name:ar": "\u0645\u0631\u0643\u0632 \u0627\u0644\u0631\u0639\u0627\u064a\u0647 \u0627\u0644\u0635\u062d\u064a\u0647 \u0627\u0644\u0623\u0648\u0644\u064a\u0647 (\u0627\u0644\u0648\u0627\u062f\u064a)", "name:en": "\u200bPrimary Health Care Clinic (AlWadi)", "operator": "Minstry of Health (MOH)", "operator:type": "government"}}, {"type": "node", "id": 8722542289, "lat": 26.6440309, "lon": 49.9620176, "tags": {"addr:city": "\u0635\u0641\u0648\u0649", "addr:postcode": "32827", "addr:street": "\u0637\u0631\u064a\u0642 \u0627\u0644\u0625\u0645\u0627\u0645 \u0639\u0644\u064a \u0628\u0646 \u0623\u0628\u064a \u0637\u0627\u0644\u0628", "amenity": "hospital", "emergency": "yes", "healthcare": "hospital", "healthcare:speciality": "general", "name": "\u0645\u0633\u062a\u0634\u0641\u0649 \u0635\u0641\u0648\u0649 \u0627\u0644\u0639\u0627\u0645", "name:ar": "\u0645\u0633\u062a\u0634\u0641\u0649 \u0635\u0641\u0648\u0649 \u0627\u0644\u0639\u0627\u0645"}}, {"type": "node", "id": 8841632817, "lat": 29.9666046, "lon": 48.4833419, "tags": {"amenity": "hospital", "name:en": "AL FAW HOSPITAL CIV"}}, {"type": "node", "id": 8986501699, "lat": 27.51522, "lon": 49.2538607, "tags": {"amenity": "hospital", "healthcare": "hospital"}}, {"type": "node", "id": 8988136197, "lat": 29.147477, "lon": 48.1270925, "tags": {"addr:city": "\u0627\u0644\u0645\u0647\u0628\u0648\u0644\u0629", "addr:postcode": "54001", "addr:street": "\u0634\u0627\u0631\u0639 20", "amenity": "hospital", "healthcare": "hospital", "healthcare:speciality": "dermatology", "name": "Dr. Fahad Almutairi Clinic", "name:ar": "\u0639\u064a\u0627\u062f\u0629 \u0627\u0644\u062f\u0643\u062a\u0648\u0631 \u0641\u0647\u062f \u0627\u0644\u0645\u0637\u064a\u0631\u064a", "operator": "Dr Fahad Almutairi", "operator:type": "business"}}, {"type": "node", "id": 9024025117, "lat": 20.4583196, "lon": 45.5842061, "tags": {"amenity": "hospital", "name:en": "As Sulayil General Hospital", "opening_hours": "24/7"}}, {"type": "node", "id": 9365601649, "lat": 29.0986029, "lon": 48.0791478, "tags": {"amenity": "hospital", "emergency": "yes", "healthcare": "hospital", "healthcare:speciality": "general", "name": "New Ahmadi Hospital", "operator": "Kuwait Oil Company", "wheelchair": "yes"}}, {"type": "node", "id": 9561951466, "lat": 24.7497124, "lon": 46.8539965, "tags": {"amenity": "hospital", "healthcare": "hospital", "name": "\u0645\u0633\u062a\u0634\u0641\u0649 \u0627\u0644\u062d\u0631\u0633"}}, {"type": "node", "id": 9659395668, "lat": 24.7873592, "lon": 46.7327316, "tags": {"amenity": "hospital", "healthcare": "hospital", "healthcare:speciality": "general", "name": "Mouwasat Hospital", "website": "https://www.mouwasat.com/"}}, {"type": "node", "id": 9776955083, "lat": 25.2493357, "lon": 45.2544799, "tags": {"amenity": "hospital", "name": "\u0645\u0633\u062a\u0634\u0641\u0649 \u0634\u0642\u0631\u0627\u0621 \u0627\u0644\u0642\u062f\u064a\u0645"}}, {"type": "node", "id": 9997559623, "lat": 29.2579642, "lon": 48.0872433, "tags": {"amenity": "hospital", "emergency": "yes", "healthcare": "hospital", "healthcare:speciality": "ophthalmology;general;dentist;paediatrics;internal;orthopaedics;orthodontics;dermatology;otolaryngology;radiology;surgery;gynaecology;cardiology;vaccination;plastic_surgery;neurology;physiotherapy;anaesthetics;blood_check;clinical_pathology;vascular_surge", "name": "\u0645\u0633\u062a\u0634\u0641\u0649 \u0627\u0644\u0643\u0648\u064a\u062a", "name:en": "Kuwait Hospital", "opening_hours": "24/7", "operator": "GHP", "operator:type": "private", "phone": "22207777"}}, {"type": "node", "id": 10126248317, "lat": 24.7461043, "lon": 46.6509582, "tags": {"amenity": "hospital", "name:en": "Arthopadic ward"}}, {"type": "node", "id": 10166909988, "lat": 29.8397538, "lon": 40.1737174, "tags": {"amenity": "hospital", "healthcare": "hospital", "name": "\u0645\u0633\u062a\u0634\u0641\u0649 \u0627\u0644\u062f\u0643\u062a\u0648\u0631 \u0641\u0627\u0631\u0633 \u0627\u0644\u0647\u062f\u0627\u062c"}}, {"type": "node", "id": 10166976502, "lat": 29.9391406, "lon": 40.1889281, "tags": {"amenity": "hospital", "healthcare": "hospital", "name": "\u0645\u0633\u062a\u0634\u0641\u0649 \u0627\u0644\u0645\u0644\u0643 \u0639\u0628\u062f\u0627\u0644\u0639\u0632\u064a\u0632 \u0627\u0644\u062a\u062e\u0635\u0635\u064a"}}, {"type": "node", "id": 10187823098, "lat": 29.9624885, "lon": 40.1931848, "tags": {"amenity": "hospital", "healthcare": "hospital", "name": "\u0645\u0633\u062a\u0634\u0641\u0649 \u0627\u0644\u0627\u0645\u064a\u0631 \u0645\u062a\u0639\u0628 \u0628\u0646 \u0639\u0628\u062f\u0627\u0644\u0639\u0632\u064a\u0632"}}, {"type": "node", "id": 10237467711, "lat": 29.9352447, "lon": 40.1785369, "tags": {"amenity": "hospital", "healthcare": "hospital", "name": "\u0645\u062f\u064a\u0646\u0629 \u0627\u0644\u0627\u0645\u064a\u0631 \u0645\u062d\u0645\u062f \u0628\u0646 \u0639\u0628\u062f\u0627\u0644\u0639\u0632\u064a\u0632 \u0627\u0644\u0637\u0628\u064a\u0629"}}, {"type": "node", "id": 10238123034, "lat": 29.7938371, "lon": 40.0452813, "tags": {"amenity": "hospital", "healthcare": "hospital", "name": "\u0627\u0644\u0645\u0633\u062a\u0634\u0641\u0649 \u0627\u0644\u062c\u0627\u0645\u0639\u064a"}}, {"type": "node", "id": 10239542169, "lat": 29.9622195, "lon": 40.1944939, "tags": {"amenity": "hospital", "healthcare": "hospital", "name": "\u063a\u0633\u064a\u0644 \u0627\u0644\u0643\u0644\u0649"}}, {"type": "node", "id": 10239582538, "lat": 29.9667001, "lon": 40.196573, "tags": {"amenity": "hospital", "healthcare": "hospital", "name": "\u0627\u0644\u062a\u0645\u0648\u064a\u0646 \u0627\u0644\u0637\u0628\u064a"}}, {"type": "node", "id": 10240338895, "lat": 29.9669241, "lon": 40.1896725, "tags": {"amenity": "hospital", "healthcare": "hospital", "name": "\u0645\u0633\u062a\u0634\u0641\u0649 \u0627\u0644\u0646\u0633\u0627\u0621 \u0648\u0627\u0644\u0648\u0644\u0627\u062f\u0629 \u0648\u0627\u0644\u0627\u0637\u0641\u0627\u0644"}}, {"type": "node", "id": 10264809283, "lat": 24.7738902, "lon": 46.7849257, "tags": {"addr:city": "riyadh", "addr:housenumber": "7883", "addr:postcode": "13223", "addr:street": "\u0634\u0627\u0631\u0639 \u0627\u0644\u0634\u064a\u062e \u0639\u0628\u062f \u0627\u0644\u0639\u0632\u064a\u0632 \u0628\u0646 \u0639\u0628\u062f \u0627\u0644\u0631\u062d\u0645\u0646 \u0628\u0646 \u0628\u0634\u0631", "amenity": "hospital", "description": "HAMC is a leading aesthetic and plastic surgery clinic that provides medical , cosmetic and dental services using luxurious state-of-the-art amenities and world-class service.  Our clinic is managed by professional world renowned doctors, licensed consult", "emergency": "no", "healthcare": "hospital", "healthcare:speciality": "dentist;dermatology;plastic_surgery", "name": "HAMC", "operator": "Dr.Hatem Aman Medical complex", "operator:type": "private_for_profit", "website": "https://www.hamc.com.sa/"}}, {"type": "node", "id": 11049055085, "lat": 24.7276727, "lon": 46.6888869, "tags": {"addr:city": "Riyadh", "addr:housenumber": "12254", "addr:postcode": "12254", "addr:street": "\u0627\u0644\u0634\u064a\u062e \u0639\u0628\u062f\u0627\u0644\u0644\u0647 \u0627\u0644\u0639\u0646\u0642\u0631\u064a", "amenity": "hospital", "healthcare": "hospital", "name": "Almawed Medical Center", "name2": "\u0645\u062c\u0645\u0639 \u0639\u064a\u0627\u062f\u0627\u062a \u0627\u0644\u0645\u0648\u0639\u062f \u0627\u0644\u0637\u0628\u064a", "operator": "Almawed Medical Center", "operator:type": "private"}}, {"type": "node", "id": 11049055086, "lat": 24.7277116, "lon": 46.6888815, "tags": {"addr:city": "Riyadh", "addr:postcode": "12254", "addr:street": "\u0627\u0644\u0634\u064a\u062e \u0639\u0628\u062f\u0627\u0644\u0644\u0647 \u0627\u0644\u0639\u0646\u0642\u0631\u064a", "amenity": "hospital", "healthcare": "hospital", "name": "Almawed Medical Center", "operator": "\u0645\u062c\u0645\u0639 \u0639\u064a\u0627\u062f\u0627\u062a \u0627\u0644\u0645\u0648\u0639\u062f \u0627\u0644\u0637\u0628\u064a", "operator:type": "private"}}, {"type": "node", "id": 11133020206, "lat": 20.4609977, "lon": 44.7517658, "tags": {"amenity": "hospital", "name:en": "Armed Forces Hospital Wadi Al Dawasir"}}, {"type": "node", "id": 11251321276, "lat": 24.6311913, "lon": 46.7531419, "tags": {"amenity": "hospital", "healthcare": "hospital"}}, {"type": "node", "id": 11257601632, "lat": 26.524412, "lon": 49.9666873, "tags": {"amenity": "hospital", "emergency": "yes", "healthcare": "hospital", "healthcare:speciality": "general", "name": "\u0639\u064a\u0627\u062f\u0629 \u0627\u0644\u0627\u0637\u0641\u0627\u0644"}}, {"type": "node", "id": 11294847597, "lat": 26.8866407, "lon": 43.6325827, "tags": {"amenity": "hospital", "name": "\u0645\u0633\u062a\u0634\u0641\u0649 \u0642\u0635\u064a\u0628\u0627\u0621"}}, {"type": "node", "id": 11300480090, "lat": 26.3944645, "lon": 42.340674, "tags": {"amenity": "hospital", "name": "\u0645\u0631\u0643\u0632 \u0635\u062d\u064a \u0627\u0644\u0646\u0645\u0631\u064a\u0629", "name:ar": "\u0645\u0631\u0643\u0632 \u0635\u062d\u064a \u0627\u0644\u0646\u0645\u0631\u064a\u0629", "name:en": "Annemreyah hospital"}}, {"type": "node", "id": 11300480100, "lat": 26.3002912, "lon": 42.4328397, "tags": {"amenity": "hospital", "name": "\u0645\u0633\u062a\u0648\u0635\u0641 \u0627\u0644\u062c\u0631\u064a\u0631 \u0627\u0644\u0634\u0645\u0627\u0644\u064a", "name:ar": "\u0645\u0633\u062a\u0648\u0635\u0641 \u0627\u0644\u062c\u0631\u064a\u0631 \u0627\u0644\u0634\u0645\u0627\u0644\u064a", "name:en": "aljorayer hospital"}}, {"type": "way", "id": 37771031, "center": {"lat": 24.9890758, "lon": 46.5233633}, "nodes": [443071189, 443071187, 1732250605, 1732250607, 443071186, 1732250613, 1732250641, 1732250619, 1732250623, 1732250618, 1732250621, 1732250620, 1732250622, 1732250616, 1732250643, 1732250611, 1732250609, 1732250655, 1732250657, 1732250648, 1732250653, 1732250650, 1732250651, 1732250645, 443071185, 1732250663, 1732250662, 1732250679, 1732250660, 1732250659, 1732250683, 1832433804, 1832433779, 1732250681, 1732250685, 443071184, 1732250721, 1732250724, 1732250700, 1732250720, 1732250702, 1732250705, 1732250691, 1732250698, 1732250695, 1732250696, 1732250693, 1732250689, 1732250687, 443071183, 443071192, 1732250729, 1832433674, 1832433729, 1732250731, 443071191, 443071189], "tags": {"amenity": "hospital", "barrier": "wall", "healthcare": "hospital", "name": "\u0645\u062f\u064a\u0646\u0629 \u0627\u0644\u0627\u0645\u064a\u0631 \u0633\u0644\u0637\u0627\u0646 \u0628\u0646 \u0639\u0628\u062f\u0627\u0644\u0639\u0632\u064a\u0632 \u0644\u0644\u062e\u062f\u0645\u0627\u062a \u0627\u0644\u0627\u0646\u0633\u0627\u0646\u064a\u0629", "name:en": "Sultan Bin Abdulaziz Humanitarian City"}}, {"type": "way", "id": 38548469, "center": {"lat": 24.694158, "lon": 46.6371628}, "nodes": [456339258, 6740240339, 10187812049, 472448965, 456339259, 471718072, 471718073, 456339261, 456339263, 456339258], "tags": {"amenity": "hospital", "healthcare": "hospital", "healthcare:speciality": "eye", "name": "\u0645\u0633\u062a\u0634\u0641\u0649 \u0627\u0644\u0645\u0644\u0643 \u062e\u0627\u0644\u062f \u0627\u0644\u062a\u062e\u0635\u0635\u064a \u0644\u0644\u0639\u064a\u0648\u0646", "name:en": "King Khalid Eye Specialist Hospital"}}, {"type": "way", "id": 53193801, "center": {"lat": 24.6876403, "lon": 46.7052808}, "nodes": [673066572, 4141609398, 8357073550, 8357073551, 8357073555, 8357073554, 8357073552, 8357073553, 8357073556, 8357073561, 8357073557, 8357073564, 8357073558, 8357073559, 673066573, 8357073566, 673066574, 8357073567, 673066575, 6018583107, 8357073568, 6018583108, 8357073569, 673066576, 8357073570, 8357073571, 8357073572, 8357073573, 4141609407, 4141609406, 8357073574, 8357073575, 8357073576, 8357073577, 673066577, 673066578, 673066579, 673066580, 8357073578, 673066572], "tags": {"addr:postcode": "11525", "addr:street": "Khurais Road", "amenity": "hospital", "healthcare": "hospital", "name": "\u0645\u062f\u064a\u0646\u0629 \u0627\u0644\u0645\u0644\u0643 \u0641\u0647\u062f \u0627\u0644\u0637\u0628\u064a\u0629", "name:ar": "\u0645\u062f\u064a\u0646\u0629 \u0627\u0644\u0645\u0644\u0643 \u0641\u0647\u062f \u0627\u0644\u0637\u0628\u064a\u0629", "name:en": "King Fahad Medical City", "opening_hours": "Su-Th 07:30-16:30", "phone": "011 2889999", "website": "https://www.kfmc.med.sa/"}}, {"type": "way", "id": 53220227, "center": {"lat": 24.7018729, "lon": 46.6864475}, "nodes": [673586768, 673586775, 673586783, 673586789, 673586768], "tags": {"amenity": "hospital", "name": "\u0645\u0633\u062a\u0634\u0641\u0649 \u0627\u0644\u062f\u0643\u062a\u0648\u0631 \u0639\u0628\u062f \u0627\u0644\u0631\u062d\u0645\u0646 \u0627\u0644\u0645\u0634\u0627\u0631\u064a", "name:ar": "\u0645\u0633\u062a\u0634\u0641\u0649 \u0627\u0644\u062f\u0643\u062a\u0648\u0631 \u0639\u0628\u062f \u0627\u0644\u0631\u062d\u0645\u0646 \u0627\u0644\u0645\u0634\u0627\u0631\u064a", "name:en": "Abdulrahman Al Mshari Hospital"}}, {"type": "way", "id": 53347803, "center": {"lat": 24.7164476, "lon": 46.7938769}, "nodes": [674680371, 674680372, 674680373, 674680374, 674680371], "tags": {"amenity": "hospital", "healthcare": "hospital", "name": "Al Yamama Hospital"}}, {"type": "way", "id": 53348078, "center": {"lat": 24.7011332, "lon": 46.7801925}, "nodes": [2700196813, 2702353194, 2702353195, 2702353196, 2702353197, 2702353198, 2702353204, 2702353203, 2702353202, 2702353201, 2702353200, 2702353199, 2701847003, 674683148, 2702353173, 2702353174, 2701847018, 2702353175, 2702353176, 2702353177, 2702353178, 2702353179, 2702353185, 2702353189, 2702353190, 2702353191, 2702353192, 2702353193, 2700196813], "tags": {"addr:city": "Riyadh", "addr:street": "Unaiza St.", "amenity": "hospital", "building": "yes", "emergency": "yes", "name": "\u0631\u0639\u0627\u064a\u0629 \u0627\u0644\u0631\u064a\u0627\u0636", "name:en": "Riyadh Care", "phone": "920000459", "source": "knowledge", "website": "http://www.riyadhcare.med.sa/", "wheelchair": "yes"}}, {"type": "way", "id": 53447208, "center": {"lat": 24.6718028, "lon": 46.6747682}, "nodes": [675561117, 6653844106, 6003730268, 6653844105, 6653844104, 6003730269, 6003730238, 675561118, 675561119, 6688235990, 6688235991, 675564277, 6688235992, 6003730240, 675561123, 6688220482, 6688220484, 675561124, 675561125, 6688220481, 675561126, 675561127, 6003730325, 6653844108, 9569303898, 675561129, 6292916628, 6684106301, 6684106308, 6684106298, 6684106297, 6684106299, 6684106300, 6684106296, 6684106295, 6653844107, 6003730267, 6684106334, 675561131, 675561117], "tags": {"amenity": "hospital", "healthcare": "hospital", "name": "King Faisal Specialist Hospital", "name:ar": "\u0645\u0633\u062a\u0634\u0641\u0649 \u0627\u0644\u0645\u0644\u0643 \u0641\u064a\u0635\u0644 \u0627\u0644\u062a\u062e\u0635\u0635\u064a"}}, {"type": "way", "id": 54209419, "center": {"lat": 24.7105337, "lon": 46.6820729}, "nodes": [683654201, 683654202, 683654203, 683654204, 683654201], "tags": {"amenity": "hospital", "name": "Al Hammadi Hospital", "name:ar": "\u0645\u0633\u062a\u0634\u0641\u0649 \u0627\u0644\u062d\u0645\u0627\u062f\u064a", "name:en": "Al Hammadi Hospital"}}, {"type": "way", "id": 78287386, "center": {"lat": 26.3124933, "lon": 44.8276191}, "nodes": [919280382, 6124331795, 6124331794, 6124331797, 6124331796, 919280385, 919280382], "tags": {"amenity": "hospital", "emergency": "yes", "name": "\u0645\u0633\u062a\u0634\u0641\u0649 \u0627\u0644\u0632\u0644\u0641\u064a \u0627\u0644\u0639\u0627\u0645"}}, {"type": "way", "id": 105299677, "center": {"lat": 21.2470187, "lon": 40.4171535}, "nodes": [1213504708, 1213504579, 1213504796, 1213504541, 1213504708], "tags": {"amenity": "hospital", "email": "tif-hos-mhh@moh.gov.sa", "healthcare": "hospital", "name": "\u0645\u062c\u0645\u0639 \u0625\u0631\u0627\u062f\u0629 \u0648\u0627\u0644\u0635\u062d\u0629 \u0627\u0644\u0646\u0641\u0633\u064a\u0629 \u0628\u0627\u0644\u0637\u0627\u0626\u0641", "operator": "Ministry of health", "operator:type": "government", "phone": "+966127466555"}}, {"type": "way", "id": 105299689, "center": {"lat": 21.2414467, "lon": 40.4130848}, "nodes": [1213504820, 1213504564, 1213504899, 1213504525, 1213504820], "tags": {"amenity": "hospital", "healthcare": "hospital", "healthcare:speciality": "paediatrics", "internet_access": "wlan", "name": "\u0645\u0633\u062a\u0634\u0641\u064a \u0627\u0644\u0623\u0637\u0641\u0627\u0644", "name:en": "children hospital"}}, {"type": "way", "id": 105299691, "center": {"lat": 21.2678824, "lon": 40.3742157}, "nodes": [1213504559, 1213504473, 1213504616, 1213504444, 8929424453, 8929424450, 1213504573, 1213504397, 8929424426, 8929424421, 1213504646, 7346346794, 7346346793, 8929424389, 8929424386, 1213504457, 1213504589, 7346346797, 7346346796, 8929424461, 8929424459, 7346346795, 1213504421, 1213504548, 8929424456, 1213504874, 8929424455, 1213504513, 1213504559], "tags": {"amenity": "hospital", "healthcare": "hospital", "name": "\u0645\u0633\u062a\u0634\u0641\u0649 \u0627\u0644\u0645\u0644\u0643 \u0639\u0628\u062f\u0627\u0644\u0639\u0632\u064a\u0632 \u0627\u0644\u062a\u062e\u0635\u0635\u064a"}}, {"type": "way", "id": 129620151, "center": {"lat": 24.7497385, "lon": 46.8560712}, "nodes": [1429754978, 1429755006, 1429754970, 1429755005, 1429754958, 1429755013, 1429754976, 1429754992, 1429754975, 1429754961, 1429754995, 1429754979, 1429755670, 1429755675, 1429755680, 1429755669, 1429755001, 1429754959, 1429754984, 1429754998, 1429754965, 1429754990, 1429754977, 1429754974, 1429754999, 1429755015, 1429755016, 1429754964, 1429754996, 1429755007, 1429754980, 1429754971, 1429754986, 1429755014, 1429754978], "tags": {"amenity": "hospital", "emergency": "yes", "name": "King Fahad Hospital", "official_name": "King Fahad National Guard Hospital"}}, {"type": "way", "id": 133795297, "center": {"lat": 24.7113715, "lon": 46.621363}, "nodes": [1472544784, 1472544731, 1472544552, 1472544556, 1472544419, 1472544420, 1472544404, 1472544405, 1472544421, 1472544422, 1472544451, 1472544519, 1472544520, 1472544452, 1472544453, 1472544439, 1472544441, 1472544455, 1472544456, 1472544539, 1472544540, 1472544480, 1472544483, 1472544469, 1472544470, 1472544484, 1472544485, 1472544746, 1472544802, 1472544801, 1472544796, 1472544742, 1472544740, 1472544793, 1472544784], "tags": {"amenity": "hospital", "building": "yes", "healthcare": "hospital", "name": "Emergency Building - king khalid university hospital", "name:ar": "\u0645\u0628\u0646\u0649 \u0627\u0644\u0637\u0648\u0627\u0631\u0626 - \u0645\u0633\u062a\u0634\u0641\u0649 \u0627\u0644\u0645\u0644\u0643 \u062e\u0627\u0644\u062f \u0627\u0644\u062c\u0627\u0645\u0639\u064a"}}, {"type": "way", "id": 133795299, "center": {"lat": 24.7140601, "lon": 46.6226684}, "nodes": [1472546320, 1472546328, 1472546734, 1472546735, 1472546739, 1472546738, 1472546745, 1472546744, 1472546737, 1472546736, 1472546725, 1472546724, 1472546712, 1472546713, 1472546320], "tags": {"addr:city": "riyadh", "amenity": "hospital", "name": "\u0648\u062d\u062f\u0629 \u0627\u0644\u0639\u0646\u0627\u064a\u0629 \u0627\u0644\u0645\u0631\u0643\u0632\u0629 - \u0645\u0633\u062a\u0634\u0641\u0649 \u0627\u0644\u0645\u0644\u0643 \u062e\u0627\u0644\u062f \u0627\u0644\u062c\u0627\u0645\u0639\u064a", "name:ar": "\u0648\u062d\u062f\u0629 \u0627\u0644\u0639\u0646\u0627\u064a\u0629 \u0627\u0644\u0645\u0631\u0643\u0632\u0629 - \u0645\u0633\u062a\u0634\u0641\u0649 \u0627\u0644\u0645\u0644\u0643 \u062e\u0627\u0644\u062f \u0627\u0644\u062c\u0627\u0645\u0639\u064a", "name:en": "king khalid university hospital (8,430 patient )"}}, {"type": "way", "id": 133795308, "center": {"lat": 24.7131545, "lon": 46.6216074}, "nodes": [1472546726, 1472546720, 1472546721, 1472546719, 1472546702, 1472546689, 1472546686, 1472546685, 1472546684, 1472546718, 1472546717, 1472546716, 1472546714, 1472546700, 1472546701, 1472546699, 1472546698, 1472546691, 1472546690, 1472546687, 1472546688, 1472546683, 1472546682, 1472546670, 1472546671, 1472546669, 1472546668, 1472546666, 1472546667, 1472546663, 1472546662, 1472546626, 1472546627, 1472546625, 1472546624, 1472546569, 1472546570, 1472546566, 1472546565, 1472546492, 1472546493, 1472546485, 1472546484, 1472546467, 1472546466, 1472546427, 1472546426, 1472546409, 1472546410, 1472546395, 1472546394, 1472546378, 1472546377, 1472546316, 1472546317, 1472546308, 1472546309, 1472546301, 1472546300, 1472546266, 1472546267, 1472546261, 1472546260, 1472546228, 1472546229, 1472546227, 1472546226, 1472546181, 1472546182, 1472546178, 1472546177, 1472546144, 1472546145, 1472546143, 1472546142, 1472546112, 1472546113, 1472546111, 1472546110, 1472546109, 1472546108, 1472546107, 1472546074, 1472546073, 1472546067, 1472546068, 1472546047, 1472546045, 1472546036, 1472546035, 1472546005, 1472546006, 1472545998, 1472545999, 1472546000, 1472545988, 1472545987, 1472545961, 1472545962, 1472545958, 1472545957, 1472545925, 1472545926, 1472545923, 1472545922, 1472545888, 1472545889, 1472545887, 1472545886, 1472545837, 1472545838, 1472545836, 1472545835, 1472545812, 1472545811, 1472545809, 1472545808, 1472545807, 1472545810, 1472545804, 1472545803, 1472545798, 1472545799, 1472545796, 1472545797, 1472545786, 1472545785, 1472545779, 1472545778, 1472545765, 1472545766, 1472545757, 1472545758, 1472545759, 1472545752, 1472545751, 1472545649, 1472545651, 1472545642, 1472545640, 1472545593, 1472545594, 1472545589, 1472545590, 1472545529, 1472545530, 1472545527, 1472545526, 1472545484, 1472545483, 1472545480, 1472545479, 1472545454, 1472545453, 1472545451, 1472545450, 1472545449, 1472545452, 1472545448, 1472545447, 1472545446, 1472545443, 1472545442, 1472545440, 1472545439, 1472545428, 1472545429, 1472545421, 1472545420, 1472545402, 1472545403, 1472545388, 1472545389, 1472545395, 1472545383, 1472545382, 1472545332, 1472545333, 1472545326, 1472545325, 1472545284, 1472545285, 1472545280, 1472545279, 1472545228, 1472545229, 1472545224, 1472545225, 1472545196, 1472545197, 1472545193, 1472545192, 1472545138, 1472545139, 1472545135, 1472545134, 1472545133, 1472545124, 1472545123, 1472545107, 1472545108, 1472545103, 1472545102, 1472545074, 1472545075, 1472545076, 1472545129, 1472545130, 1472545122, 1472545121, 1472545071, 1472545067, 1472545018, 1472545019, 1472545079, 9193088084, 1472545111, 1472545112, 1472545126, 1472545125, 1472545127, 1472545128, 1472545185, 1472545186, 1472545151, 1472545152, 1472545089, 1472545091, 1472545150, 1472545149, 1472545187, 1472545190, 1472545154, 1472545155, 1472545028, 1472545029, 1472545024, 1472545025, 1472545140, 1472545173, 1472545170, 1472545157, 1472545158, 1472545189, 1472545188, 1472545191, 1472545233, 1472545232, 1472545242, 1472545282, 1472545281, 1472545345, 1472545349, 1472545360, 1472545361, 1472545419, 1472545418, 1472545432, 1472545436, 1472545435, 1472545457, 1472545459, 1472545478, 1472545482, 1472545481, 1472545533, 1472545535, 1472545632, 1472545633, 1472545762, 1472545764, 1472545793, 1472545794, 1472545819, 1472545820, 1472545989, 1472545990, 1472546041, 1472546043, 1472546001, 1472546002, 1472546148, 1472546146, 1472546120, 1472546119, 1472546152, 1472546151, 1472546150, 1472546224, 1472546225, 1472546407, 1472546405, 1472546406, 1472546554, 1472546553, 1472546557, 1472546632, 1472546665, 1472546676, 1472546675, 1472546679, 1472546680, 1472546681, 1472546692, 1472546693, 1472546711, 1472546706, 1472546723, 1472546729, 1472546733, 1472546732, 1472546740, 1472546753, 1472546751, 1472546726], "tags": {"addr:city": "riyadh", "amenity": "hospital", "healthcare": "hospital", "name": "King Khalid University Hospital", "name:ar": "\u0645\u0633\u062a\u0634\u0641\u0649 \u0627\u0644\u0645\u0644\u0643 \u062e\u0627\u0644\u062f \u0627\u0644\u062c\u0627\u0645\u0639\u064a"}}, {"type": "way", "id": 135797634, "center": {"lat": 24.8014554, "lon": 46.6546255}, "nodes": [1490735885, 3347259253, 1490735878, 1490735890, 1490735896, 3347259252, 1490735909, 1490735911, 3347259254, 3347259255, 1490735885], "tags": {"amenity": "hospital", "healthcare": "hospital", "name": "\u0645\u0633\u062a\u0634\u0641\u0649 \u0627\u0644\u0645\u0645\u0644\u0643\u0629", "name:ar": "\u0645\u0633\u062a\u0634\u0641\u0649 \u0627\u0644\u0645\u0645\u0644\u0643\u0629", "name:en": "Kingdom Hospital", "website": "http://www.khccgroup.com"}}, {"type": "way", "id": 138388785, "center": {"lat": 24.679784, "lon": 46.6869925}, "nodes": [1517420295, 1517420296, 1517420294, 1517420304, 1517420295], "tags": {"amenity": "hospital", "emergency": "yes", "healthcare": "hospital", "name": "Specialized Medical Clinic"}}, {"type": "way", "id": 154558588, "center": {"lat": 24.6786386, "lon": 46.735813}, "nodes": [1670943472, 1670943458, 1670943460, 1670943456, 1670943472], "tags": {"amenity": "hospital"}}, {"type": "way", "id": 154721776, "center": {"lat": 29.3879238, "lon": 47.9877026}, "nodes": [1672149896, 1672149898, 1672149903, 1672149904, 1672149899, 1672149901, 1672149893, 1672149891, 1672149896], "tags": {"addr:city": "\u0645\u062f\u064a\u0646\u0629 \u0627\u0644\u0643\u0648\u064a\u062a", "addr:paci": "90002455", "addr:street": "Bin Misbah St", "amenity": "hospital", "building": "yes", "emergency": "yes", "healthcare": "hospital", "name": "\u0627\u0644\u0645\u0633\u062a\u0634\u0641\u0649 \u0627\u0644\u0623\u0645\u064a\u0631\u064a", "name:ar": "\u0627\u0644\u0645\u0633\u062a\u0634\u0641\u0649 \u0627\u0644\u0623\u0645\u064a\u0631\u064a", "name:en": "Amiri Hospital", "operator": "\u0648\u0632\u0627\u0631\u0629 \u0627\u0644\u0635\u062d\u0629", "operator:en": "Ministry of Health", "wikidata": "Q4746760"}}, {"type": "way", "id": 158268795, "center": {"lat": 28.4141019, "lon": 45.976642}, "nodes": [1705025524, 1705025522, 1705025520, 1705025523, 1705025524], "tags": {"amenity": "hospital", "emergency": "yes", "healthcare": "hospital", "healthcare:speciality": "general", "name": "\u0645\u0633\u062a\u0634\u0641\u0649 \u0627\u0644\u0645\u0644\u0643 \u062e\u0627\u0644\u062f", "operator": "\u0648\u0632\u0627\u0631\u0629 \u0627\u0644\u0635\u062d\u0629", "operator:type": "government"}}, {"type": "way", "id": 159004782, "center": {"lat": 20.1477952, "lon": 40.2677618}, "nodes": [1711154068, 1711154072, 1711154067, 1711154074, 1711154071, 1711154065, 1711154068], "tags": {"amenity": "hospital", "name": "\u0627\u0644\u0648\u062d\u062f\u0629 \u0627\u0644\u0635\u062d\u064a\u0629 \u0644\u0644\u0628\u0646\u064a\u0646"}}, {"type": "way", "id": 159010086, "center": {"lat": 20.1470723, "lon": 40.2752685}, "nodes": [1711177281, 1711177275, 1711177285, 1711177283, 1711177270, 1711177272, 1711177281], "tags": {"amenity": "hospital", "healthcare": "hospital", "name": "\u0645\u0633\u062a\u0634\u0641\u0649 \u0627\u0644\u0644\u064a\u062b \u0627\u0644\u0639\u0627\u0645"}}, {"type": "way", "id": 159013250, "center": {"lat": 20.1545359, "lon": 40.2672393}, "nodes": [1711190155, 1711190154, 1711190151, 1711190152, 1711190153, 1711190155], "tags": {"amenity": "hospital", "name": "\u0627\u0644\u0647\u0644\u0627\u0644 \u0627\u0644\u0627\u062d\u0645\u0631"}}, {"type": "way", "id": 164153052, "center": {"lat": 29.3215778, "lon": 48.0458498}, "nodes": [1758138911, 9181834577, 9181834576, 9181834575, 9181834574, 1758138899, 1758138893, 2088316556, 2088316564, 1758138894, 1758138875, 1758138868, 1758138911], "tags": {"addr:city": "\u0627\u0644\u062c\u0627\u0628\u0631\u064a\u0629-\u0642\u0637\u0639\u0629 8", "amenity": "hospital", "emergency": "yes", "int_name": "Hadi Clinic", "name": "\u0645\u0633\u062a\u0634\u0641\u0649 \u0647\u0627\u062f\u064a", "name:ar": "\u0645\u0633\u062a\u0634\u0641\u0649 \u0647\u0627\u062f\u064a", "name:en": "Hadi Clinic"}}, {"type": "way", "id": 164153299, "center": {"lat": 29.3440475, "lon": 48.0872283}, "nodes": [1758141086, 9181726257, 1758141083, 9181726256, 1758141084, 1758141081, 9181726258, 9181726259, 9181726260, 9181726261, 9181726262, 9181726263, 1758141086], "tags": {"addr:city": "Salmiya", "addr:country": "KW", "addr:housenumber": "19", "addr:street": "\u0634\u0627\u0631\u0639 \u0639\u0628\u062f \u0627\u0644\u0644\u0647 \u0628\u0646 \u0645\u0633\u0639\u0648\u062f", "amenity": "hospital", "building": "yes", "name": "New Mowasat Hospital", "name:ar": "\u0645\u0633\u062a\u0634\u0641\u0649 \u0627\u0644\u0645\u0648\u0627\u0633\u0627\u0629 \u0627\u0644\u062c\u062f\u064a\u062f\u0629", "name:en": "New Mowasat Hospital", "phone": "+965 25726666", "website": "http://newmowasat.com/", "wheelchair": "yes"}}, {"type": "way", "id": 164157489, "center": {"lat": 29.3331988, "lon": 48.092349}, "nodes": [1758177454, 1758177460, 1758177457, 9020247417, 9020209216, 5023044889, 5023044884, 1758177450, 1758177454], "tags": {"addr:street": "\u0634\u0627\u0631\u0639 \u0627\u0644\u0628\u0644\u0627\u062c\u0627\u062a", "amenity": "hospital", "building": "yes", "email": "info@alseef-hospital.com", "internet_access": "wlan", "name": "\u0645\u0633\u062a\u0634\u0641\u0649 \u0627\u0644\u0633\u064a\u0641", "name:ar": "\u0645\u0633\u062a\u0634\u0641\u0649 \u0627\u0644\u0633\u064a\u0641", "name:en": "Al Seef Hospital", "phone": "+965 1881122", "website": "https://www.alseef-hospital.com/"}}, {"type": "way", "id": 198718517, "center": {"lat": 29.3270466, "lon": 48.0340474}, "nodes": [2088196773, 10673985919, 10673985922, 2088196656, 2088196655, 2088196657, 2088196659, 2088196671, 2088196697, 2088196772, 2088196809, 2088196888, 2088196886, 2088196882, 2088196879, 2088196861, 2088196857, 2758493591, 2758493584, 10673985921, 2758493589, 10673985920, 10673985923, 2088196773], "tags": {"addr:city": "\u0627\u0644\u062c\u0627\u0628\u0631\u064a\u0629", "addr:country": "KW", "addr:street": "Street 109", "addr:suburb": "Jabriya", "amenity": "hospital", "barrier": "wall", "emergency": "yes", "healthcare": "hospital", "int_name": "Mubarak Al-Kabeer Hospital", "name": "\u0645\u0633\u062a\u0634\u0641\u0649 \u0645\u0628\u0627\u0631\u0643 \u0627\u0644\u0643\u0628\u064a\u0631", "name:ar": "\u0645\u0633\u062a\u0634\u0641\u0649 \u0645\u0628\u0627\u0631\u0643 \u0627\u0644\u0643\u0628\u064a\u0631", "name:en": "Mubarak Al-Kabeer Hospital", "name:ml": "\u0d2e\u0d41\u0d2c\u0d3e\u0d31\u0d15\u0d4d \u0d05\u0d7d-\u0d15\u0d2c\u0d40\u0d7c \u0d06\u0d36\u0d41\u0d2a\u0d24\u0d4d\u0d30\u0d3f", "name:tr": "M\u00fcbarek El Kabeer Hastanesi"}}, {"type": "way", "id": 219395893, "center": {"lat": 29.2763833, "lon": 48.015586}, "nodes": [2285578585, 2285578584, 2285578593, 2285578592, 2285578573, 2285578591, 2285578590, 2285578583, 2285578598, 2285578603, 2285578594, 2285578582, 2285578575, 2285578586, 2285578578, 2285578579, 2285578588, 2285578596, 2285578597, 2285578576, 2285578601, 2285578574, 2285578571, 2285578589, 2285578570, 2285578569, 2285578580, 2285578577, 2285578568, 2285578602, 2285578600, 2285578595, 2285578587, 2285578572, 2285578599, 2285578581, 2285578585], "tags": {"amenity": "hospital", "emergency": "yes", "healthcare": "hospital", "name": "\u0645\u0633\u062a\u0634\u0641\u0649 \u062c\u0627\u0628\u0631", "name:ar": "\u0645\u0633\u062a\u0634\u0641\u0649 \u062c\u0627\u0628\u0631 \u0627\u0644\u0623\u062d\u0645\u062f", "name:en": "Jaber Hospital", "name:ml": "\u0d1c\u0d3e\u0d2c\u0d7c \u0d06\u0d36\u0d41\u0d2a\u0d24\u0d4d\u0d30\u0d3f", "name:tr": "Cabir Hastanesi"}}, {"type": "way", "id": 221033189, "center": {"lat": 24.5846736, "lon": 46.5928732}, "nodes": [2300871190, 2300871191, 2300871192, 2300871193, 2300871190], "tags": {"amenity": "hospital", "healthcare": "hospital", "name": "\u0645\u0633\u062a\u0634\u0641\u0649 \u0627\u0644\u0623\u0633\u0631\u0629 \u0627\u0644\u062f\u0648\u0644\u064a"}}, {"type": "way", "id": 221077730, "center": {"lat": 26.3616435, "lon": 43.9465076}, "nodes": [2301319013, 2301319018, 2301319021, 2301319023, 2301319026, 2301319031, 2301319013], "tags": {"amenity": "hospital", "building": "yes", "healthcare": "hospital", "name": "Al Habib Hospital"}}, {"type": "way", "id": 221331937, "center": {"lat": 26.3480374, "lon": 43.9697427}, "nodes": [2303648530, 9031811789, 9031811790, 9031811791, 9031811792, 9031811795, 9031811793, 9031811794, 9031811796, 2303648533, 2303648541, 9031811797, 9031811798, 5357170376, 5357170378, 1500258064, 2303648530], "tags": {"amenity": "hospital", "healthcare": "hospital", "name": "\u0627\u0644\u0645\u0644\u0643 \u0641\u0647\u062f", "name:ar": "\u0645\u0633\u062a\u0634\u0641\u0649 \u0627\u0644\u0645\u0644\u0643 \u0641\u0647\u062f", "name:en": "King Fahd Hospital"}}, {"type": "way", "id": 221634208, "center": {"lat": 24.8008589, "lon": 46.6284292}, "nodes": [2306677345, 6689807040, 2306677346, 6391664929, 2306677348, 6689807041, 2306677350, 2306677345], "tags": {"addr:city": "Riyadh", "addr:postcode": "11671", "amenity": "hospital", "emergency": "yes", "healthcare": "hospital", "name": "\u0627\u0644\u0645\u0633\u062a\u0634\u0641\u0649 \u0627\u0644\u0633\u0639\u0648\u062f\u064a \u0627\u0644\u0627\u0644\u0645\u0627\u0646\u064a", "name:ar": "\u0627\u0644\u0645\u0633\u062a\u0634\u0641\u0649 \u0627\u0644\u0633\u0639\u0648\u062f\u064a \u0627\u0644\u0627\u0644\u0645\u0627\u0646\u064a", "name:en": "Saudi German Hospital", "name:fr": "Hopital Saoudien Allemand", "phone": "+966112685555", "website": "https://www.sghgroup.com.sa"}}, {"type": "way", "id": 221638265, "center": {"lat": 24.5929028, "lon": 46.7801885}, "nodes": [2306706305, 2306706306, 2306706307, 2306706308, 2306706305], "tags": {"amenity": "hospital"}}, {"type": "way", "id": 222185048, "center": {"lat": 26.1040943, "lon": 43.9905509}, "nodes": [2311670477, 9046109135, 2311670478, 2311670479, 2311670480, 2311670482, 2311670483, 2311670485, 2311670486, 9046109136, 9046109137, 9046109138, 9046109139, 9046109140, 9046109141, 2311670487, 9046109128, 9046109127, 2311670488, 2311670489, 2311670491, 9046109143, 9046109142, 2311670492, 2311670493, 9046109130, 9046109132, 9046109133, 9046109134, 9046109131, 9046109129, 2311670477], "tags": {"amenity": "hospital", "healthcare": "hospital", "name": "\u0645\u0633\u062a\u0634\u0641\u0649 \u0627\u0644\u0645\u0644\u0643 \u0633\u0639\u0648\u062f"}}, {"type": "way", "id": 222299054, "center": {"lat": 24.6022524, "lon": 46.7030558}, "nodes": [2312808606, 2312808607, 2312808608, 2312808609, 2312808610, 2312808612, 2312808613, 2312808614, 2312808615, 2312808616, 2312808617, 2312808618, 2312808619, 2312808606], "tags": {"amenity": "hospital", "name": "\u0645\u0633\u062a\u0634\u0641\u0649 \u0627\u0644\u062d\u0645\u0627\u062f\u064a"}}, {"type": "way", "id": 223398037, "center": {"lat": 24.6278407, "lon": 46.6904771}, "nodes": [4405517308, 9397421477, 9397421478, 1916015086, 9397421481, 9397421485, 9392658360, 9392561604, 9392561605, 1712130835, 1712130834, 1712130833, 1712130832, 1712130831, 1712130800, 1712130799, 1712130798, 1712130797, 1712130796, 1712130784, 6385374843, 9392549321, 4405517298, 4405517299, 4405517308], "tags": {"amenity": "hospital", "healthcare": "hospital", "name": "\u0645\u062f\u064a\u0646\u0629 \u0627\u0644\u0645\u0644\u0643 \u0633\u0639\u0648\u062f \u0627\u0644\u0637\u0628\u064a\u0629", "name:ar": "\u0645\u062f\u064a\u0646\u0629 \u0627\u0644\u0645\u0644\u0643 \u0633\u0639\u0648\u062f \u0627\u0644\u0637\u0628\u064a\u0629", "name:ar1": "\u0645\u0633\u062a\u0634\u0641\u0649 \u0627\u0644\u0634\u0645\u064a\u0633\u064a", "name:en": "Hospital in Riyadh King soude"}}, {"type": "way", "id": 223723583, "center": {"lat": 24.7191008, "lon": 46.6034004}, "nodes": [2326067559, 9200840646, 9200840645, 9200840644, 9200840654, 9200840655, 9200840643, 9200840642, 9200840641, 9200840640, 2326067560, 9200840649, 9200840648, 9200840647, 2326067562, 9200840659, 9200840658, 9200840660, 9200840661, 9200840657, 9200840656, 9200840662, 2326067563, 2326067559], "tags": {"amenity": "hospital", "healthcare": "hospital", "name": "Mental Health Hospital", "name:ar": "\u0645\u0633\u062a\u0634\u0641\u0649 \u0627\u0644\u0635\u062d\u0629 \u0627\u0644\u0646\u0641\u0633\u064a\u0629"}}, {"type": "way", "id": 227478642, "center": {"lat": 24.6068057, "lon": 46.6419675}, "nodes": [2361424574, 2361424575, 10719868723, 10719868722, 2361424576, 2361424577, 2361424578, 2361424579, 2361424580, 2361424581, 2361424582, 6202976991, 2361424583, 2361424584, 6236943911, 2361424587, 2361424588, 2361424589, 6202976977, 2361424591, 2361424592, 2361424593, 2361424594, 2361424595, 2361424597, 2361424554, 2361424555, 2361424556, 2361424557, 2361424558, 2361424559, 10719868725, 2361424560, 10719868724, 2361424561, 2361424562, 2361424563, 2361424565, 2361424567, 2361424568, 2361424569, 2361424570, 2361424571, 2361424572, 2361424573, 2361424574], "tags": {"amenity": "hospital", "emergency": "yes", "healthcare": "hospital", "name": "\u0645\u0633\u062a\u0634\u0641\u0649 \u0627\u0644\u0645\u0644\u0643 \u0633\u0644\u0645\u0627\u0646"}}, {"type": "way", "id": 229698800, "center": {"lat": 26.5534488, "lon": 49.9980319}, "nodes": [2382605688, 2382605689, 2382605690, 2382605691, 2382605688], "tags": {"amenity": "hospital", "building": "yes", "emergency": "yes", "name": "\u0645\u0633\u062a\u0634\u0641\u0649 \u0627\u0644\u0632\u0647\u0631\u0627\u0621 \u0628\u0627\u0644\u0642\u0637\u064a\u0641", "name:en": "Al-Zahra'a Hospital"}}, {"type": "way", "id": 230102866, "center": {"lat": 26.142118, "lon": 43.6604494}, "nodes": [2386330379, 2386330382, 2386330384, 2386330385, 2386330386, 2386330387, 2386330379], "tags": {"addr:city": "\u0627\u0644\u0628\u0643\u064a\u0631\u064a\u0629", "addr:postcode": "51941", "addr:street": "\u0637\u0631\u064a\u0642 \u0627\u0644\u0645\u0644\u0643 \u062e\u0627\u0644\u062f", "amenity": "hospital", "emergency": "yes", "name": "\u0645\u0633\u062a\u0634\u0641\u0649 \u0627\u0644\u0628\u0643\u064a\u0631\u064a\u0629 \u0627\u0644\u0639\u0627\u0645", "name:en": "Albukairyah General Hospital"}}, {"type": "way", "id": 264718692, "center": {"lat": 20.1141436, "lon": 40.2886659}, "nodes": [2703728817, 9928126241, 2703728819, 9928126242, 2703728816, 9928126240, 2703728818, 2703728817], "tags": {"amenity": "hospital", "healthcare": "hospital", "name": "\u0645\u0633\u062a\u0634\u0641\u0649 \u0627\u0644\u0644\u064a\u062b \u0627\u0644\u062c\u062f\u064a\u062f"}}, {"type": "way", "id": 265191477, "center": {"lat": 28.418115, "lon": 48.5138923}, "nodes": [2708565125, 2708565127, 2708565129, 2708565131, 2708565133, 2708565136, 2708565138, 2708565140, 2708565142, 2708565144, 2708565146, 2708565148, 2708565150, 2708565153, 2708565154, 2708565155, 2708565156, 2708565157, 2708565158, 2708565159, 2708565160, 2708565161, 2708565162, 2708565163, 2708565164, 2708565165, 2708565166, 2708565168, 2708565169, 2708565170, 2708565171, 2708565172, 2708565125], "tags": {"amenity": "hospital", "building": "yes", "emergency": "yes", "name": "KJO Hospital", "name:en": "Al khafji joint orerations hospital (793 patient )"}}, {"type": "way", "id": 284371406, "center": {"lat": 25.2728889, "lon": 45.8656107}, "nodes": [2881141374, 2881141375, 2881141376, 2881141377, 2881141374], "tags": {"addr:city": "Thadiq", "addr:street": "King Abdul Aziz Rd", "amenity": "hospital", "emergency": "yes", "name": "\u0645\u0633\u062a\u0634\u0641\u0649 \u062b\u0627\u062f\u0642 \u0627\u0644\u0639\u0627\u0645", "name:en": "Thadiq General Hospital"}}, {"type": "way", "id": 294428032, "center": {"lat": 25.8825377, "lon": 43.4832591},