{"version": 0.6, "generator": "Overpass API 0.7.61.5 4133829e", "osm3s": {"timestamp_osm_base": "2023-10-31T20:54:41Z", "copyright": "The data included in this document is from www.openstreetmap.org. The data is made available under ODbL."}, "elements": [{"type": "node", "id": 31213451, "lat": 29.6538916, "lon": 91.1297231, "tags": {"amenity": "hospital"}}, {"type": "node", "id": 31213452, "lat": 29.676305, "lon": 91.1240002, "tags": {"amenity": "hospital", "created_by": "JOSM"}}, {"type": "node", "id": 31213454, "lat": 29.6662663, "lon": 91.1260903, "tags": {"amenity": "hospital", "healthcare": "hospital"}}, {"type": "node", "id": 265945386, "lat": 24.9003678, "lon": 91.8532444, "tags": {"amenity": "hospital", "name": "M.A.G Osmani Medical College Hospital, Sylhet"}}, {"type": "node", "id": 266877864, "lat": 23.8747993, "lon": 90.396733, "tags": {"addr:city": "Uttara, Dhaka", "addr:housenumber": "House 34, Road 4, Sector 9", "addr:postcode": "1230", "addr:street": "Sonargaon Janapath", "amenity": "hospital", "emergency": "yes", "name": "\u0989\u09a4\u09cd\u09a4\u09b0\u09be \u0986\u09a7\u09c1\u09a8\u09bf\u0995 \u09ae\u09c7\u09a1\u09bf\u0995\u09c7\u09b2 \u0995\u09b2\u09c7\u099c \u0993 \u09b9\u09be\u09b8\u09aa\u09be\u09a4\u09be\u09b2", "name:bn": "\u0989\u09a4\u09cd\u09a4\u09b0\u09be \u0986\u09a7\u09c1\u09a8\u09bf\u0995 \u09ae\u09c7\u09a1\u09bf\u0995\u09c7\u09b2 \u0995\u09b2\u09c7\u099c \u0993 \u09b9\u09be\u09b8\u09aa\u09be\u09a4\u09be\u09b2", "name:en": "Uttara Adhunik Medical College", "phone": "+88028911600", "ref": "Bangladesh Medical College"}}, {"type": "node", "id": 266885101, "lat": 23.867307, "lon": 90.3966708, "tags": {"amenity": "hospital", "name": "Uttara Cresent"}}, {"type": "node", "id": 345346970, "lat": 29.7010979, "lon": 91.1243298, "tags": {"amenity": "hospital", "name": "Military Hospital"}}, {"type": "node", "id": 354463524, "lat": 23.7391179, "lon": 90.3955527, "tags": {"amenity": "hospital", "healthcare": "hospital", "name": "\u09aa\u09bf\u099c\u09bf \u09b9\u09be\u09b8\u09aa\u09be\u09a4\u09be\u09b2", "name:en": "Institute of Post Graduates Medicine and Research"}}, {"type": "node", "id": 364418038, "lat": 23.7539603, "lon": 90.3655097, "tags": {"addr:city": "Dhaka", "addr:postcode": "1207", "addr:street": "Lalmatia Block E", "amenity": "hospital", "emergency": "yes", "name": "City Hospital, Lalmatia", "name:bn": "\u09b8\u09bf\u099f\u09bf \u09b9\u09be\u09b8\u09aa\u09be\u09a4\u09be\u09b2, \u09b2\u09be\u09b2\u09ae\u09be\u099f\u09bf\u09af\u09bc\u09be", "wheelchair": "yes"}}, {"type": "node", "id": 364419618, "lat": 23.7517932, "lon": 90.3673206, "tags": {"addr:city": "Dhaka", "addr:housename": "Bangladesh Eye Hospital", "addr:street": "Satmasjid Road", "amenity": "hospital", "name": "Bangladesh Eye Hospital"}}, {"type": "node", "id": 364425541, "lat": 23.7434833, "lon": 90.3825849, "tags": {"addr:city": "Dhaka", "addr:housenumber": "14/E", "addr:street": "Road 6", "amenity": "hospital", "emergency": "yes", "name": "Gonoshastha Nagar Hospital", "name:bn": "\u0997\u09a3\u09b8\u09cd\u09ac\u09be\u09b8\u09cd\u09a5\u09cd\u09af \u09a8\u0997\u09b0 \u09b9\u09be\u09b8\u09aa\u09be\u09a4\u09be\u09b2", "phone": "+8801716-838078"}}, {"type": "node", "id": 395065676, "lat": 23.7106526, "lon": 90.4119161, "tags": {"amenity": "hospital", "healthcare": "hospital", "name": "National Hospital"}}, {"type": "node", "id": 540061901, "lat": 21.3247504, "lon": 92.0832259, "tags": {"amenity": "hospital"}}, {"type": "node", "id": 621450825, "lat": 23.8596093, "lon": 90.2625401, "tags": {"addr:city": "Savar, Dhaka", "addr:postcode": "1340", "amenity": "hospital", "emergency": "yes", "name": "Rabeya Clinik"}}, {"type": "node", "id": 621454326, "lat": 23.8562496, "lon": 90.265914, "tags": {"addr:city": "Savar, Dhaka", "addr:postcode": "1343", "addr:street": "C R P Road", "amenity": "hospital", "emergency": "yes", "name": "C R P"}}, {"type": "node", "id": 842543448, "lat": 22.3593346, "lon": 91.830657, "tags": {"amenity": "hospital", "name": "Chittagong Medical College Hospital"}}, {"type": "node", "id": 871761335, "lat": 23.7485032, "lon": 90.4050678, "tags": {"amenity": "hospital", "name": "Ad-Din Women's Medical college & Hospital", "wikidata": "Q4678070", "wikimedia_commons": "Category:Ad-din Women's Medical College", "wikipedia": "en:Ad-din Women's Medical College"}}, {"type": "node", "id": 877863211, "lat": 23.746598, "lon": 90.4027318, "tags": {"amenity": "hospital", "healthcare": "hospital", "name": "Holy Family Red Crescent Medical College and Hospital"}}, {"type": "node", "id": 942530917, "lat": 20.655615, "lon": 96.9299694, "tags": {"amenity": "hospital", "name": "Township Hospital", "name:ru": "\u0413\u043e\u0441\u043f\u0438\u0442\u0430\u043b\u044c"}}, {"type": "node", "id": 1014510616, "lat": 27.4648038, "lon": 95.3612101, "tags": {"addr:district": "Tinsukia", "addr:full": "Duliajan Road", "addr:postcode": "786125", "addr:state": "Assam", "amenity": "hospital", "name": "St Luke Hospital", "source": "OpenGovernmentData"}}, {"type": "node", "id": 1014526726, "lat": 27.4970136, "lon": 95.3516507, "tags": {"addr:district": "Tinsukia", "addr:full": "Subochoni Road", "addr:postcode": "786125", "addr:state": "Assam", "amenity": "hospital", "healthcare": "hospital", "name": "Pinewood Hospital", "source": "OpenGovernmentData"}}, {"type": "node", "id": 1014538808, "lat": 27.4925976, "lon": 95.3609741, "tags": {"addr:district": "Tinsukia", "addr:full": "Gopi Nath Barodoloi Road", "addr:postcode": "786125", "addr:state": "Assam", "amenity": "hospital", "healthcare": "hospital", "name": "Life Line Hospital - Tinsukia", "source": "OpenGovernmentData"}}, {"type": "node", "id": 1015801508, "lat": 27.4991191, "lon": 95.3587625, "tags": {"addr:city": "Tinsukia", "addr:district": "Tinsukia", "addr:full": "Bordoloi Nagar,Near District Agriculture Office,Tinsukia", "addr:postcode": "786125", "addr:state": "Assam", "amenity": "hospital", "healthcare": "hospital", "name": "L.G.B. Civil Hospital,Tinsukia", "source": "OpenGovernmentData"}}, {"type": "node", "id": 1015801510, "lat": 27.4941647, "lon": 95.3484441, "tags": {"addr:city": "Tinsukia", "addr:street": "Rangagora Road", "amenity": "hospital", "healthcare": "hospital", "name": "Aditya Hospital"}}, {"type": "node", "id": 1025792264, "lat": 27.4889906, "lon": 95.3522515, "tags": {"addr:city": "Tinsukia", "amenity": "hospital", "healthcare": "hospital", "name": "Dr.S.K.Dey Hospital"}}, {"type": "node", "id": 1121485809, "lat": 23.7279336, "lon": 90.3923798, "tags": {"amenity": "hospital", "name": "BUET Health Complex"}}, {"type": "node", "id": 1271733441, "lat": 23.705982, "lon": 90.414386, "tags": {"amenity": "hospital", "emergency": "yes"}}, {"type": "node", "id": 1329007641, "lat": 22.3601025, "lon": 91.8315438, "tags": {"amenity": "hospital", "name": "Chittagong Medical College"}}, {"type": "node", "id": 1375751934, "lat": 25.5679611, "lon": 91.8807062, "tags": {"addr:district": "East Khasi Hills", "addr:full": "Main road, Near Shillong cantonment Board Office/ Near Lady Hydari Park, Laban, Lachumiere", "addr:postcode": "793001", "addr:state": "Meghalaya", "addr:subdistrict": "Mylliem", "amenity": "hospital", "contact:phone": "0364 - 2223889", "description": "District Hospital", "emergency": "yes", "name": "Civil Hospital Shillong", "source": "OpenGovernmentData"}}, {"type": "node", "id": 1496128734, "lat": 23.8704897, "lon": 90.4035461, "tags": {"addr:city": "Dhaka", "addr:housenumber": "32", "addr:postcode": "1230", "addr:street": "Isha Khan Avenue, Sector 6, Uttara Model Town", "amenity": "hospital", "emergency": "yes", "name": "\u0986\u09ae\u09c7\u09b0\u09bf\u0995\u09be\u09a8 \u09b8\u09c1\u09aa\u09be\u09b0\u09b8\u09cd\u09aa\u09c7\u09b8\u099f\u09bf\u099f\u09bf \u09b9\u09be\u09b8\u09aa\u09be\u09a4\u09be\u09b2", "name:en": "American SuperSpecialty Hospital", "phone": "+880 2 8932345, +880 2 8918319, +880 2 8918349, +880 2 8918395, +8806662617496, +8801921346125, +8801733559050", "source": "http://www.americanhospital-bd.com", "website": "http://www.americanhospital-bd.com", "wheelchair": "yes"}}, {"type": "node", "id": 1578252835, "lat": 26.1854322, "lon": 91.7404472, "tags": {"addr:district": "Kamrup Metropolitan", "addr:full": "Panbazar, Opposite Panbazar Police Station", "addr:postcode": "781001", "addr:state": "Assam", "addr:subdistrict": "Guwahati", "amenity": "hospital", "description": "District Hospital", "healthcare": "hospital", "name": "Mahendra Mohan Choudhury Hospital", "source": "OpenGovernmentData"}}, {"type": "node", "id": 1690134377, "lat": 27.1298566, "lon": 93.7365723, "tags": {"amenity": "hospital", "designation": "Primary Helthj Unit", "emergency": "yes", "name": "NERIST Medical Unit", "source": "NERIST"}}, {"type": "node", "id": 1705323155, "lat": 27.7468297, "lon": 98.6665529, "tags": {"amenity": "hospital", "name": "\u8d21\u5c71\u53bf\u4eba\u6c11\u533b\u9662"}}, {"type": "node", "id": 1739998743, "lat": 27.7396748, "lon": 95.9117097, "tags": {"amenity": "hospital"}}, {"type": "node", "id": 1740002014, "lat": 27.6715105, "lon": 95.7576066, "tags": {"amenity": "hospital", "healthcare": "hospital"}}, {"type": "node", "id": 1787174815, "lat": 23.7501949, "lon": 90.3697475, "tags": {"amenity": "hospital", "emergency": "yes", "name": "Bangladesh Medical College Hospital"}}, {"type": "node", "id": 1787175313, "lat": 23.7515946, "lon": 90.368919, "tags": {"amenity": "hospital", "emergency": "yes", "name": "\u0987\u09ac\u09a8\u09c7 \u09b8\u09bf\u09a8\u09be \u09b9\u09be\u09b8\u09aa\u09be\u09a4\u09be\u09b2", "name:en": "Ibn Sina Hospital"}}, {"type": "node", "id": 1801776695, "lat": 21.4436297, "lon": 91.977268, "tags": {"amenity": "hospital", "healthcare": "hospital", "healthcare:speciality": "ophthalmology", "name": "Community Eye Hospital"}}, {"type": "node", "id": 1801791952, "lat": 21.4423116, "lon": 91.9770314, "tags": {"amenity": "hospital", "name": "Central Hospital Cox's bazar"}}, {"type": "node", "id": 1801796034, "lat": 21.4423627, "lon": 91.9769886, "tags": {"amenity": "hospital", "name": "Dental Care"}}, {"type": "node", "id": 1801801222, "lat": 21.4423021, "lon": 91.9767396, "tags": {"amenity": "hospital", "name": "Dental Care"}}, {"type": "node", "id": 1801803164, "lat": 21.4412853, "lon": 91.9768442, "tags": {"amenity": "hospital", "name": "Chevron Hospital"}}, {"type": "node", "id": 1802420571, "lat": 21.4414404, "lon": 91.976909, "tags": {"amenity": "hospital", "name": "Digital Hospital"}}, {"type": "node", "id": 1802422899, "lat": 21.4415557, "lon": 91.976916, "tags": {"amenity": "hospital", "name": "Jela Sadar Hospital"}}, {"type": "node", "id": 1802427248, "lat": 21.4414701, "lon": 91.9762978, "tags": {"amenity": "hospital", "name": "Chevron Clinical Laboratory"}}, {"type": "node", "id": 1802430846, "lat": 21.4416511, "lon": 91.9761226, "tags": {"amenity": "hospital", "name": "Seaside Hospital"}}, {"type": "node", "id": 1848616382, "lat": 22.3589378, "lon": 91.8234566, "tags": {"addr:city": "Chittagong, Bangladesh", "addr:postcode": "4000", "addr:street": "OR Nizam Rd", "amenity": "hospital", "emergency": "yes", "name": "Chittagong Metropolitan Hospital", "opening_hours": "24/7"}}, {"type": "node", "id": 1848622264, "lat": 22.3593393, "lon": 91.8237587, "tags": {"amenity": "hospital", "name": "Metropolitan Clinic"}}, {"type": "node", "id": 1848622265, "lat": 22.3593154, "lon": 91.824298, "tags": {"amenity": "hospital", "designation": "Private", "emergency": "yes", "name": "Royal Hospital"}}, {"type": "node", "id": 1848622267, "lat": 22.3593299, "lon": 91.8240608, "tags": {"amenity": "hospital", "name": "Bell View Diagonistics"}}, {"type": "node", "id": 1874075785, "lat": 29.660354, "lon": 91.1267709, "tags": {"amenity": "hospital", "name": "Emergency Medicine Centre"}}, {"type": "node", "id": 1918572883, "lat": 23.9513702, "lon": 97.8014406, "tags": {"amenity": "hospital"}}, {"type": "node", "id": 1936362153, "lat": 23.7410137, "lon": 90.4123483, "tags": {"amenity": "hospital", "healthcare": "hospital", "name": "Popular"}}, {"type": "node", "id": 1962572816, "lat": 22.3412045, "lon": 91.8381286, "tags": {"amenity": "hospital", "designation": "Government Hospital", "emergency": "yes", "name": "General Hospital"}}, {"type": "node", "id": 1963093210, "lat": 22.3437812, "lon": 91.833969, "tags": {"amenity": "hospital", "designation": "Private", "emergency": "yes", "name": "Centre Point Hospital ,  OS"}}, {"type": "node", "id": 1987734179, "lat": 26.7575886, "lon": 94.201555, "tags": {"amenity": "hospital", "healthcare": "hospital", "name": "Sanjivani Hospital"}}, {"type": "node", "id": 2106725847, "lat": 23.0873066, "lon": 97.3928929, "tags": {"amenity": "hospital", "name:en": "Namtu General Hospital", "name:zh": "\u5357\u6e21\u533b\u9662"}}, {"type": "node", "id": 2147430789, "lat": 20.1186155, "lon": 99.7977342, "tags": {"amenity": "hospital", "name": "\u0e2a\u0e16\u0e32\u0e19\u0e1e\u0e22\u0e32\u0e1a\u0e32\u0e25\u0e01\u0e32\u0e23\u0e41\u0e1e\u0e17\u0e22\u0e4c\u0e41\u0e1c\u0e19\u0e44\u0e17\u0e22"}}, {"type": "node", "id": 2208594272, "lat": 22.3618884, "lon": 91.8297218, "tags": {"amenity": "hospital", "designation": "Private", "emergency": "yes", "name": "Treatment Hospital"}}, {"type": "node", "id": 2208595895, "lat": 22.361853, "lon": 91.8304008, "tags": {"amenity": "hospital", "designation": "Private Hospital", "emergency": "yes", "name": "Holy Health Hospital"}}, {"type": "node", "id": 2208720875, "lat": 22.3614315, "lon": 91.8136016, "tags": {"amenity": "hospital", "name": "Surjer Hasi Clinic"}}, {"type": "node", "id": 2208720876, "lat": 22.3612206, "lon": 91.8160556, "tags": {"amenity": "hospital", "name": "Lions Charitable Eye Hospital"}}, {"type": "node", "id": 2208720877, "lat": 22.3606679, "lon": 91.7958119, "tags": {"amenity": "hospital", "name": "Imperial Hospital"}}, {"type": "node", "id": 2208720878, "lat": 22.3615287, "lon": 91.7976924, "tags": {"amenity": "hospital", "emergency": "yes", "name": "Banghabondhu Memorial Hospital"}}, {"type": "node", "id": 2208720880, "lat": 22.3620181, "lon": 91.8093557, "tags": {"amenity": "hospital", "emergency": "yes", "healthcare": "hospital", "name": "Holy Crescent Hospital"}}, {"type": "node", "id": 2208720882, "lat": 22.3617825, "lon": 91.8024561, "tags": {"amenity": "hospital", "emergency": "yes", "name": "Chittagong diabetic and general Hospital"}}, {"type": "node", "id": 2208720892, "lat": 22.3617211, "lon": 91.7981771, "tags": {"amenity": "hospital", "name": "USTC Medical College Hospital"}}, {"type": "node", "id": 2209597818, "lat": 22.3942639, "lon": 91.868978, "tags": {"amenity": "hospital", "name": "Medical Square"}}, {"type": "node", "id": 2209597822, "lat": 22.3606051, "lon": 91.8303823, "tags": {"amenity": "hospital", "designation": "Government Hospital", "emergency": "yes", "name": "Chittagong Medical College"}}, {"type": "node", "id": 2209597836, "lat": 22.3674084, "lon": 91.8430813, "tags": {"amenity": "hospital", "designation": "Diagnostic Center", "emergency": "no", "name": "Modern Diagnostic Center,OS"}}, {"type": "node", "id": 2209597842, "lat": 22.3591836, "lon": 91.826521, "tags": {"amenity": "hospital", "emergency": "no", "name": "Marie Stopes Clinic"}}, {"type": "node", "id": 2209597857, "lat": 22.3588273, "lon": 91.8251425, "tags": {"amenity": "hospital", "designation": "Diagnostic Center", "emergency": "no", "name": "labaid diagnostic center"}}, {"type": "node", "id": 2209597865, "lat": 22.3609104, "lon": 91.8317715, "tags": {"amenity": "hospital", "designation": "Private", "emergency": "yes", "name": "Popular Diagnostic Center"}}, {"type": "node", "id": 2209597869, "lat": 22.3583034, "lon": 91.8254633, "tags": {"amenity": "hospital", "emergency": "yes", "name": "Metro diagnostic center"}}, {"type": "node", "id": 2209597873, "lat": 22.3610907, "lon": 91.8312057, "tags": {"amenity": "hospital", "name": "Chittagong Shishu Hospital", "name:en": "Chittagong shishu hospital"}}, {"type": "node", "id": 2209597874, "lat": 22.3603935, "lon": 91.8282626, "tags": {"amenity": "hospital", "designation": "Blood Bank", "emergency": "yes", "name": "\u09b2\u09be\u0987\u09ab \u09b8\u09c7\u09ad \u09ac\u09cd\u09b2\u09be\u09a1 \u09ac\u09cd\u09af\u09be\u0982\u0995", "name:en": "Life save Blood bank"}}, {"type": "node", "id": 2210227362, "lat": 22.4413749, "lon": 91.9079265, "tags": {"amenity": "hospital", "emergency": "yes", "name": "Pioneer hospital and diagnostic center Ltd."}}, {"type": "node", "id": 2210381424, "lat": 22.4412773, "lon": 91.9086186, "tags": {"amenity": "hospital", "name": "Appolo Diagnostic Center , OS"}}, {"type": "node", "id": 2210381444, "lat": 22.4589349, "lon": 91.965978, "tags": {"addr:city": "Chittagong", "amenity": "hospital", "name": "Ultra Assay Center"}}, {"type": "node", "id": 2210381459, "lat": 22.4413765, "lon": 91.9079269, "tags": {"amenity": "hospital", "name": "Pioneer hospital And diagnostic center Ltd. , OS"}}, {"type": "node", "id": 2211572832, "lat": 22.3424373, "lon": 91.8374508, "tags": {"amenity": "hospital", "designation": "Maternity ", "emergency": "yes", "name": "Jemison redcrescent maternity hospital,Anderkilla"}}, {"type": "node", "id": 2211572833, "lat": 22.3424373, "lon": 91.8374507, "tags": {"amenity": "hospital", "name": "Jemison redcrescent maternity hospital,Anderkilla"}}, {"type": "node", "id": 2214704493, "lat": 22.3604532, "lon": 91.8337379, "tags": {"amenity": "hospital", "name": "Health Home Private Clinic"}}, {"type": "node", "id": 2214704495, "lat": 22.3602062, "lon": 91.833258, "tags": {"amenity": "hospital", "name": "Mirror Hospital Limited."}}, {"type": "node", "id": 2214704496, "lat": 22.3602835, "lon": 91.8338829, "tags": {"amenity": "hospital", "name": "Mohila O Sishu Hospital,OS"}}, {"type": "node", "id": 2214704498, "lat": 22.3604627, "lon": 91.8334488, "tags": {"amenity": "hospital", "name": "Surgiscope hospital unit 1 OS"}}, {"type": "node", "id": 2216627192, "lat": 22.3597999, "lon": 91.8374698, "tags": {"amenity": "hospital", "name": "Surgiscope Hospital unit 2"}}, {"type": "node", "id": 2216631278, "lat": 22.365182, "lon": 91.8338505, "tags": {"amenity": "hospital", "name": "Doctor's hospital(OS)"}}, {"type": "node", "id": 2216636912, "lat": 22.3631377, "lon": 91.8305255, "tags": {"amenity": "hospital", "name": "CSCR storke unit"}}, {"type": "node", "id": 2216658624, "lat": 22.3614483, "lon": 91.8289753, "tags": {"amenity": "hospital", "name": "Checkup Diagnostic Centre"}}, {"type": "node", "id": 2274870541, "lat": 23.877363, "lon": 99.9065264, "tags": {"amenity": "hospital"}}, {"type": "node", "id": 2320394258, "lat": 23.7523917, "lon": 90.3853287, "tags": {"amenity": "hospital", "name": "Samorita Hospital"}}, {"type": "node", "id": 2324541010, "lat": 22.3624485, "lon": 91.8346561, "tags": {"amenity": "hospital", "name": "Niramoy Clinic"}}, {"type": "node", "id": 2332670639, "lat": 25.0180855, "lon": 90.0245386, "tags": {"amenity": "hospital", "name": "Sherpur General Hospital"}}, {"type": "node", "id": 2332679000, "lat": 24.4064424, "lon": 90.3816307, "tags": {"amenity": "hospital", "name": "Bhaluka Upazillz Health Complex"}}, {"type": "node", "id": 2332679001, "lat": 24.462716, "lon": 90.5451623, "tags": {"amenity": "hospital", "name": "Gafargaon Upazilla Health Complex"}}, {"type": "node", "id": 2332679003, "lat": 24.4657899, "lon": 90.8718753, "tags": {"amenity": "hospital", "name": "Karimganj Upazilla Health Complex"}}, {"type": "node", "id": 2332679004, "lat": 24.2443695, "lon": 90.7978091, "tags": {"amenity": "hospital", "name": "Katiyadi Upazilla Health Complex"}}, {"type": "node", "id": 2332679006, "lat": 24.5661403, "lon": 90.6902107, "tags": {"addr:street": "Nandail - Hossainpur Road", "amenity": "hospital", "level": "4", "name": "Nandail Upazilla Health Complex", "operator": "Government", "operator:type": "public"}}, {"type": "node", "id": 2332679007, "lat": 24.3258926, "lon": 90.9336303, "tags": {"amenity": "hospital", "name": "Nikli Upazilla Health Complex"}}, {"type": "node", "id": 2332679008, "lat": 24.3293628, "lon": 90.6794941, "tags": {"addr:city": "Pakundia", "addr:country": "BD", "addr:district": "Kishoreganj", "addr:street": "Pakundia - Kishoreganj Road", "amenity": "hospital", "name": "Pakundia Upazilla Health Complex"}}, {"type": "node", "id": 2332679009, "lat": 24.5764913, "lon": 90.3948003, "tags": {"amenity": "hospital", "name": "Trishal Upazilla Health Complex"}}, {"type": "node", "id": 2332679843, "lat": 24.22893, "lon": 90.0543495, "tags": {"amenity": "hospital", "healthcare": "hospital", "name": "\u09ac\u09be\u09b8\u09be\u0987\u09b2 \u0989\u09aa\u099c\u09c7\u09b2\u09be \u09b8\u09cd\u09ac\u09be\u09b8\u09cd\u09a5\u09cd\u09af \u0995\u09ae\u09aa\u09cd\u09b2\u09c7\u0995\u09cd\u09b8", "name:bn": "\u09ac\u09be\u09b8\u09be\u0987\u09b2 \u0989\u09aa\u099c\u09c7\u09b2\u09be \u09b8\u09cd\u09ac\u09be\u09b8\u09cd\u09a5\u09cd\u09af \u0995\u09ae\u09aa\u09cd\u09b2\u09c7\u0995\u09cd\u09b8", "name:en": "Basail Upazila Health Complex"}}, {"type": "node", "id": 2332679846, "lat": 24.2005371, "lon": 90.4785541, "tags": {"amenity": "hospital", "name": "Sreepur Upazilla Health Complex"}}, {"type": "node", "id": 2332686512, "lat": 23.7878589, "lon": 90.327993, "tags": {"amenity": "hospital", "name": "Aminbazar union Health Center"}}, {"type": "node", "id": 2332686513, "lat": 23.9137071, "lon": 90.227525, "tags": {"amenity": "hospital", "healthcare": "hospital", "name": "Dhamrai Upazilla Health Complex"}}, {"type": "node", "id": 2332686514, "lat": 23.9925472, "lon": 90.4248042, "tags": {"amenity": "hospital", "name": "Gazipur General Hospital"}}, {"type": "node", "id": 2332686519, "lat": 23.8386649, "lon": 90.2478719, "tags": {"amenity": "hospital", "name": "Savar Upazilla Health Complex"}}, {"type": "node", "id": 2332686520, "lat": 23.8137908, "lon": 90.1490043, "tags": {"amenity": "hospital", "name": "Singair Upazilla Health Complex"}}, {"type": "node", "id": 2332856859, "lat": 25.1014026, "lon": 91.3039972, "tags": {"amenity": "hospital", "healthcare": "hospital"}}, {"type": "node", "id": 2332856867, "lat": 25.0854567, "lon": 91.7554136, "tags": {"amenity": "hospital", "name": "Companygonj Upazila Health Complex"}}, {"type": "node", "id": 2332856875, "lat": 25.090095, "lon": 90.5134661, "tags": {"amenity": "hospital", "name": "Dhobaura Upazila Health Complex"}}, {"type": "node", "id": 2332856879, "lat": 25.0429618, "lon": 91.5678367, "tags": {"amenity": "hospital", "name": "Dowarbazar Upazila Health Complex"}}, {"type": "node", "id": 2332856882, "lat": 25.1279521, "lon": 90.6780243, "tags": {"amenity": "hospital", "name": "Durgapur Upazila Health Complex"}}, {"type": "node", "id": 2332856889, "lat": 25.1179719, "lon": 90.3387211, "tags": {"amenity": "hospital", "name": "Haluaghat Upazila Health Complex"}}, {"type": "node", "id": 2332856892, "lat": 25.1361745, "lon": 92.1265808, "tags": {"amenity": "hospital", "name": "Jaintapur Upazila Health Complex"}}, {"type": "node", "id": 2332856895, "lat": 25.1823108, "lon": 90.0660877, "tags": {"amenity": "hospital", "emergency": "yes", "healthcare": "hospital", "healthcare:speciality": "general", "name": "\u0989\u09aa\u099c\u09c7\u09b2\u09be \u09b8\u09cd\u09ac\u09be\u09b8\u09cd\u09a5\u09cd\u09af \u0995\u09ae\u09aa\u09cd\u09b2\u09c7\u0995\u09cd\u09b8, \u099d\u09bf\u09a8\u09be\u0987\u0997\u09be\u09a4\u09c0", "name:bn": "\u0989\u09aa\u099c\u09c7\u09b2\u09be \u09b8\u09cd\u09ac\u09be\u09b8\u09cd\u09a5\u09cd\u09af \u0995\u09ae\u09aa\u09cd\u09b2\u09c7\u0995\u09cd\u09b8, \u099d\u09bf\u09a8\u09be\u0987\u0997\u09be\u09a4\u09c0", "name:en": "Upazila Health Complex, Jhinaigati"}}, {"type": "node", "id": 2332856898, "lat": 25.074178, "lon": 90.8931413, "tags": {"amenity": "hospital", "name": "Kalmakanda Upazila Health Complex"}}, {"type": "node", "id": 2332856901, "lat": 25.0120631, "lon": 92.2558595, "tags": {"amenity": "hospital", "name": "Kanaighat Upazila Health Complex"}}, {"type": "node", "id": 2332856909, "lat": 25.0934153, "lon": 90.188886, "tags": {"amenity": "hospital", "name": "Nalitabari Upazila Health Complex"}}, {"type": "node", "id": 2332856912, "lat": 24.9484441, "lon": 90.3648299, "tags": {"amenity": "hospital", "name": "Phulpur Upazila Health Complex"}}, {"type": "node", "id": 2332856927, "lat": 25.0651231, "lon": 91.410647, "tags": {"amenity": "hospital", "name": "Sunamganj General Hospital"}}, {"type": "node", "id": 2332856931, "lat": 25.0979172, "lon": 91.1854831, "tags": {"addr:district": "Sunamganj", "addr:union": "Borodol", "addr:ward": "6", "amenity": "hospital", "building": "yes", "damage": "no", "description": "it's not any damaged yet.", "name": "Tahirpur Upazila Health Complex", "source": "survey", "source:date": "2018-07-22", "source:name": "logic_undp", "source_ref": "https://www.openstreetmap.org/user/aHaSaN/diary", "type": "institutional"}}, {"type": "node", "id": 2332872322, "lat": 24.6556702, "lon": 91.8357577, "tags": {"amenity": "hospital", "healthcare": "hospital", "name": "Balaganj Upazila Health Complex"}}, {"type": "node", "id": 2332872326, "lat": 24.6938788, "lon": 92.184857, "tags": {"amenity": "hospital", "healthcare": "hospital", "name": "Barlekha Upazila Health Complex"}}, {"type": "node", "id": 2332872329, "lat": 24.8405595, "lon": 91.7257035, "tags": {"amenity": "hospital", "name": "\u09ac\u09bf\u09b6\u09cd\u09ac\u09a8\u09be\u09a5 \u0989\u09aa\u099c\u09c7\u09b2\u09be \u09b8\u09cd\u09ac\u09be\u09b8\u09cd\u09a5\u09cd\u09af \u0995\u09ae\u09aa\u09cd\u09b2\u09c7\u0995\u09cd\u09b8", "name:bn": "\u09ac\u09bf\u09b6\u09cd\u09ac\u09a8\u09be\u09a5 \u0989\u09aa\u099c\u09c7\u09b2\u09be \u09b8\u09cd\u09ac\u09be\u09b8\u09cd\u09a5\u09cd\u09af \u0995\u09ae\u09aa\u09cd\u09b2\u09c7\u0995\u09cd\u09b8"}}, {"type": "node", "id": 2332872335, "lat": 24.8321257, "lon": 92.0291639, "tags": {"amenity": "hospital", "healthcare": "hospital", "name": "Golabganj Upazila Health Complex"}}, {"type": "node", "id": 2332872337, "lat": 24.7794347, "lon": 91.5631588, "tags": {"amenity": "hospital", "name": "Jagannathpur Upazila Health Complex"}}, {"type": "node", "id": 2332872340, "lat": 24.8842777, "lon": 92.3642292, "tags": {"amenity": "hospital", "name": "Jakiganj Upazila Health Complex"}}, {"type": "node", "id": 2332872344, "lat": 24.9987899, "lon": 91.2356038, "tags": {"amenity": "hospital", "name": "Jamalganj Upazila Health Complex"}}, {"type": "node", "id": 2332872347, "lat": 24.8792089, "lon": 90.9820953, "tags": {"amenity": "hospital", "name": "Mohanganj Upazila Health Complex"}}, {"type": "node", "id": 2332892994, "lat": 24.5515794, "lon": 91.2355889, "tags": {"amenity": "hospital", "name": "Ajmiriganj Upazila Health Complex"}}, {"type": "node", "id": 2332892995, "lat": 24.5043956, "lon": 91.363971, "tags": {"amenity": "hospital", "name": "\u09ac\u09be\u09a8\u09bf\u09df\u09be\u099a\u0982 \u098a\u09aa\u099c\u09c7\u09b2\u09be \u09b8\u09cd\u09ac\u09be\u09b8\u09cd\u09a5\u09cd\u09af \u0995\u09ae\u09aa\u09cd\u09b2\u09c7\u0995\u09cd\u09b8", "name:en": "Baniachang Upazila Health Complex"}}, {"type": "node", "id": 2332892996, "lat": 24.3735429, "lon": 91.4176425, "tags": {"addr:city": "Habiganj", "addr:postcode": "3300", "amenity": "hospital", "name": "Habiganj General Hospital", "name:bn": "\u09b9\u09ac\u09bf\u0997\u099e\u09cd\u099c \u09b8\u09b0\u0995\u09be\u09b0\u09c0 \u09b9\u09be\u09b8\u09aa\u09be\u09a4\u09be\u09b2"}}, {"type": "node", "id": 2332892997, "lat": 24.3659437, "lon": 91.8570806, "tags": {"amenity": "hospital", "name": "Kamalganj Upazila Health Complex"}}, {"type": "node", "id": 2332892998, "lat": 24.5279662, "lon": 92.0384991, "tags": {"amenity": "hospital", "name": "Kulaura Upazila Health Complex"}}, {"type": "node", "id": 2332892999, "lat": 24.4811474, "lon": 91.7662744, "tags": {"addr:city": "Moulvibazar", "addr:postcode": "3200", "addr:street": "Dhaka - Moulvibazar Highway", "amenity": "hospital", "emergency": "yes", "healthcare:speciality": "general;surgery", "name": "Moulvibaza Sadar Hospital", "name:bn": "\u09ae\u09cc\u09b2\u09ad\u09c0\u09be\u099c\u09be\u09b0 \u09b8\u09a6\u09b0 \u09b9\u09be\u09b8\u09be\u09a4\u09be\u09b2"}}, {"type": "node", "id": 2332893000, "lat": 24.5277418, "lon": 91.8529606, "tags": {"amenity": "hospital", "name": "Rajanagar Upazila Health Complex"}}, {"type": "node", "id": 2332919089, "lat": 24.1940443, "lon": 91.1962986, "tags": {"amenity": "hospital", "name": "Nasirnagar Upazila Health Complex"}}, {"type": "node", "id": 2332919090, "lat": 24.300898, "lon": 91.7364249, "tags": {"amenity": "hospital", "name": "Sreemangal Upazila Health Complex"}}, {"type": "node", "id": 2333045235, "lat": 22.3524199, "lon": 91.8214225, "tags": {"amenity": "hospital", "name": "Police Lines Hospital"}}, {"type": "node", "id": 2333151683, "lat": 23.9764611, "lon": 91.111005, "tags": {"amenity": "hospital", "name": "Brahmanbaria General Hospital"}}, {"type": "node", "id": 2333151684, "lat": 24.0971494, "lon": 91.2875089, "tags": {"amenity": "hospital", "name": "Madhabpur Upazila Health Complex"}}, {"type": "node", "id": 2333164527, "lat": 23.8645379, "lon": 91.203273, "tags": {"amenity": "hospital", "name": "Akhaura Upazila Health Complex"}}, {"type": "node", "id": 2333164528, "lat": 23.7720763, "lon": 90.8021663, "tags": {"amenity": "hospital", "name": "Bancharampur Upazila Health Complex"}}, {"type": "node", "id": 2333164530, "lat": 23.6137621, "lon": 91.0941092, "tags": {"amenity": "hospital", "name": "Brahmanpara Upazila Health Complex"}}, {"type": "node", "id": 2333164531, "lat": 23.5572321, "lon": 91.1271728, "tags": {"amenity": "hospital", "name": "Burichang Upazila Health Complex"}}, {"type": "node", "id": 2333164532, "lat": 23.4875327, "lon": 90.9971327, "tags": {"amenity": "hospital", "name": "Chandina Upazila Health Complex"}}, {"type": "node", "id": 2333164533, "lat": 23.4553504, "lon": 91.1816815, "tags": {"amenity": "hospital", "name": "Comilla General Hospital"}}, {"type": "node", "id": 2333164534, "lat": 23.4515975, "lon": 91.2022664, "tags": {"amenity": "hospital", "name": "Comilla Medical College Hospital"}}, {"type": "node", "id": 2333164535, "lat": 23.6041875, "lon": 90.9872413, "tags": {"amenity": "hospital", "name": "Debidwar Upazila Health Complex"}}, {"type": "node", "id": 2333164536, "lat": 23.6815145, "lon": 90.7823232, "tags": {"amenity": "hospital", "name": "Homna Upazila Health Complex"}}, {"type": "node", "id": 2333164537, "lat": 23.3410847, "lon": 90.8894731, "tags": {"amenity": "hospital", "name": "Kachua Upazila Health Complex"}}, {"type": "node", "id": 2333164538, "lat": 23.6403549, "lon": 90.9315645, "tags": {"amenity": "hospital", "name": "Muradnagar Upazila Health Complex"}}, {"type": "node", "id": 2333176629, "lat": 23.0382598, "lon": 91.5166759, "tags": {"amenity": "hospital", "name": "Chagalnaiya Upazila Health Complex"}}, {"type": "node", "id": 2333176631, "lat": 23.0300437, "lon": 91.4053964, "tags": {"amenity": "hospital", "name": "Feni General Hospital"}}, {"type": "node", "id": 2333176632, "lat": 23.2107104, "lon": 91.4447134, "tags": {"amenity": "hospital", "name": "Parshuram Upazila Health Complex"}}, {"type": "node", "id": 2334074205, "lat": 22.938362, "lon": 91.3104378, "tags": {"amenity": "hospital", "name": "\u09a6\u09be\u0997\u09a8\u09ad\u09c2\u0981\u0987\u09af\u09bc\u09be \u0989\u09aa\u099c\u09c7\u09b2\u09be \u09b8\u09cd\u09ac\u09be\u09b8\u09cd\u09a5\u09cd\u09af \u0995\u09ae\u09aa\u09cd\u09b2\u09c7\u0995\u09cd\u09b8", "name:en": "Daganbhuiyan Upazila Health Complex"}}, {"type": "node", "id": 2334074206, "lat": 22.9956182, "lon": 91.2327521, "tags": {"addr:city": "Noakhali", "amenity": "hospital", "name": "Senbagh Upazila Health Complex"}}, {"type": "node", "id": 2339088931, "lat": 22.3313997, "lon": 91.8320131, "tags": {"amenity": "hospital", "name": "Menon Hospital"}}, {"type": "node", "id": 2340250459, "lat": 22.3277277, "lon": 91.8114567, "tags": {"addr:city": "Chittagong", "addr:postcode": "4100", "addr:street": "Agrabad access Road", "amenity": "hospital", "name": "Nawabi"}}, {"type": "node", "id": 2342005239, "lat": 22.3661028, "lon": 91.833482, "tags": {"addr:housenumber": "116-117", "amenity": "hospital", "emergency": "yes", "name": "Ekushe Hospital"}}, {"type": "node", "id": 2343341315, "lat": 23.0025372, "lon": 91.0952915, "tags": {"amenity": "hospital", "healthcare": "hospital", "name": "Begumganj Upazila Health Complex"}}, {"type": "node", "id": 2343344186, "lat": 22.6763677, "lon": 90.6551902, "tags": {"amenity": "hospital", "name": "Bhola General Hospital"}}, {"type": "node", "id": 2343344187, "lat": 22.496529, "lon": 90.7192273, "tags": {"addr:city": "Borhanuddin", "addr:postcode": "8320", "amenity": "hospital", "beds": "50", "name": "Burhanuddin Upazila Health Complex"}}, {"type": "node", "id": 2343344188, "lat": 22.1841926, "lon": 90.7635274, "tags": {"addr:city": "Charfasson", "addr:postcode": "8340", "addr:street": "Hospital Road", "amenity": "hospital", "emergency": "yes", "healthcare": "hospital", "healthcare:speciality": "general", "name": "Charfasson Upazila Health Complex", "operator": "Govornment of The People's Republic of Bangladesh", "operator:type": "government"}}, {"type": "node", "id": 2343344189, "lat": 23.0601569, "lon": 90.969302, "tags": {"amenity": "hospital", "name": "Chatkhil Upazila Health Complex"}}, {"type": "node", "id": 2343344191, "lat": 22.1659773, "lon": 90.4194581, "tags": {"amenity": "hospital", "name": "Galachipa Upazila Health Complex"}}, {"type": "node", "id": 2343344192, "lat": 22.2881156, "lon": 91.1416066, "tags": {"amenity": "hospital", "name": "\u09b9\u09be\u09a4\u09bf\u09af\u09bc\u09be \u0989\u09aa\u099c\u09c7\u09b2\u09be \u09b8\u09cd\u09ac\u09be\u09b8\u09cd\u09a5\u09cd\u09af \u0995\u09ae\u09aa\u09cd\u09b2\u09c7\u0995\u09cd\u09b8", "name:en": "Hatiya Upazila Health Complex"}}, {"type": "node", "id": 2343344193, "lat": 22.9344195, "lon": 90.8326514, "tags": {"amenity": "hospital", "name": "Lakshmipur Upazila Health Complex"}}, {"type": "node", "id": 2343344194, "lat": 22.3463171, "lon": 90.734469, "tags": {"amenity": "hospital", "name": "Lalmohan Upazila Health Complex"}}, {"type": "node", "id": 2343344195, "lat": 22.2580014, "lon": 90.9666387, "tags": {"amenity": "hospital", "name": "Manpura Upazila Health Complex"}}, {"type": "node", "id": 2343347180, "lat": 22.1306405, "lon": 90.2302356, "tags": {"amenity": "hospital", "name": "Amtali Upazila Health Complex"}}, {"type": "node", "id": 2343347181, "lat": 22.1563767, "lon": 90.1279307, "tags": {"amenity": "hospital", "name": "Barguna General Hospital"}}, {"type": "node", "id": 2343347182, "lat": 22.4135824, "lon": 90.1601989, "tags": {"amenity": "hospital", "name": "Betagi Upazila Health Complex"}}, {"type": "node", "id": 2343347183, "lat": 22.489815, "lon": 90.0587864, "tags": {"amenity": "hospital", "name": "Bhandaria Upazila Health Complex"}}, {"type": "node", "id": 2343347184, "lat": 21.9877672, "lon": 90.2177764, "tags": {"amenity": "hospital", "name": "Kalapara Upazila Health Complex"}}, {"type": "node", "id": 2343347186, "lat": 22.3598627, "lon": 90.2168278, "tags": {"amenity": "hospital", "name": "Mirzaganj Upazila Health Complex"}}, {"type": "node", "id": 2343351888, "lat": 22.5689886, "lon": 90.1333629, "tags": {"amenity": "hospital", "name": "Rajapur Upazila Health Complex", "name:bn": "\u09b0\u09be\u099c\u09be\u09aa\u09c1\u09b0 \u0989\u09aa\u099c\u09c7\u09b2\u09be \u09b8\u09cd\u09ac\u09be\u09b8\u09cd\u09a5\u09cd\u09af \u0995\u09ae\u09aa\u09cd\u09b2\u09c7\u0995\u09cd\u09b8"}}, {"type": "node", "id": 2343353773, "lat": 22.7088499, "lon": 90.3706234, "tags": {"amenity": "hospital", "name": "\u09ac\u09b0\u09bf\u09b6\u09be\u09b2 \u099c\u09c7\u09a8\u09be\u09b0\u09c7\u09b2 \u09b9\u09be\u09b8\u09aa\u09be\u09a4\u09be\u09b2", "name:en": "Barisal General Hospital"}}, {"type": "node", "id": 2343353777, "lat": 22.8266259, "lon": 90.5278747, "tags": {"amenity": "hospital", "name": "Mehendiganj Upazila Health Complex"}}, {"type": "node", "id": 2343353784, "lat": 22.8274012, "lon": 90.2517148, "tags": {"amenity": "hospital", "email": "wazirpur@uhfo.dghs.gov.bd", "name": "Wazipur Upazila Health Complex", "name:bn": "\u0989\u099c\u09bf\u09b0\u09aa\u09c1\u09b0 \u0989\u09aa\u099c\u09c7\u09b2\u09be \u09b8\u09cd\u09ac\u09be\u09b8\u09cd\u09a5\u09cd\u09af \u0995\u09ae\u09aa\u09cd\u09b2\u09c7\u0995\u09cd\u09b8", "website": "http://www.health.wazirpur.barisal.gov.bd/"}}, {"type": "node", "id": 2343354456, "lat": 23.7940859, "lon": 90.4128239, "tags": {"amenity": "hospital", "name": "Lab Aid Hospital"}}, {"type": "node", "id": 2343395370, "lat": 22.9636166, "lon": 90.1825251, "tags": {"amenity": "hospital", "name": "Agailjhara Upazila Health Complex"}}, {"type": "node", "id": 2343395395, "lat": 22.9629213, "lon": 90.2267735, "tags": {"amenity": "hospital", "name": "Gournadi Upazila Health Complex"}}, {"type": "node", "id": 2343395420, "lat": 22.9872531, "lon": 90.0049273, "tags": {"amenity": "hospital", "name": "Kotalipara Upazila Health Complex"}}, {"type": "node", "id": 2343395429, "lat": 23.0318733, "lon": 90.7652993, "tags": {"amenity": "hospital", "name": "Raipur Upazila Health Complex"}}, {"type": "node", "id": 2343411521, "lat": 23.0751001, "lon": 90.2292064, "tags": {"amenity": "hospital", "name": "Kalkini Upazila Health Complex"}}, {"type": "node", "id": 2343417351, "lat": 23.1333745, "lon": 90.7418619, "tags": {"amenity": "hospital", "name": "Faridganj Upazila Health Complex"}}, {"type": "node", "id": 2343417353, "lat": 23.0796825, "lon": 90.4289939, "tags": {"amenity": "hospital", "name": "Goshairhat Upazila Health Complex"}}, {"type": "node", "id": 2343417354, "lat": 23.0950908, "lon": 90.662077, "tags": {"amenity": "hospital", "healthcare": "hospital", "name": "Haimchar Upazila Health Complex"}}, {"type": "node", "id": 2343417357, "lat": 23.1654132, "lon": 90.2117735, "tags": {"amenity": "hospital", "emergency": "yes", "healthcare": "hospital", "name": "Madaripur Sadar Hospital \u09ae\u09be\u09a6\u09be\u09b0\u09bf\u09aa\u09c1\u09b0 \u09b8\u09a6\u09b0 \u09b9\u09be\u09b8\u09aa\u09be\u09a4\u09be\u09b2"}}, {"type": "node", "id": 2343417358, "lat": 23.2095082, "lon": 90.0478776, "tags": {"amenity": "hospital", "name": "Rajoir Upazila Health Complex"}}, {"type": "node", "id": 2344153961, "lat": 23.3431051, "lon": 90.1705933, "tags": {"amenity": "hospital", "name": "Shibchar Upazila Health Complex"}}, {"type": "node", "id": 2344153962, "lat": 22.9109195, "lon": 90.6232171, "tags": {"amenity": "hospital", "name": "Zanjira Upazila Health Complex"}}, {"type": "node", "id": 2344154059, "lat": 23.1988139, "lon": 90.447782, "tags": {"amenity": "hospital", "name": "Bhedarganj Upazila Health Complex"}}, {"type": "node", "id": 2344154060, "lat": 23.3085294, "lon": 90.4285328, "tags": {"addr:city": "Shariatpur", "addr:housenumber": "Mulfatgonj Bazar", "addr:postcode": "8020", "addr:street": "Naria", "amenity": "hospital", "emergency": "yes", "healthcare": "hospital", "healthcare:speciality": "emergency", "internet_access": "yes", "name": "Naria Upazila Health Complex", "operator": "Bangladesh Government", "operator:type": "government"}}, {"type": "node", "id": 2344450874, "lat": 23.6294025, "lon": 90.5251277, "tags": {"amenity": "hospital", "name": "Bandar Upazila Health Complex"}}, {"type": "node", "id": 2344451137, "lat": 23.5501275, "lon": 90.2901956, "tags": {"amenity": "hospital", "name": "Sreenagar Upazila Health Complex"}}, {"type": "node", "id": 2381382608, "lat": 23.869257, "lon": 90.0005109, "tags": {"amenity": "hospital", "name": "Manikganj General Hospital"}}, {"type": "node", "id": 2381382609, "lat": 23.9684567, "lon": 90.035345, "tags": {"amenity": "hospital", "name": "Saturia Upazila Health Complex"}}, {"type": "node", "id": 2382257863, "lat": 23.5295846, "lon": 90.7830709, "tags": {"amenity": "hospital", "name": "Daudkandi Upazila Health Complex"}}, {"type": "node", "id": 2382257864, "lat": 23.5529684, "lon": 90.6529191, "tags": {"amenity": "hospital", "name": "Gazaria Upazila Health Complex"}}, {"type": "node", "id": 2382257865, "lat": 23.5499681, "lon": 90.3876349, "tags": {"amenity": "hospital", "name": "Sirajdikhan Upazila Health Complex"}}, {"type": "node", "id": 2382259745, "lat": 23.3478544, "lon": 90.7040842, "tags": {"amenity": "hospital", "name": "Matlab Upazila Health Complex"}}, {"type": "node", "id": 2382261918, "lat": 23.2502563, "lon": 90.8738416, "tags": {"amenity": "hospital", "name": "Hajiganj Upazila Health Complex"}}, {"type": "node", "id": 2382262545, "lat": 23.22802, "lon": 90.9492877, "tags": {"amenity": "hospital", "name": "Shahrasti Upazila Health Complex"}}, {"type": "node", "id": 2382262625, "lat": 23.3409069, "lon": 90.8907656, "tags": {"amenity": "hospital", "name": "Kachua Upazila Health Complex"}}, {"type": "node", "id": 2382262817, "lat": 23.3765251, "lon": 91.0589789, "tags": {"amenity": "hospital", "healthcare": "hospital", "name": "Barura Upazila Health Complex"}}, {"type": "node", "id": 2382263483, "lat": 23.2339429, "lon": 91.1177264, "tags": {"amenity": "hospital", "name": "Laksham Upazila Health Complex"}}, {"type": "node", "id": 2382265286, "lat": 23.1715795, "lon": 91.1989327, "tags": {"amenity": "hospital", "healthcare": "hospital", "name": "\u09a8\u09be\u0999\u09b2\u0995\u09cb\u099f \u0989\u09aa\u099c\u09c7\u09b2\u09be \u09b8\u09cd\u09ac\u09be\u09b8\u09cd\u09a5\u09cd\u09af \u0995\u09ae\u09aa\u09cd\u09b2\u09c7\u0995\u09cd\u09b8", "name:en": "Nangolkot Upazila Health Complex"}}, {"type": "node", "id": 2382266322, "lat": 23.0395169, "lon": 91.8753994, "tags": {"amenity": "hospital", "name": "Matiranga Upazila Health Complex"}}, {"type": "node", "id": 2382266618, "lat": 23.1080103, "lon": 91.9927821, "tags": {"amenity": "hospital", "name": "Khagrachari General Hospital"}}, {"type": "node", "id": 2382267549, "lat": 23.2495549, "lon": 92.0658016, "tags": {"amenity": "hospital", "name": "Dighinala Upazila Health Complex"}}, {"type": "node", "id": 2382267550, "lat": 23.2972126, "lon": 91.8999107, "tags": {"amenity": "hospital", "name": "Panchari Upazila Health Complex"}}, {"type": "node", "id": 2383182545, "lat": 26.7490914, "lon": 94.1774577, "tags": {"amenity": "hospital", "emergency": "yes", "name": "IMSR"}}, {"type": "node", "id": 2389291420, "lat": 24.8244991, "lon": 93.0153112, "tags": {"addr:city": "Pailapool", "addr:street": "National Highway 53", "amenity": "hospital", "emergency": "yes", "name": "Emanuel Hospital, Pailapool"}}, {"type": "node", "id": 2405793400, "lat": 23.8862864, "lon": 90.9676658, "tags": {"amenity": "hospital", "name": "Nabinagar Upazila Health Complex"}}, {"type": "node", "id": 2408686614, "lat": 22.3288889, "lon": 91.8027234, "tags": {"amenity": "hospital", "name": "Agrabad Eye Hospital"}}, {"type": "node", "id": 2409448296, "lat": 24.9672892, "lon": 90.1832214, "tags": {"amenity": "hospital", "name": "Nakla Upazilla Health Complex"}}, {"type": "node", "id": 2412031667, "lat": 22.2996376, "lon": 91.9705669, "tags": {"amenity": "hospital", "name": "Patiya Upazila Health Complex"}}, {"type": "node", "id": 2412065020, "lat": 21.7619198, "lon": 92.074861, "tags": {"amenity": "hospital", "name": "Chakaria Upazila Health Complex"}}, {"type": "node", "id": 2446029248, "lat": 22.4179164, "lon": 91.8661393, "tags": {"addr:housename": "Nojumia hat,Kaptai Road,Chittagong", "amenity": "hospital", "name": "The fair lab"}}, {"type": "node", "id": 2492654592, "lat": 23.4619904, "lon": 91.1793856, "tags": {"amenity": "hospital", "emergency": "yes", "name": "CD PATH"}}, {"type": "node", "id": 2493073913, "lat": 21.987561, "lon": 96.0840996, "tags": {"addr:city": "Mandalay", "addr:housename": "Su Clinic", "amenity": "hospital", "name": "Su Private Clinic and Hospital"}}, {"type": "node", "id": 2497644634, "lat": 21.9802076, "lon": 96.0811438, "tags": {"addr:city": "Mandalay", "addr:street": "\u1042\u1048\u101c\u1019\u1039\u1038\u108f\u103d\u1004\u1039\u1037\u1048\u1042\u101c\u1019\u1039\u1038\u1031\u1011\u102c\u1004\u1039\u1037", "amenity": "hospital", "name": "Mandalar Clinic \u1019\u108f\u1072\u101c\u102c \u1031\u1006\u1038\u1000\u102f\u1001\u1014\u1039\u1038"}}, {"type": "node", "id": 2509564908, "lat": 23.4585048, "lon": 91.1806023, "tags": {"addr:city": "Comilla", "addr:postcode": "3500", "addr:street": "Comilla - Laksam Rd", "amenity": "hospital", "name": "Midland Hospital"}}, {"type": "node", "id": 2551974044, "lat": 22.6152131, "lon": 97.3005049, "tags": {"amenity": "hospital", "name": "Hospital"}}, {"type": "node", "id": 2571053072, "lat": 22.3596798, "lon": 91.8349368, "tags": {"amenity": "hospital", "name": "Ma Moni Hospital"}}, {"type": "node", "id": 2577035693, "lat": 22.3602517, "lon": 91.8524369, "tags": {"amenity": "hospital", "name": "Orin Dental Care"}}, {"type": "node", "id": 2580458163, "lat": 22.3461643, "lon": 91.8339182, "tags": {"amenity": "hospital", "name": "Sensive Diagnostics Center"}}, {"type": "node", "id": 2580474812, "lat": 22.3446545, "lon": 91.8340144, "tags": {"amenity": "hospital", "name": "Bellevue Diagnostic Center"}}, {"type": "node", "id": 2580477465, "lat": 22.3446669, "lon": 91.8335531, "tags": {"amenity": "hospital", "name": "Lab one diagnostic center"}}, {"type": "node", "id": 2585719362, "lat": 22.3439671, "lon": 91.8329767, "tags": {"amenity": "hospital", "name": "Bangladesh Diabetic Foot Saving Centre"}}, {"type": "node", "id": 2616255489, "lat": 24.9218234, "lon": 91.4433542, "tags": {"amenity": "hospital", "name": "Khaled General Hospital"}}, {"type": "node", "id": 2625618949, "lat": 22.7516298, "lon": 96.0173391, "tags": {"amenity": "hospital", "name": "\u1000\u103b\u1000\u103a\u101b\u102d\u102f\u1038\u1015\u1004\u103a", "name:en": "Kyat  Yoe Pinn"}}, {"type": "node", "id": 2682106391, "lat": 22.6046687, "lon": 90.7463456, "tags": {"addr:city": "Daulatkhan, bhola", "addr:postcode": "8300", "amenity": "hospital", "emergency": "yes", "name": "Daulatkhan Health Complex"}}, {"type": "node", "id": 2686563541, "lat": 26.3240761, "lon": 94.5217855, "tags": {"amenity": "hospital", "designation": "Private Clinic", "emergency": "no", "name": "Modern Clinic"}}, {"type": "node", "id": 2689917278, "lat": 26.3243522, "lon": 94.5177439, "tags": {"amenity": "hospital", "emergency": "no", "name": "Doctor's Clinic & Mediciner"}}, {"type": "node", "id": 2695903752, "lat": 21.9992017, "lon": 96.1146912, "tags": {"amenity": "hospital", "name": "Sangha Hospital (\u101e\u1036\u1003\u102c \u1006\u1031\u1038\u101b\u102f\u1036)", "name:my": "\u101e\u1036\u1003\u102c \u1006\u1031\u1038\u101b\u102f\u1036"}}, {"type": "node", "id": 2695939229, "lat": 22.0195251, "lon": 96.0976435, "tags": {"amenity": "hospital", "name": "Traditional Hospital"}}, {"type": "node", "id": 2696256995, "lat": 26.3253666, "lon": 94.5224108, "tags": {"amenity": "hospital", "emergency": "no", "name": "Impur Mission Hospital Clinic"}}, {"type": "node", "id": 2697236496, "lat": 23.8691562, "lon": 90.4041091, "tags": {"addr:city": "Dhaka", "addr:housenumber": "House 24", "addr:postcode": "1230", "addr:street": "Road 13, Sector 6, Uttara Model Town", "amenity": "hospital", "name": "Uttara Community Hospital", "note": "House no: 24, Road no: 13, Sector: 06, Uttara, Dhaka-1230 info@uchlbd.com \ufeffTel Phone: 8951475 Mobile: 01924-752988, 01962-407044", "phone": "+88028951475, +8801924752988, +8801962407044", "source": "http://ds24editor.wix.com/uchl", "website": "http://ds24editor.wix.com/uchl"}}, {"type": "node", "id": 2699358327, "lat": 21.9774901, "lon": 96.0946937, "tags": {"amenity": "hospital", "name": "Kyaw Hospital"}}, {"type": "node", "id": 2699527137, "lat": 21.9853778, "lon": 96.083535, "tags": {"amenity": "hospital", "name": "Aye Thu Kha"}}, {"type": "node", "id": 2700786765, "lat": 22.0496916, "lon": 96.4718614, "tags": {"amenity": "hospital", "name": "Military Hospital"}}, {"type": "node", "id": 2700988318, "lat": 21.9719677, "lon": 96.1018935, "tags": {"amenity": "hospital", "name": "Mandalar Hospital"}}, {"type": "node", "id": 2702241832, "lat": 20.7764531, "lon": 97.0389195, "tags": {"amenity": "hospital", "name:en": "WCH"}}, {"type": "node", "id": 2702252014, "lat": 20.7839112, "lon": 97.0385152, "tags": {"amenity": "hospital"}}, {"type": "node", "id": 2702262906, "lat": 20.8035332, "lon": 97.0372339, "tags": {"amenity": "hospital", "name": "Sao San Htun Hospital", "name:my": "\u1005\u101d\u103a\u1005\u1036\u1011\u103d\u1014\u103a\u1038\u1006\u1031\u1038\u101b\u102f\u1036", "name:shn": "\u1081\u1030\u1004\u103a\u1038\u101a\u1083\u101c\u1030\u1004\u103a\u1078\u101d\u103a\u1088\u1078\u1062\u1019\u103a\u1087\u1011\u102f\u107c\u103a\u1038"}}, {"type": "node", "id": 2703807308, "lat": 21.8813867, "lon": 96.1304056, "tags": {"amenity": "hospital", "name": "Myittar Shin Hospital"}}, {"type": "node", "id": 2705153223, "lat": 23.9931621, "lon": 97.9002592, "tags": {"amenity": "hospital", "name": "\u1081\u1030\u1004\u103a\u1038\u101a\u1083\u101c\u1030\u1004\u103a \u1075\u1030\u108a\u101c\u103d\u1004\u103a\u1088\u101c\u103d\u1004\u103a\u1088", "name:en": "General Hospital"}}, {"type": "node", "id": 2734202489, "lat": 20.8790621, "lon": 95.8605685, "tags": {"amenity": "hospital"}}, {"type": "node", "id": 2813443337, "lat": 23.0129351, "lon": 91.3975738, "tags": {"amenity": "hospital", "healthcare": "hospital", "name": "Feni Diabetic Hospital"}}, {"type": "node", "id": 2815348434, "lat": 23.485957, "lon": 91.0067378, "tags": {"amenity": "hospital", "name": "Chandina General Hospital"}}, {"type": "node", "id": 2828258270, "lat": 22.6365843, "lon": 91.7954382, "tags": {"amenity": "hospital", "name": "Nazirhat Upazila Health  Complex", "name:bn": "\u09a8\u09be\u099c\u09bf\u09b0\u09b9\u09be\u099f \u0989\u09aa\u099c\u09c7\u09b2\u09be \u09b8\u09cd\u09ac\u09be\u09b8\u09cd\u09a5\u09cd\u09af \u0995\u09ae\u09aa\u09cd\u09b2\u09c7\u0995\u09cd\u09b8"}}, {"type": "node", "id": 2828406228, "lat": 22.8501899, "lon": 91.8411782, "tags": {"amenity": "hospital", "name": "Manikchari Upazila Health Complex"}}, {"type": "node", "id": 2831083551, "lat": 21.6523607, "lon": 92.3119346, "tags": {"amenity": "hospital", "name": "Alikadam Upazila Health Complex"}}, {"type": "node", "id": 2831102978, "lat": 21.6817229, "lon": 92.0772639, "tags": {"amenity": "hospital", "name": "Christian Memorial Hospital"}}, {"type": "node", "id": 2831134999, "lat": 21.2361112, "lon": 92.0491455, "tags": {"amenity": "hospital", "name": "Inani Health Sub Center"}}, {"type": "node", "id": 2875626058, "lat": 23.8139265, "lon": 90.4007003, "tags": {"amenity": "hospital", "name": "\u098f\u098f\u09ab\u0986\u0987\u09aa\u09bf", "name:en": "AFIP"}}, {"type": "node", "id": 2877319781, "lat": 23.7989706, "lon": 90.3865056, "tags": {"amenity": "hospital", "name": "MARKS HOSPITAL"}}, {"type": "node", "id": 2895202033, "lat": 23.8941807, "lon": 90.3766464, "tags": {"amenity": "hospital", "name": "East West Medical College and Hospital"}}, {"type": "node", "id": 2977750920, "lat": 24.0152356, "lon": 97.8496294, "tags": {"amenity": "hospital"}}, {"type": "node", "id": 2993160472, "lat": 23.780555, "lon": 90.4101087, "tags": {"addr:city": "Dhaka", "addr:housenumber": "28/8/B, 15th Floor", "addr:postcode": "1200", "addr:street": "Bir Uttam A. K. Khandakar Road", "amenity": "hospital", "name": "Life Care"}}, {"type": "node", "id": 2993197559, "lat": 23.7762603, "lon": 90.4087339, "tags": {"amenity": "hospital", "name": "National Institute of Diseases of the Chest & Hospital"}}, {"type": "node", "id": 3003562592, "lat": 23.7592083, "lon": 90.3900863, "tags": {"amenity": "hospital", "name": "Al Razi Hospital (Ext)"}}, {"type": "node", "id": 3003715875, "lat": 23.7586584, "lon": 90.3903864, "tags": {"amenity": "hospital", "name": "Al Fateh Diagnostics"}}, {"type": "node", "id": 3006174850, "lat": 23.7391216, "lon": 90.3942607, "tags": {"amenity": "hospital", "healthcare": "hospital", "name": "Institute of Nuclear Medicine"}}, {"type": "node", "id": 3006177812, "lat": 23.7396737, "lon": 90.3953693, "tags": {"amenity": "hospital", "name": "Outdoor"}}, {"type": "node", "id": 3015256422, "lat": 23.7302625, "lon": 90.4072651, "tags": {"amenity": "hospital", "name": "Free Friday Clinic"}}, {"type": "node", "id": 3103258834, "lat": 29.6606946, "lon": 91.1252249, "tags": {"amenity": "hospital", "name": "\u897f\u85cf\u81ea\u6cbb\u533a\u4eba\u6c11\u533b\u9662"}}, {"type": "node", "id": 3103258835, "lat": 29.6606579, "lon": 91.1225398, "tags": {"amenity": "hospital", "name": "\u897f\u85cf\u961c\u5eb7\u533b\u9662"}}, {"type": "node", "id": 3132569901, "lat": 21.1900454, "lon": 94.908063, "tags": {"amenity": "hospital", "name": "Royal Bagan Clinic", "name:en": "Junction 4"}}, {"type": "node", "id": 3139585708, "lat": 29.433704, "lon": 90.163377, "tags": {"amenity": "hospital", "name": "\u5c3c\u6728\u53bf\u4eba\u6c11\u533b\u9662"}}, {"type": "node", "id": 3153651185, "lat": 22.1145381, "lon": 95.1281198, "tags": {"amenity": "hospital", "name": "Sopyay Hospital"}}, {"type": "node", "id": 3239199457, "lat": 22.1199597, "lon": 95.1300263, "tags": {"amenity": "hospital", "name": "Monywa General Hospital", "name:my": "\u1015\u103c\u100a\u103a\u101e\u1030\u1037\u1006\u1031\u1038\u101b\u102f\u1036"}}, {"type": "node", "id": 3283392703, "lat": 23.7735858, "lon": 90.410826, "tags": {"amenity": "hospital"}}, {"type": "node", "id": 3283392704, "lat": 23.7739208, "lon": 90.4099113, "tags": {"addr:city": "Dhaka", "addr:postcode": "1212", "amenity": "hospital", "emergency": "no", "name": "TB Hospital"}}, {"type": "node", "id": 3301113417, "lat": 23.7155564, "lon": 90.3808215, "tags": {"amenity": "hospital", "health_facility_type": "health_centre", "name": "Manobic Heath Center", "operator": "Manobig Oganijation"}}, {"type": "node", "id": 3301866477, "lat": 23.7291782, "lon": 90.3234324, "tags": {"amenity": "hospital", "name": "Upazila Health Complex", "operator": "Govt", "source": "Esri, Survey"}}, {"type": "node", "id": 3307823182, "lat": 23.7299525, "lon": 90.3340594, "tags": {"amenity": "hospital", "name": "Bresba Medical Services LTD.", "source": "Esri, Survey"}}, {"type": "node", "id": 3307824662, "lat": 23.7303012, "lon": 90.3333249, "tags": {"amenity": "hospital", "name": "Ati Bazar Central Hospital", "source": "Esri, Survey"}}, {"type": "node", "id": 3314001918, "lat": 23.7100254, "lon": 90.3675051, "tags": {"amenity": "hospital", "name": "Riverside Hospital", "note": "Huzurpara"}}, {"type": "node", "id": 3314098942, "lat": 23.7302739, "lon": 90.3578648, "tags": {"amenity": "hospital", "name": "Life & Care Hospital", "note": "kamrangir Chor"}}, {"type": "node", "id": 3315890963, "lat": 23.7395453, "lon": 90.3750454, "tags": {"amenity": "hospital", "name": "Japan Bangladesh Friendship Hospital"}}, {"type": "node", "id": 3320927147, "lat": 23.740944, "lon": 90.3587459, "tags": {"amenity": "hospital", "name": "Sikder Medical College Hospital"}}, {"type": "node", "id": 3320955408, "lat": 23.7437864, "lon": 90.3602519, "tags": {"amenity": "hospital", "name": "Bangladesh Eye trust Hospital"}}, {"type": "node", "id": 3321172255, "lat": 23.7454685, "lon": 90.3625365, "tags": {"alt_name": "Nogoor Shashtokendro", "amenity": "hospital", "health_facility:type": "health center", "name": "Urban Primary Health Care Center", "operator": "Meri Stopes"}}, {"type": "node", "id": 3328858519, "lat": 23.7458503, "lon": 90.3703427, "tags": {"amenity": "hospital", "name": "Naz-E-Noor Hospital"}}, {"type": "node", "id": 3388662566, "lat": 22.6731351, "lon": 90.3399394, "tags": {"amenity": "hospital", "name": "__\u099a\u0995\u09cd\u09b7\u09c1 \u09b9\u09be\u09b8\u09aa\u09be\u09a4\u09be\u09b2", "name:en": "__ Eye Hospital"}}, {"type": "node", "id": 3391624665, "lat": 23.7307962, "lon": 90.3673035, "tags": {"amenity": "hospital", "health_facility:type": "health_center", "healthcare": "hospital", "name": "Nogor Shasto kendro"}}, {"type": "node", "id": 3393514702, "lat": 25.0316253, "lon": 98.5095903, "tags": {"addr:postcode": "679100", "amenity": "hospital", "emergency": "yes", "name": "\u817e\u51b2\u5065\u541b\u533b\u9662", "wheelchair": "limited"}}, {"type": "node", "id": 3394718884, "lat": 25.0189181, "lon": 98.4970269, "tags": {"amenity": "hospital", "name": "\u817e\u51b2\u5e02\u5987\u5e7c\u4fdd\u5065\u9662"}}, {"type": "node", "id": 3450283986, "lat": 23.7735111, "lon": 90.3695891, "tags": {"amenity": "hospital", "name": "National Institute of Traumatology & Orthopaedic Rehabilitation (NITOR)"}}, {"type": "node", "id": 3473792183, "lat": 23.7124024, "lon": 90.3722885, "tags": {"amenity": "hospital", "health_facility:type": "Nursing_Home", "name": "Puspit Nursing Home"}}, {"type": "node", "id": 3502993813, "lat": 23.7141574, "lon": 90.3625354, "tags": {"amenity": "hospital", "health_facility:type": "health center", "name": "\u09ae\u09c7\u09b0\u09c0 \u09b8\u09cd\u099f\u09cb\u09aa\u09b8 \u09b8\u09cd\u09ac\u09be\u09b8\u09cd\u09a5\u09cd\u09af \u0995\u09c7\u09a8\u09cd\u09a6\u09cd\u09b0", "name:en": "Meri Staps Health Center", "note": "Kamrangirchor"}}, {"type": "node", "id": 3528885127, "lat": 23.7171694, "lon": 90.3719977, "tags": {"amenity": "hospital", "name": "Aleya Islam General Hospital", "source": "Survey - HOTOSM, MSF, Bing"}}, {"type": "node", "id": 3528909645, "lat": 23.7406532, "lon": 90.3742506, "tags": {"amenity": "hospital", "name": "Government Remeta Employee Hospital"}}, {"type": "node", "id": 3529068545, "lat": 23.7184024, "lon": 90.3727432, "tags": {"amenity": "hospital", "name": "Al-Ahsan Diagnostic Hospital", "source": "Survey - HOTOSM, MSF, Bing"}}, {"type": "node", "id": 3529312405, "lat": 23.7177122, "lon": 90.3680177, "tags": {"amenity": "hospital", "health_facility_type": "health centre", "name": "Marie Stopes", "source": "Survey - HOTOSM, MSF, Bing"}}, {"type": "node", "id": 3529323293, "lat": 23.7162141, "lon": 90.3677164, "tags": {"amenity": "hospital", "health_facility_type": "hospital", "name": "\u09ae\u09c7\u09a1\u09bf\u09b8\u09bf\u09a8\u09cd\u09b8 \u09b8\u09be\u09a8\u09cd\u09b8 \u09ab\u09cd\u09b0\u09a8\u09cd\u099f\u09bf\u09df\u09be\u09b0\u09cd\u09b8", "name:en": "MEDICINS SANS FRONTIERES", "note": "Ali Nogor, Nobi Nogor", "operator": "Medicins Sans Frontier"}}, {"type": "node", "id": 3547099282, "lat": 27.7551763, "lon": 95.0720967, "tags": {"amenity": "hospital", "name": "Health Sub Centre", "operator": "National Rural Health Mission"}}, {"type": "node", "id": 3558445437, "lat": 24.8717249, "lon": 90.7321918, "tags": {"amenity": "hospital", "name": "Netrokona Sadar Hospital", "operator": "Government"}}, {"type": "node", "id": 3559086357, "lat": 23.7383957, "lon": 90.3877204, "tags": {"amenity": "hospital", "level": "3", "name": "\u099c\u09c7\u09a8\u09be\u09b0\u09c7\u09b2 \u09ae\u09c7\u09a1\u09bf\u0995\u09cd\u09af\u09be\u09b2 \u09b9\u09b8\u09aa\u09bf\u099f\u09be\u09b2", "name:en": "General Medical Hospital"}}, {"type": "node", "id": 3559113604, "lat": 24.7167996, "lon": 90.9453272, "tags": {"amenity": "hospital", "name": "Madan Upazilla Health Complex"}}, {"type": "node", "id": 3561656524, "lat": 24.8793661, "lon": 90.7314299, "tags": {"amenity": "hospital", "area": "Netrokona Sadar, Moktarpara Road", "name": "New Swadesh Hospital and Diagonostic Center"}}, {"type": "node", "id": 3575340362, "lat": 24.7429322, "lon": 90.40919, "tags": {"amenity": "hospital", "name": "Mymensingh medical collage hospital"}}, {"type": "node", "id": 3671354272, "lat": 23.7370732, "lon": 90.3866517, "tags": {"addr:city": "Dhaka", "addr:housenumber": "65,", "addr:postcode": "1205", "addr:street": "elephant", "amenity": "hospital", "emergency": "yes", "name": "Meherun Homeo Pharmacy"}}, {"type": "node", "id": 3682199914, "lat": 24.9721892, "lon": 98.8642717, "tags": {"amenity": "hospital"}}, {"type": "node", "id": 3702053369, "lat": 25.106312, "lon": 90.6728523, "tags": {"amenity": "hospital", "name": "Health & Family Wlfare Center"}}, {"type": "node", "id": 3712960338, "lat": 23.7451485, "lon": 90.3992966, "tags": {"addr:city": "Dhaka", "addr:street": "Eskaton Road", "amenity": "hospital", "healthcare": "hospital"}}, {"type": "node", "id": 3715197755, "lat": 24.899578, "lon": 91.8592555, "tags": {"amenity": "hospital", "name": "Police Lines Hospital"}}, {"type": "node", "id": 3718263268, "lat": 27.7688106, "lon": 99.4267397, "tags": {"amenity": "hospital"}}, {"type": "node", "id": 3720243035, "lat": 24.8990649, "lon": 91.8673142, "tags": {"amenity": "hospital", "name": "Shahid Samsuddin Ahmed Hospital"}}, {"type": "node", "id": 3720261994, "lat": 24.8988371, "lon": 91.87101, "tags": {"amenity": "hospital", "name": "Central Hospital"}}, {"type": "node", "id": 3720274144, "lat": 24.8918061, "lon": 91.8777267, "tags": {"amenity": "hospital", "name": "IBN SINA Hospital"}}, {"type": "node", "id": 3731446676, "lat": 23.7410273, "lon": 90.4186838, "tags": {"amenity": "hospital", "emergency": "yes", "name": "\u0986\u09b2-\u09ac\u09be\u09b0\u09be\u0995\u09be\u09b9 \u099c\u09c7\u09a8\u09be\u09b0\u09c7\u09b2 \u09b9\u09be\u09b8\u09aa\u09be\u09a4\u09be\u09b2", "name:bn": "\u0986\u09b2-\u09ac\u09be\u09b0\u09be\u0995\u09be\u09b9 \u099c\u09c7\u09a8\u09be\u09b0\u09c7\u09b2 \u09b9\u09be\u09b8\u09aa\u09be\u09a4\u09be\u09b2", "name:en": "AL-Barakah General Hospital"}}, {"type": "node", "id": 3732390817, "lat": 23.8027632, "lon": 90.370642, "tags": {"amenity": "hospital", "healthcare": "hospital", "name": "Al-Helal Hospital"}}, {"type": "node", "id": 3732776471, "lat": 23.7442514, "lon": 90.3723242, "tags": {"amenity": "hospital", "emergency": "no", "name": "\u09aa\u09cd\u09b0\u09be\u0987\u09ae \u09ac\u09cd\u09af\u09be\u0982\u0995 \u099a\u0995\u09cd\u09b7\u09c1 \u09b9\u09be\u09b8\u09aa\u09be\u09a4\u09be\u09b2", "name:bn": "\u09aa\u09cd\u09b0\u09be\u0987\u09ae \u09ac\u09cd\u09af\u09be\u0982\u0995 \u099a\u0995\u09cd\u09b7\u09c1 \u09b9\u09be\u09b8\u09aa\u09be\u09a4\u09be\u09b2", "name:en": "Prime Bank Eye Hospitals", "note": "eye hospital operate by prime bank"}}, {"type": "node", "id": 3732862292, "lat": 23.7472931, "lon": 90.3702313, "tags": {"amenity": "hospital", "emergency": "yes", "name": "Eden Multicare Hospital"}}, {"type": "node", "id": 3733247146, "lat": 22.7071359, "lon": 90.3607676, "tags": {"amenity": "hospital", "name": "\u0986\u09ae\u09cd\u09ac\u09bf\u09df\u09be \u09b9\u09be\u09b8\u09aa\u09be\u09a4\u09be\u09b2", "name:en": "Ambia Hospital"}}, {"type": "node", "id": 3733265504, "lat": 22.7007191, "lon": 90.3698466, "tags": {"amenity": "hospital", "level": "1;2;3", "name": "\u0985\u09cd\u09af\u09be\u09aa\u09cb\u09b2\u09cb \u09b9\u09be\u09b8\u09aa\u09be\u09a4\u09be\u09b2 \u0993 \u09a1\u09be\u09af\u09bc\u09be\u0997\u09a8\u09b8\u09cd\u099f\u09bf\u0995 \u09b8\u09c7\u09a8\u09cd\u099f\u09be\u09b0", "name:en": "Apollo Hospital and Diagnostic Center"}}, {"type": "node", "id": 3733265506, "lat": 22.7033784, "lon": 90.372358, "tags": {"amenity": "hospital", "name": "\u09ae\u09c7\u09a1\u09bf\u09a8\u09cb\u09ad\u09be", "name:en": "Medinova"}}, {"type": "node", "id": 3734101503, "lat": 23.7896438, "lon": 90.4078632, "tags": {"amenity": "hospital"}}, {"type": "node", "id": 3734280310, "lat": 23.7477633, "lon": 90.4091274, "tags": {"amenity": "hospital", "healthcare": "hospital", "name": "University Dental College and Hospital"}}, {"type": "node", "id": 3734289774, "lat": 23.737429, "lon": 90.4285859, "tags": {"amenity": "hospital"}}, {"type": "node", "id": 3734803537, "lat": 23.8075588, "lon": 90.3696927, "tags": {"amenity": "hospital", "name": "radda"}}, {"type": "node", "id": 3734916815, "lat": 23.8681438, "lon": 90.3935897, "tags": {"amenity": "hospital", "name": "DISPENSARY"}}, {"type": "node", "id": 3734921272, "lat": 23.8682156, "lon": 90.3940639, "tags": {"amenity": "hospital"}}, {"type": "node", "id": 3741032771, "lat": 23.711037, "lon": 90.4242969, "tags": {"amenity": "hospital", "name": "Bangladesh Humiopathik Porishod, Dhaka Jila"}}, {"type": "node", "id": 3744956568, "lat": 23.7035507, "lon": 90.4247766, "tags": {"addr:city": "Dhaka", "addr:housenumber": "74/1", "addr:street": "Dinanath Sen Road", "amenity": "hospital", "emergency": "yes", "name": "Aroggo niketon homio center", "note": "Dr. Shahida Islam Asha (DHMS) Time : 4pm to 9 am"}}, {"type": "node", "id": 3744967700, "lat": 23.7024645, "lon": 90.4194307, "tags": {"addr:city": "Dhaka", "addr:housenumber": "92", "addr:postcode": "1204", "addr:street": "Keshab Benarjee Road", "amenity": "hospital", "name": "Delta Dygonestic & Health Service"}}, {"type": "node", "id": 3777970746, "lat": 27.4882355, "lon": 95.3614383, "tags": {"addr:city": "Tinsukia", "addr:postcode": "786125", "addr:street": "A.T. Road", "amenity": "hospital", "healthcare": "hospital", "name": "Mittal Pharmacy"}}, {"type": "node", "id": 3780974361, "lat": 27.4860869, "lon": 95.3797308, "tags": {"amenity": "hospital", "emergency": "yes", "name": "Agarwal Hospital and Research Centre"}}, {"type": "node", "id": 3781657800, "lat": 23.8191076, "lon": 90.3805302, "tags": {"addr:city": "Bauniabadh, Pallabi, Mirpur-11, Dhaka", "addr:housenumber": "E-block", "amenity": "hospital", "licensed": "Government", "name": "Government Outdoor Dispensary (GOD)", "note": "Muslim Aid Road", "opening_hours": "Sa-Th 9:00-14:00; Fr off"}}, {"type": "node", "id": 3788786313, "lat": 23.7740437, "lon": 90.4052251, "tags": {"amenity": "hospital", "name": "Songkramok Badhi Hospital"}}, {"type": "node", "id": 3795800904, "lat": 22.3184273, "lon": 91.8521737, "tags": {"amenity": "hospital", "name": "Sah Somie nagoi community clinic"}}, {"type": "node", "id": 3797620952, "lat": 23.7375744, "lon": 90.4098236, "tags": {"amenity": "hospital", "healthcare": "hospital", "name": "\u0987\u09b8\u09b2\u09be\u09ae\u09c0 \u09ac\u09cd\u09af\u09be\u0982\u0995 \u0995\u09c7\u09a8\u09cd\u09a6\u09cd\u09b0\u09c0\u09df \u09b9\u09be\u09b8\u09aa\u09be\u09a4\u09be\u09b2", "name:bn": "\u0987\u09b8\u09b2\u09be\u09ae\u09c0 \u09ac\u09cd\u09af\u09be\u0982\u0995 \u0995\u09c7\u09a8\u09cd\u09a6\u09cd\u09b0\u09c0\u09df \u09b9\u09be\u09b8\u09aa\u09be\u09a4\u09be\u09b2", "name:en": "Islami Bank Central Hospital"}}, {"type": "node", "id": 3797662116, "lat": 23.7317089, "lon": 90.4061085, "tags": {"amenity": "hospital", "healthcare": "hospital", "name": "\u09ac\u09be\u09b0\u09a1\u09c7\u09ae \u099c\u09c7\u09a8\u09be\u09b0\u09c7\u09b2 \u09b9\u09be\u09b8\u09aa\u09be\u09a4\u09be\u09b2 \u09e8", "name:en": "BIRDEM General Hospital 2"}}, {"type": "node", "id": 3810938213, "lat": 23.8151865, "lon": 90.371355, "tags": {"addr:city": "Mirpur 11, Dhaka", "addr:housenumber": "Hosue 2, Block C", "addr:postcode": "1216", "addr:street": "Line 12, Road 10, Tara Medical Road", "amenity": "hospital", "contact:phone": "+8801924521356", "healthcare": "hospital", "level": "1", "name": "\u09a4\u09be\u09b0\u09be \u09ae\u09c7\u09a1\u09bf\u0995\u09c7\u09b2 \u09b8\u09c7\u09a8\u09cd\u099f\u09be\u09b0", "name:bn": "\u09a4\u09be\u09b0\u09be \u09ae\u09c7\u09a1\u09bf\u0995\u09c7\u09b2 \u09b8\u09c7\u09a8\u09cd\u099f\u09be\u09b0", "name:en": "Tara Medical Centre", "opening_hours": "Sa-Fr 09:00-24:00"}}, {"type": "node", "id": 3872451348, "lat": 21.4239318, "lon": 92.0154214, "tags": {"amenity": "hospital", "name": "Cox's Bazar Medical College Hospital"}}, {"type": "node", "id": 3877633938, "lat": 22.6885158, "lon": 90.3703661, "tags": {"amenity": "hospital", "name": "\u0987\u09b8\u09b2\u09be\u09ae\u09bf\u09df\u09be \u09b9\u09be\u09b8\u09aa\u09be\u09a4\u09be\u09b2", "name:en": "Islamia Hospital"}}, {"type": "node", "id": 3889036052, "lat": 23.4789692, "lon": 91.0731361, "tags": {"amenity": "hospital", "name": "Eastern Medical College & Hospital"}}, {"type": "node", "id": 3907452449, "lat": 28.4765716, "lon": 98.9166741, "tags": {"amenity": "hospital", "healthcare": "hospital", "name": "\u5fb7\u6b3d\u53bf\u4eba\u6c11\u533b\u9662", "name:en": "DeQin County People\u2019s Hospital"}}, {"type": "node", "id": 3907717965, "lat": 23.8668616, "lon": 90.3955096, "tags": {"addr:city": "Uttara Dhaka", "addr:postcode": "1230", "addr:street": "Road 13", "amenity": "hospital", "name": "Uttara Cresent Hospital"}}, {"type": "node", "id": 3910130891, "lat": 27.8064486, "lon": 99.7065242, "tags": {"amenity": "hospital"}}, {"type": "node", "id": 3914776960, "lat": 24.83185, "lon": 92.800264, "tags": {"addr:district": "Cachar", "addr:full": "Vijayshree Complex, Trunk Road", "addr:postcode": "788001", "addr:state": "Assam", "amenity": "hospital", "name": "Mawsumi Hospital", "source": "OpenGovernmentData"}}, {"type": "node", "id": 3921072129, "lat": 24.783285, "lon": 92.795832, "tags": {"amenity": "hospital", "name": "Valley Hospital"}}, {"type": "node", "id": 3921072130, "lat": 24.7856047, "lon": 92.7955799, "tags": {"addr:district": "Cachar", "addr:full": "Meherpur, Near Polytechnic", "addr:postcode": "788015", "addr:state": "Assam", "amenity": "hospital", "name": "South City Hospital, Cachar", "source": "OpenGovernmentData"}}, {"type": "node", "id": 3921072158, "lat": 24.793674, "lon": 92.7928722, "tags": {"amenity": "hospital", "name": "Nightingale Hospital"}}, {"type": "node", "id": 3921072159, "lat": 24.7921663, "lon": 92.7912446, "tags": {"amenity": "hospital", "name": "Medinova"}}, {"type": "node", "id": 3923731153, "lat": 23.5543665, "lon": 90.5309553, "tags": {"amenity": "hospital", "name": "Munshigonj General Hospital", "operator": "Government"}}, {"type": "node", "id": 3924039899, "lat": 23.5504163, "lon": 90.3898363, "tags": {"amenity": "hospital", "name": "Popular General Hospital"}}, {"type": "node", "id": 4071205415, "lat": 29.069592, "lon": 92.196119, "tags": {"amenity": "hospital", "gns:dsg": "HSP: hospital", "name": "\u66f2\u677e\u53bf\u4eba\u6c11\u533b\u9662", "name:en": "Qusong Xian Renmin Yiyuan", "name:zh": "\u66f2\u677e\u53bf\u4eba\u6c11\u533b\u9662", "source:name": "GNS"}}, {"type": "node", "id": 4075462976, "lat": 29.1979369, "lon": 91.7585449, "tags": {"amenity": "hospital", "gns:dsg": "HSP: hospital", "name": "\u519b\u5206\u533a\u533b\u9662", "name:en": "Junfenqu Yiyuan", "name:zh": "\u519b\u5206\u533a\u533b\u9662", "source:name": "GNS"}}, {"type": "node", "id": 4077023712, "lat": 29.837738, "lon": 95.781109, "tags": {"amenity": "hospital", "gns:dsg": "HSP: hospital", "name": "\u56db\u533b\u9662", "name:en": "Hospital No.4", "name:zh": "\u56db\u533b\u9662", "source:name": "GNS"}}, {"type": "node", "id": 4077212339, "lat": 23.7514278, "lon": 90.4047963, "tags": {"amenity": "hospital", "name": "Nagor Health Care 2"}}, {"type": "node", "id": 4077212341, "lat": 23.7512263, "lon": 90.4048592, "tags": {"amenity": "hospital", "name": "Nari Maitree"}}, {"type": "node", "id": 4092034085, "lat": 23.7062422, "lon": 90.3472974, "tags": {"amenity": "hospital", "name": "Malancha Govt. Hospital"}}, {"type": "node", "id": 4101022014, "lat": 26.5068894, "lon": 94.4130927, "tags": {"amenity": "hospital", "emergency": "no", "name": "Govt Dispensary"}}, {"type": "node", "id": 4131993689, "lat": 21.854603, "lon": 96.0703869, "tags": {"amenity": "hospital", "name": "Myitnge Railway Hospital"}}, {"type": "node", "id": 4173049697, "lat": 22.5642853, "lon": 95.7005979, "tags": {"amenity": "hospital", "name": "Shwe Bo General Hospital "}}, {"type": "node", "id": 4198509355, "lat": 21.2006958, "lon": 94.9075979, "tags": {"amenity": "hospital", "name": "Hospital", "opening_hours": "Mo-Su 08:00-12:00,16:00-20:00"}}, {"type": "node", "id": 4206412116, "lat": 23.8066592, "lon": 90.3673791, "tags": {"amenity": "hospital", "name": "Medinova Hospital"}}, {"type": "node", "id": 4208397392, "lat": 20.8766675, "lon": 95.8447695, "tags": {"amenity": "hospital", "name": "Meiktila Hospital", "name:en": "Meiktila Hospital", "name:my": "\u1019\u102d\u1010\u1039\u1011\u102e\u101c\u102c\u1006\u1031\u1038\u101b\u102f\u1036"}}, {"type": "node", "id": 4208400289, "lat": 20.8476127, "lon": 95.8694922, "tags": {"amenity": "hospital", "name": "Military Hospital"}}, {"type": "node", "id": 4211630491, "lat": 23.8403623, "lon": 97.6959898, "tags": {"amenity": "hospital", "healthcare": "hospital", "name": "\u1081\u1030\u1004\u103a\u1038\u101a\u1083 \u1075\u1030\u108a\u101c\u103d\u1004\u103a\u1088\u101c\u103d\u1004\u103a\u1088", "name:en": "Namkham hospital"}}, {"type": "node", "id": 4234980192, "lat": 22.0307198, "lon": 96.4673419, "tags": {"amenity": "hospital", "healthcare": "hospital", "name": "\u1021\u102c\u1031\u101b\u102c\u1002\u103a\u1036", "name:en": "Ayaw Gyan Hospital", "name:my": "\u1021\u102c\u1031\u101b\u102c\u1002\u103a\u1036"}}, {"type": "node", "id": 4234990889, "lat": 21.9756888, "lon": 96.1102169, "tags": {"addr:street": "30th Street", "amenity": "hospital", "name": "\u1021\u1004\u1039\u107e\u1000\u1004\u1039\u1038\u103b\u1016\u1034 inginphyu"}}, {"type": "node", "id": 4234990990, "lat": 22.0501144, "lon": 96.4718257, "tags": {"amenity": "hospital", "name": "V I P room"}}, {"type": "node", "id": 4245950810, "lat": 24.2586665, "lon": 97.2255725, "tags": {"amenity": "hospital", "name": "\u1005\u102d\u1014\u103a\u101e\u1005\u1039\u1005\u102c \u1006\u1031\u1038\u101b\u102f\u1036", "name:en": "Sein Thit Sar clinic", "operator": "Private"}}, {"type": "node", "id": 4254309800, "lat": 25.3953959, "lon": 97.3951183, "tags": {"addr:city": "Myitkyina", "addr:street": "Sumprabum road", "amenity": "hospital", "emergency": "yes", "healthcare": "hospital", "healthcare:speciality": "general", "name": "\u1019\u103c\u1005\u103a\u1000\u103c\u102e\u1038\u1014\u102c\u1038\u1021\u1011\u103d\u1031\u1011\u103d\u1031\u101b\u1031\u102c\u1002\u102b\u1000\u102f\u1006\u1031\u1038\u101b\u102f\u1036\u1000\u103c\u102e\u1038", "name:en": "Myitkyina General Hospital", "opening_hours": "24/7", "operator": "\u1000\u103b\u1014\u103a\u1038\u1019\u102c\u101b\u1031\u1038\u101d\u1014\u103a\u1000\u103c\u102e\u1038\u100c\u102c\u1014"}}, {"type": "node", "id": 4272636395, "lat": 22.0057188, "lon": 96.0841351, "tags": {"amenity": "hospital", "name": "chinese buddhist"}}, {"type": "node", "id": 4281681589, "lat": 21.9760009, "lon": 96.0999416, "tags": {"addr:city": "Mandalay", "addr:street": "30th Street", "amenity": "hospital", "name": "Myat Thu Kha Hospital", "name:en": "Myat Thu Kha hospital"}}, {"type": "node", "id": 4281685789, "lat": 21.9756532, "lon": 96.1102389, "tags": {"addr:street": "30th Street", "amenity": "hospital", "name": "InGinPhyu hospital /clinic"}}, {"type": "node", "id": 4283485709, "lat": 21.9772223, "lon": 96.0907975, "tags": {"amenity": "hospital", "healthcare": "hospital", "name": "Cardiac Surgery"}}, {"type": "node", "id": 4283598697, "lat": 21.9806791, "lon": 96.0844119, "tags": {"addr:street": "80th Street", "amenity": "hospital", "name": "Aye Chan Tar hospital"}}, {"type": "node", "id": 4283878891, "lat": 21.9245332, "lon": 96.0847246, "tags": {"addr:street": "Kyawe Sak Kan 8 Road", "amenity": "hospital", "name": "Mya Nanda hospital", "name:en": "Mya Nanda Hospital"}}, {"type": "node", "id": 4285863238, "lat": 20.0704455, "lon": 94.471872, "tags": {"amenity": "hospital", "name": "\u1004\u1016\u1032\u1019\u103c\u102d\u102f\u1037\u1014\u101a\u103a\u1015\u103c\u100a\u103a\u101e\u1030\u1037\u1006\u1031\u1038\u101b\u102f\u1036 , Ngape Tsp General Hospital", "name:en": "Ngape Tsp General Hospital", "name:my": "\u1004\u1016\u1032\u1019\u103c\u102d\u102f\u1037\u1014\u101a\u103a\u1015\u103c\u100a\u103a\u101e\u1030\u1037\u1006\u1031\u1038\u101b\u102f\u1036"}}, {"type": "node", "id": 4287068315, "lat": 21.3349649, "lon": 95.0894077, "tags": {"amenity": "hospital", "name": "Pakokku General Hospital (Part-2)"}}, {"type": "node", "id": 4287447367, "lat": 21.3361862, "lon": 95.0953669, "tags": {"addr:street": "Myoma Road", "amenity": "hospital", "name": "Chan Myae Private Hospital"}}, {"type": "node", "id": 4299436390, "lat": 21.356875, "lon": 96.1539521, "tags": {"amenity": "hospital", "name": "Kume hospital"}}, {"type": "node", "id": 4310465589, "lat": 21.9706373, "lon": 96.0861759, "tags": {"addr:street": "34th Street", "amenity": "hospital", "name": "\u1000\u1036\u1037\u1000\u1031\u102c\u103a\u1006\u1031\u1038\u101b\u102f\u1036", "name:en": "Kant Kaw Hospital", "name:my": "\u1000\u1036\u1037\u1000\u1031\u102c\u103a\u1006\u1031\u1038\u101b\u102f\u1036"}}, {"type": "node", "id": 4310966038, "lat": 20.6317761, "lon": 92.320855, "tags": {"amenity": "hospital"}}, {"type": "node", "id": 4312085290, "lat": 24.2533132, "lon": 97.2766736, "tags": {"amenity": "hospital", "name": "\u1019\u1006\u101b \u1041\u1041", "opening_hours": "24/7", "operator": "Military"}}, {"type": "node", "id": 4312345867, "lat": 23.1080433, "lon": 90.8607436, "tags": {"addr:city": "Ramgonj", "addr:postcode": "3720", "addr:street": "Sonapur-Mudaffor Guang Road (Citosi Road)", "amenity": "hospital"}}, {"type": "node", "id": 4314560289, "lat": 22.9193787, "lon": 96.0850132, "tags": {"amenity": "hospital", "name": "20th MH 100bedded"}}, {"type": "node", "id": 4315672008, "lat": 22.87208, "lon": 91.0899083, "tags": {"amenity": "hospital", "name": "Good Heal"}}, {"type": "node", "id": 4316679406, "lat": 23.1030897, "lon": 90.8601959, "tags": {"addr:city": "Ramgonj", "addr:postcode": "3720", "addr:street": "Ramgonj to Hajigonj Road", "amenity": "hospital", "emergency": "yes", "name": "Ramgonj Adunik Hospital", "operator": "Abdul Quder", "phone": "+8801785840650"}}, {"type": "node", "id": 4320316218, "lat": 21.8710945, "lon": 96.1768689, "tags": {"amenity": "hospital", "name": "Psychiatric Hospital Municipal"}}, {"type": "node", "id": 4322832184, "lat": 23.8182452, "lon": 90.3660545, "tags": {"addr:city": "Dhaka", "addr:housenumber": "\u09aa\u09cd\u09b2\u099f \u09e7", "addr:suburb": "Mirpur-11", "amenity": "hospital", "healthcare": "hospital", "identifier": "495", "name": "Akumunnessa Eye Clinic(\u0986\u0995\u09c1\u09ae\u09c1\u09a8\u09cd\u09a8\u09c7\u09b8\u09be \u0986\u0987 \u0995\u09cd\u09b2\u09bf\u09a8\u09bf\u0995)"}}, {"type": "node", "id": 4322832764, "lat": 23.8195104, "lon": 90.3654856, "tags": {"addr:city": "Dhaka", "addr:housename": "\u0987\u09b8\u09b2\u09be\u09ae\u09c0 \u09ac\u09cd\u09af\u09be\u0982\u0995 \u09ac\u09bf\u09b2\u09cd\u09a1\u09bf\u0982", "addr:street": "\u09e9", "addr:suburb": "Mirpur-11", "amenity": "hospital", "identifier": "507", "name": "\u0987\u09b8\u09b2\u09be\u09ae\u09c0 \u09ac\u09cd\u09af\u09be\u0982\u0995 \u09b9\u09be\u09b8\u09aa\u09be\u09a4\u09be\u09b2", "name:en": "Islami Bank Hospital"}}, {"type": "node", "id": 4322833430, "lat": 23.8177023, "lon": 90.3663789, "tags": {"addr:city": "Dhaka", "addr:housename": "\u09e9", "addr:street": "\u09ec", "addr:suburb": "Mirpur-11", "amenity": "hospital", "identifier": "467", "name": "\u09ab\u09bf\u099c\u09bf\u0993\u09a5\u09c7\u09b0\u09be\u09aa\u09bf \u09b8\u09c7\u09a8\u09cd\u099f\u09be\u09b0", "name:bn": "\u09ab\u09bf\u099c\u09bf\u0993\u09a5\u09c7\u09b0\u09be\u09aa\u09bf \u09b8\u09c7\u09a8\u09cd\u099f\u09be\u09b0", "name:en": "Physiotherapy Centre"}}, {"type": "node", "id": 4322833433, "lat": 23.8212392, "lon": 90.3730252, "tags": {"addr:city": "Dhaka", "addr:housenumber": "\u09e7\u09e7", "addr:street": "\u09e7", "addr:suburb": "Mirpur-11", "amenity": "hospital", "identifier": "436", "name": "shishu Hospital(\u09b6\u09bf\u09b6\u09c1 \u09b9\u09be\u09b8\u09aa\u09be\u09a4\u09be\u09b2)"}}, {"type": "node", "id": 4324741686, "lat": 21.9356904, "lon": 96.0723517, "tags": {"amenity": "hospital", "name": "Myat Thu Ka (hospital)"}}, {"type": "node", "id": 4330878513, "lat": 21.3867296, "lon": 94.8256286, "tags": {"addr:city": "Kamma", "addr:street": "Pakokku - Pauk road", "amenity": "hospital", "emergency": "yes", "healthcare:speciality": "general", "name": "Kamma Station Hospital", "name:en": "Kamma Station Hospital", "name:my": "\u1000\u1019\u1039\u1019\u1010\u102d\u102f\u1000\u103a\u1014\u101a\u103a\u1006\u1031\u1038\u101b\u102f\u1036"}}, {"type": "node", "id": 4331663674, "lat": 23.8173443, "lon": 90.3732098, "tags": {"addr:city": "Dhaka", "addr:housenumber": "\u09e7\u09e6", "addr:street": "\u09e8", "addr:suburb": "Mirpur-11", "amenity": "hospital", "identifier": "622", "name": "BRAC Metarnity Centre(\u09ac\u09cd\u09b0\u09be\u0995 \u09ae\u09c7\u099f\u09be\u09b0\u09a8\u09bf\u099f\u09bf \u09b8\u09c7\u09a8\u09cd\u099f\u09be\u09b0)"}}, {"type": "node", "id": 4331663684, "lat": 23.8155046, "lon": 90.3740054, "tags": {"addr:city": "Dhaka", "addr:housenumber": "\u09e9", "addr:suburb": "Mirpur-11", "amenity": "hospital", "identifier": "630", "name": "Dr. Priyanka Aziz Chamber(\u09a1\u09be\u0983 \u09aa\u09cd\u09b0\u09bf\u09df\u09be\u0982\u0995\u09be \u0986\u099c\u09bf\u099c \u099a\u09c7\u09ae\u09cd\u09ac\u09be\u09b0)"}}, {"type": "node", "id": 4338152303, "lat": 21.9361218, "lon": 96.0591804, "tags": {"addr:city": "Mandalay", "addr:street": "Kan Daw Gyi Pak Road", "amenity": "hospital", "emergency": "yes", "healthcare:speciality": "general", "name": "Jivitadana Sangha Hospital", "name:en": "Jivitadana Sangha Hospital", "name:my": "\u1007\u102e\u101d\u102d\u1010\u1012\u102b\u1014 \u101e\u1036\u1003\u102c\u1037\u1006\u1031\u1038\u101b\u102f\u1036", "wheelchair": "yes"}}, {"type": "node", "id": 4348318005, "lat": 22.8718282, "lon": 91.09171, "tags": {"amenity": "hospital", "name": "Prime Hospital"}}, {"type": "node", "id": 4357401918, "lat": 23.7552277, "lon": 90.3800946, "tags": {"amenity": "hospital"}}, {"type": "node", "id": 4361198391, "lat": 24.2575086, "lon": 97.2291175, "tags": {"amenity": "hospital", "name": "\u1005\u103d\u1019\u103a\u1038\u1019\u1031\u1010\u1039\u1010\u102c \u1006\u1031\u1038\u101b\u102f\u1036", "name:en": "Swan Myittar Hospital", "operator": "Private"}}, {"type": "node", "id": 4361210889, "lat": 24.2629089, "lon": 97.2308974, "tags": {"addr:city": "Bhamo", "addr:street": "Hospital Road", "amenity": "hospital", "name": "\u200b\u1017\u1014\u103a\u1038\u1019\u1031\u102c\u103a \u1015\u103c\u100a\u103a\u101e\u1030\u1037\u1006\u1031\u1038\u101b\u102f\u1036\u1000\u103c\u102e\u1038", "name:en": "Bhamo General Hospital", "operator": "Government"}}, {"type": "node", "id": 4361747694, "lat": 23.7394982, "lon": 90.3814159, "tags": {"addr:city": "dhaka city", "addr:housenumber": "14/a", "addr:postcode": "1205", "addr:street": "Dhanmondi Road 2", "amenity": "hospital", "healthcare": "physiotherapist", "label": "48/\u04122", "name": "Modern Physiotherapy"}}, {"type": "node", "id": 4361780506, "lat": 23.7387316, "lon": 90.3802694, "tags": {"addr:city": "dhaka city", "addr:housenumber": "22/B", "addr:postcode": "1205", "addr:street": "Dhanmondi Road 2", "amenity": "hospital", "label": "3", "name": "OHCL"}}, {"type": "node", "id": 4364314508, "lat": 23.7418657, "lon": 90.3906439, "tags": {"addr:housenumber": "142", "addr:postcode": "1000", "addr:street": "Circular Road", "amenity": "hospital", "name": "Rokeya Dental Care"}}, {"type": "node", "id": 4365087444, "lat": 23.7425942, "lon": 90.9927378, "tags": {"amenity": "hospital", "name": "pharmacy"}}, {"type": "node", "id": 4365113104, "lat": 23.7441573, "lon": 91.0027708, "tags": {"amenity": "hospital", "name": "DOYAMOY PHARMACY"}}, {"type": "node", "id": 4365113694, "lat": 23.7440833, "lon": 91.0029587, "tags": {"amenity": "hospital", "name": "SRI KISNA PHARMACY"}}, {"type": "node", "id": 4372209895, "lat": 22.3582562, "lon": 91.8249135, "tags": {"amenity": "hospital", "name:en": "Evergreen Health Center"}}, {"type": "node", "id": 4376848792, "lat": 21.0985812, "lon": 95.6451536, "tags": {"addr:city": "Mahlaing", "amenity": "hospital", "healthcare:speciality": "general", "name": "Mahlaing Hospital", "operator:type": "government"}}, {"type": "node", "id": 4377010747, "lat": 26.8002591, "lon": 91.5086783, "tags": {"addr:city": "Town-Samdrupjongkhar Thromde", "addr:housenumber": "3A", "addr:postcode": "41001", "addr:street": "Phendey - Lam", "amenity": "hospital", "building": "hospital", "contact:email": "keza555@hotmail.com", "contact:phone": "+97577232566", "emergency": "yes", "healthcare": "hospital", "name": "Samdrup Jongkhar Hospital", "operator": "Dr. Kezang Dorji", "operator:type": "government"}}, {"type": "node", "id": 4381071794, "lat": 23.7481925, "lon": 90.412401, "tags": {"addr:housenumber": "11", "addr:postcode": "1217", "addr:street": "\u09a1\u09bf\u0986\u0987\u099f\u09bf \u09b8\u09dc\u0995", "amenity": "hospital", "name:en": "Saphena General Hospital", "opening_hours": "24/7", "phone": "+8801711560347"}}, {"type": "node", "id": 4381094290, "lat": 23.7481026, "lon": 90.4123971, "tags": {"addr:housenumber": "11", "addr:postcode": "1217", "addr:street": "\u09a1\u09bf\u0986\u0987\u099f\u09bf \u09b8\u09dc\u0995", "amenity": "hospital", "name:en": "Saphena Womans Dental College & Hospital"}}, {"type": "node", "id": 4381975631, "lat": 23.743883, "lon": 90.4160348, "tags": {"addr:city": "Dhaka", "addr:housenumber": "6", "addr:postcode": "1217", "addr:street": "Shantibagh Rd", "amenity": "hospital", "name": "Family Dentist"}}, {"type": "node", "id": 4385215793, "lat": 21.9778843, "lon": 96.0986405, "tags": {"addr:street": "71st Street", "amenity": "hospital", "name": "\u1014\u1014\u103a\u1038\u1010\u1031\u102c\u103a \u1006\u1031\u1038\u101b\u102f\u1036", "name:en": "Palace Hospital"}}, {"type": "node", "id": 4386859897, "lat": 21.9703911, "lon": 96.0950981, "tags": {"addr:street": "73rd St @ Mingala St", "amenity": "hospital", "name": "\u1081\u1030\u1004\u103a\u1038\u101a\u1083 \u101a\u1083\u1087\u1078\u1083\u1087", "name:en": "Yarzar Hospital"}}, {"type": "node", "id": 4387037399, "lat": 21.9779862, "lon": 96.0987897, "tags": {"addr:city": "Mandalay", "addr:street": "71st St", "amenity": "hospital", "emergency": "yes", "healthcare": "hospital", "name": "\u1014\u1014\u103a\u1038\u1010\u1031\u102c\u103a\u1006\u1031\u1038\u101b\u102f\u1036", "name:en": "Palace Hospital", "name:my": "\u1014\u1014\u103a\u1038\u1010\u1031\u102c\u103a\u1006\u1031\u1038\u101b\u102f\u1036", "opening_hours": "24/7", "operator": "\u1014\u1014\u103a\u1038\u1010\u1031\u102c\u103a\u1006\u1031\u1038\u101b\u102f\u1036", "operator:type": "private"}}, {"type": "node", "id": 4387192694, "lat": 21.9741638, "lon": 96.1007589, "tags": {"addr:city": "Mandalay", "addr:street": "31st Street", "amenity": "hospital", "emergency": "yes", "healthcare": "hospital", "level": "6", "name": "\u1010\u1031\u102c\u103a\u101d\u1004\u103a\u1006\u1031\u1038\u101b\u102f\u1036", "name:en": "Royal Hospital", "name:my": "\u1010\u1031\u102c\u103a\u101d\u1004\u103a\u1006\u1031\u1038\u101b\u102f\u1036", "opening_hours": "24/7", "operator": "\u1010\u1031\u102c\u103a\u101d\u1004\u103a\u1006\u1031\u1038\u101b\u102f\u1036", "operator:type": "private"}}, {"type": "node", "id": 4388781962, "lat": 23.7179419, "lon": 90.4159896, "tags": {"amenity": "hospital", "emergency": "yes", "name": "Nibedita General Hospital"}}, {"type": "node", "id": 4388841143, "lat": 23.7160002, "lon": 90.4163756, "tags": {"amenity": "hospital", "name": "\u09ac\u09be\u09b0\u09cd\u09a1\u09c7\u09ae \u09b9\u09be\u09b8\u09aa\u09be\u09a4\u09be\u09b2", "name:bn": "\u09ac\u09be\u09b0\u09cd\u09a1\u09c7\u09ae \u09b9\u09be\u09b8\u09aa\u09be\u09a4\u09be\u09b2", "name:en": "Bardem Hospital"}}, {"type": "node", "id": 4388870973, "lat": 23.7194239, "lon": 90.4165136, "tags": {"amenity": "hospital", "name": "Health Care"}}, {"type": "node", "id": 4389406404, "lat": 23.7396681, "lon": 90.4205869, "tags": {"addr:street": "\u0986\u0989\u099f\u09be\u09b0 \u09b8\u09be\u09b0\u09cd\u0995\u09c1\u09b2\u09be\u09b0 \u09b0\u09cb\u09a1", "amenity": "hospital", "name": "\u0987\u09b8\u09b2\u09be\u09ae\u09bf \u09ac\u09cd\u09af\u09be\u0982\u0995 \u09b9\u09be\u09b8\u09aa\u09be\u09a4\u09be\u09b2 \u09ad\u09ac\u09a8 \u09eb", "name:bn": "\u0987\u09b8\u09b2\u09be\u09ae\u09bf \u09ac\u09cd\u09af\u09be\u0982\u0995 \u09b9\u09be\u09b8\u09aa\u09be\u09a4\u09be\u09b2 \u09ad\u09ac\u09a8 \u09eb", "name:en": "Islami Bank Hospital Buding 5"}}, {"type": "node", "id": 4389421503, "lat": 23.7380452, "lon": 90.4222603, "tags": {"addr:street": "\u0986\u0989\u099f\u09be\u09b0 \u09b8\u09be\u09b0\u09cd\u0995\u09c1\u09b2\u09be\u09b0 \u09b0\u09cb\u09a1", "amenity": "hospital", "name": "\u09aa\u09cd\u09af\u09be\u09a8 \u09aa\u09cd\u09af\u09be\u09b8\u09bf\u09ab\u09bf\u0995 \u09b9\u09be\u09b8\u09aa\u09be\u09a4\u09be\u09b2", "name:bn": "\u09aa\u09cd\u09af\u09be\u09a8 \u09aa\u09cd\u09af\u09be\u09b8\u09bf\u09ab\u09bf\u0995 \u09b9\u09be\u09b8\u09aa\u09be\u09a4\u09be\u09b2", "name:en": "Pan pacific Hospital"}}, {"type": "node", "id": 4393150182, "lat": 21.9221374, "lon": 96.1121854, "tags": {"amenity": "hospital", "name": "Regional Hospital", "name:my": "\u1012\u1031\u101e\u1014\u1039\u1010\u101b\u1000\u103b\u1014\u103a\u1038\u1019\u102c\u101b\u1031\u1038\u100c\u102c\u1014"}}, {"type": "node", "id": 4394408492, "lat": 27.3637061, "lon": 91.6762694, "tags": {"addr:housenumber": "13", "addr:postcode": "975", "addr:street": "Rangjung", "amenity": "hospital"}}, {"type": "node", "id": 4399542995, "lat": 20.8912801, "lon": 94.8235392, "tags": {"addr:city": "Chauk", "amenity": "hospital", "emergency": "yes", "healthcare": "hospital", "name": "Chauk Township Hospital", "name:en": "Chauk Township Hospital", "name:my": "\u1001\u103b\u1031\u102c\u1000\u103a\u1019\u103c\u102d\u102f\u1037\u1014\u101a\u103a\u1015\u103c\u100a\u103a\u101e\u1030\u1037\u1006\u1031\u1038\u101b\u102f\u1036\u1000\u103c\u102e\u1038", "operator": "Ministry of Health and Sports", "operator:type": "government", "operator:wikidata": "Q28954031"}}, {"type": "node", "id": 4402133093, "lat": 22.0466149, "lon": 96.4711645, "tags": {"amenity": "hospital", "name:en": "militry O.P.T"}}, {"type": "node", "id": 4407994596, "lat": 23.823019, "lon": 90.3688928, "tags": {"addr:city": "Dhaka", "addr:housenumber": "\u09e7\u09eb\u09e7", "addr:street": "\u09ea", "addr:suburb": "Mirpur-12", "amenity": "hospital", "healthcare": "hospital", "identifier": "670", "name": "Dr Ainul Islam Khan Chamber(\u09a1 \u0986\u0987\u09a8\u09c1\u09b2 \u0987\u09b8\u09b2\u09be\u09ae \u099a\u09c7\u09ae\u09cd\u09ac\u09be\u09b0)"}}, {"type": "node", "id": 4407994598, "lat": 23.8228712, "lon": 90.3689304, "tags": {"addr:city": "Dhaka", "addr:housenumber": "\u09e7\u09eb\u09e7", "addr:street": "\u09ee", "addr:suburb": "Mirpur-12", "amenity": "hospital", "healthcare": "hospital", "identifier": "672", "name": "Dr Nighat Rahman Chamber(\u09a1 \u09a8\u09bf\u0998\u09be\u09a4 \u09b0\u09b9\u09ae\u09be\u09a8)"}}, {"type": "node", "id": 4407994599, "lat": 23.8230876, "lon": 90.368862, "tags": {"addr:city": "Dhaka", "addr:housenumber": "\u09e7\u09ec\u09e7", "addr:street": "\u09ef", "addr:suburb": "Mirpur-12", "amenity": "hospital", "healthcare": "hospital", "identifier": "669", "name": "Dr Sayeda Dil Afroz Chamber(\u09a1 \u09b8\u09be\u09df\u09c7\u09a6\u09be \u09a6\u09bf\u09b2 \u0986\u09ab\u09b0\u09cb\u099c)"}}, {"type": "node", "id": 4407994654, "lat": 23.8233796, "lon": 90.3690604, "tags": {"addr:city": "Dhaka", "addr:housenumber": "\u09e8\u09e6-\u09e8\u09e7", "addr:street": "\u09eb", "addr:suburb": "Mirpur-12", "amenity": "hospital", "healthcare": "hospital", "identifier": "666", "name": "Mirpur Adhunik Hospital(\u09ae\u09bf\u09b0\u09aa\u09c1\u09b0 \u0986\u09a7\u09c1\u09a8\u09bf\u0995 \u09b9\u09be\u09b8\u09aa\u09be\u09a4\u09be\u09b2)"}}, {"type": "node", "id": 4407994680, "lat": 23.8268842, "lon": 90.3662785, "tags": {"addr:city": "Dhaka", "addr:housenumber": "\u09e6\u09e7", "addr:street": "\u09e6\u09ec", "addr:suburb": "Mirpur-12", "amenity": "hospital", "healthcare": "hospital", "identifier": "675", "name": "Popular Medicine Corner (\u09aa\u09aa\u09c1\u09b2\u09be\u09b0 \u09ae\u09c7\u09a1\u09bf\u09b8\u09bf\u09a8 \u0995\u09b0\u09cd\u09a8\u09be\u09b0)"}}, {"type": "node", "id": 4407994683, "lat": 23.8265626, "lon": 90.3648013, "tags": {"addr:city": "Dhaka", "addr:housenumber": "71", "addr:street": "6", "addr:suburb": "Mirpur-12", "amenity": "hospital", "identifier": "676", "name": "Rabeya Maternity(\u09b0\u09be\u09ac\u09c7\u09df\u09be \u09ae\u09cd\u09af\u09be\u099f\u09be\u09b0\u09a8\u09bf\u099f\u09bf)"}}, {"type": "node", "id": 4407994807, "lat": 23.8228939, "lon": 90.368929, "tags": {"addr:city": "Dhaka", "addr:housenumber": "\u09e7\u09eb\u09e7", "addr:street": "\u09ee", "addr:suburb": "Mirpur-12", "amenity": "hospital", "healthcare": "hospital", "identifier": "671", "name": "Shishir Medical Hall(\u09b6\u09bf\u09b6\u09bf\u09b0 \u09ae\u09c7\u09a1\u09bf\u0995\u09cd\u09af\u09be\u09b2 \u09b9\u09b2)"}}, {"type": "node", "id": 4410495892, "lat": 23.77499, "lon": 90.3951924, "tags": {"addr:street": "Bir Uttam Ziaur Rahman Road", "amenity": "hospital", "name": "Ayesha Memorial Hospital", "name:en": "Ayesha Memorial Hospital"}}, {"type": "node", "id": 4430828491, "lat": 23.7474961, "lon": 90.4010657, "tags": {"addr:housenumber": "135", "addr:postcode": "1000", "addr:street": "New Easkaton Road", "amenity": "hospital", "healthcare": "hospital", "name:en": "S.P.R.C & Neurology Hospital", "opening_hours": "24/7", "phone": "+88029339089"}}, {"type": "node", "id": 4432181527, "lat": 23.8234676, "lon": 90.3640549, "tags": {"addr:city": "Dhaka", "addr:housenumber": "\u09ed", "addr:street": "\u09e8", "addr:suburb": "N/A", "amenity": "hospital", "identifier": "1035", "name": "Alok health Care(\u0986\u09b2\u09cb\u0995 \u09b9\u09c7\u09b2\u09a5 \u0995\u09c7\u09df\u09be\u09b0)"}}, {"type": "node", "id": 4432181532, "lat": 23.8264832, "lon": 90.3627322, "tags": {"addr:city": "Dhaka", "addr:housenumber": "\u09e7\u09ee", "addr:street": "\u09ea", "addr:suburb": "N/A", "amenity": "hospital", "identifier": "968", "name": "Anwara Nursing Home(\u0986\u09a8\u09cb\u09df\u09be\u09b0\u09be \u09a8\u09be\u09b0\u09cd\u09b8\u09bf\u0982 \u09b9\u09cb\u09ae)"}}, {"type": "node", "id": 4432181536, "lat": 23.8243032, "lon": 90.3635259, "tags": {"addr:city": "Dhaka", "addr:housenumber": "\u09e7\u09e8", "addr:street": "\u09e7", "addr:suburb": "N/A", "amenity": "hospital", "identifier": "1020", "name": "Asia Health Care and Diagonistic Centre(\u098f\u09b8\u09bf\u09df\u09be \u09b9\u09c7\u09b2\u09a5 \u0995\u09c7\u09df\u09be\u09b0 \u0985\u09cd\u09af\u09be\u09a8\u09cd\u09a1 \u09a1\u09be\u09df\u09be\u0997\u09a8\u09bf\u09b8\u09cd\u099f\u09bf\u0995 \u09b8\u09c7\u09a8\u09cd\u099f\u09be\u09b0)"}}, {"type": "node", "id": 4432181553, "lat": 23.8277311, "lon": 90.3700976, "tags": {"addr:city": "Dhaka", "addr:housenumber": "\u09ed", "addr:suburb": "N/A", "amenity": "hospital", "healthcare": "hospital", "identifier": "958", "name": "Brac Maternity Centre(\u09ac\u09cd\u09b0\u09cd\u09af\u09be\u0995 \u09ae\u09c7\u099f\u09be\u09b0\u09cd\u09a8\u09bf\u099f\u09bf \u09b8\u09c7\u09a8\u09cd\u099f\u09be\u09b0)"}}, {"type": "node", "id": 4432181559, "lat": 23.8231719, "lon": 90.3639934, "tags": {"addr:city": "Dhaka", "addr:housename": "\u09eb", "addr:street": "\u09e8", "addr:suburb": "N/A", "amenity": "hospital", "identifier": "1038", "name": "Chowdury Doctors Chamber(\u099a\u09cc\u09a7\u09c1\u09b0\u09c0 \u09a1\u0995\u09cd\u099f\u09b0\u09b8 \u099a\u09c7\u09ae\u09cd\u09ac\u09be\u09b0)"}}, {"type": "node", "id": 4432181714, "lat": 23.8278871, "lon": 90.3588367, "tags": {"addr:city": "Dhaka", "addr:housenumber": "\u09e7\u09e8", "addr:street": "\u09e8\u09ef", "addr:suburb": "N/A", "amenity": "hospital", "identifier": "967", "name": "Khandakar Chamber(\u0996\u09a8\u09cd\u09a6\u0995\u09be\u09b0 \u099a\u09c7\u09ae\u09cd\u09ac\u09be\u09b0)"}}, {"type": "node", "id": 4432181774, "lat": 23.8277468, "lon": 90.3638623, "tags": {"addr:city": "Dhaka", "addr:housenumber": "\u09e7\u09ea", "addr:street": "\u09e7", "addr:suburb": "N/A", "amenity": "hospital", "check_date": "2022-10-11", "emergency": "yes", "healthcare": "hospital", "healthcare:speciality": "general", "identifier": "1013", "name": "Regent Hospital Ltd(\u09b0\u09bf\u099c\u09c7\u09a8\u09cd\u099f \u09b9\u09b8\u09aa\u09bf\u099f\u09be\u09b2 \u09b2\u09bf\u09ae\u09bf\u099f\u09c7\u09a1)", "operator:type": "private", "source": "local knowledge", "wheelchair": "yes"}}, {"type": "node", "id": 4432181793, "lat": 23.8228059, "lon": 90.3576258, "tags": {"addr:city": "Dhaka", "addr:housenumber": "\u09e7\u09eb", "addr:suburb": "N/A", "amenity": "hospital", "identifier": "1031", "name": "Shishu Niramoy", "name:bn": "\u09b6\u09bf\u09b6\u09c1 \u09a8\u09bf\u09b0\u09be\u09ae\u09df"}}, {"type": "node", "id": 4474581844, "lat": 28.266996, "lon": 95.6136558, "tags": {"amenity": "hospital", "name": "Community Health Centre"}}, {"type": "node", "id": 4476451758, "lat": 20.2482232, "lon": 97.9033777, "tags": {"amenity": "hospital", "name": "\u1081\u1030\u1004\u103a\u1038\u101a\u1083"}}, {"type": "node", "id": 4483884014, "lat": 27.5942488, "lon": 93.8264146, "tags": {"addr:city": "Old Ziro", "addr:postcode": "791120", "amenity": "hospital", "name": "Community Health Center"}}, {"type": "node", "id": 4486444918, "lat": 23.7831714, "lon": 90.4257155, "tags": {"addr:city": "Dhaka", "addr:postcode": "1212", "addr:street": "Bir Uttam Rafiqul Islam Ave", "amenity": "hospital", "healthcare": "hospital", "name": "Ibn Sina Diagnostic & Consultation Center, Building-1", "name:bn": "\u0987\u09ac\u09a8\u09c7 \u09b8\u09bf\u09a8\u09be \u09a1\u09be\u09af\u09bc\u09be\u0997\u09a8\u09b8\u09cd\u099f\u09bf\u0995 \u0993 \u0995\u09a8\u09b8\u09be\u09b2\u099f\u09c7\u09b6\u09a8 \u09b8\u09c7\u09a8\u09cd\u099f\u09be\u09b0, \u09ad\u09ac\u09a8-\u09e7"}}, {"type": "node", "id": 4509927854, "lat": 23.7177407, "lon": 90.3770353, "tags": {"amenity": "hospital", "name": "\u0995\u09c1\u09dc\u09be\u09b0\u0998\u09be\u099f \u09e9\u09e8 \u09b6\u09af\u09cd\u09af\u09be \u09ac\u09bf\u09b6\u09bf\u09b7\u09cd\u099f \u09b9\u09be\u09b8\u09aa\u09be\u09a4\u09be\u09b2", "name:en": "Kamrangirchar Govt. Hospital", "operator": "Govt.", "source": "NextView"}}, {"type": "node", "id": 4515439399, "lat": 23.7723586, "lon": 90.368105, "tags": {"amenity": "hospital", "name:en": "National Institute of Mental Health and Hospital"}}, {"type": "node", "id": 4518419989, "lat": 23.745296, "lon": 90.3819718, "tags": {"addr:housenumber": "House no 17", "addr:postcode": "1205", "addr:street": "Dhanmondi Road no 5", "amenity": "hospital", "name:en": "Anwer Khan Modern Medical College", "phone": "+88028614927", "wikidata": "Q4778088", "wikimedia_commons": "Category:Anwer Khan Modern Medical College", "wikipedia": "en:Anwer Khan Modern Medical College"}}, {"type": "node", "id": 4519162093, "lat": 23.7619344, "lon": 90.3715863, "tags": {"amenity": "hospital", "name": "\u0995\u09c7\u09df\u09be\u09b0 \u09ae\u09c7\u09a1\u09bf\u0995\u09c7\u09b2 \u0995\u09b2\u09c7\u099c \u09b9\u09be\u09b8\u09aa\u09be\u09a4\u09be\u09b2", "name:bn": "\u0995\u09c7\u09df\u09be\u09b0 \u09ae\u09c7\u09a1\u09bf\u0995\u09c7\u09b2 \u0995\u09b2\u09c7\u099c \u09b9\u09be\u09b8\u09aa\u09be\u09a4\u09be\u09b2", "name:en": "Care Medical College Hospital"}}, {"type": "node", "id": 4523372994, "lat": 21.386006, "lon": 95.873318, "tags": {"amenity": "hospital", "name": "Pyinzi RHC"}}, {"type": "node", "id": 4524681189, "lat": 23.7625162, "lon": 90.3654004, "tags": {"amenity": "hospital", "name:en": "Mohammadpur Infertility Care & Research Centre (ICRC)"}}, {"type": "node", "id": 4527964655, "lat": 23.7078377, "lon": 90.4236155, "tags": {"addr:city": "Gandaria, Dhaka", "addr:housenumber": "111/1/A", "addr:postcode": "1204", "addr:street": "Distillery Road", "amenity": "hospital", "emergency": "yes", "healthcare": "hospital", "healthcare:speciality": "general", "name": "Asgar Ali Hospital", "operator": "01787-683333", "operator:type": "private", "website": "https://asgaralihospital.com/"}}, {"type": "node", "id": 4531545620, "lat": 23.756797, "lon": 90.3744592, "tags": {"amenity": "hospital", "name": "Mother Care Hospital"}}, {"type": "node", "id": 4532130990, "lat": 23.8276494, "lon": 90.3680317, "tags": {"addr:housenumber": "48", "addr:postcode": "1216", "addr:street": "Block-C,Line-12.", "amenity": "hospital", "healthcare": "hospital", "internet_access": "wlan", "name:en": "English", "phone": "+8801717168522"}}, {"type": "node", "id": 4533184589, "lat": 23.7461412, "lon": 90.3854888, "tags": {"addr:housenumber": "32", "addr:postcode": "1205", "addr:street": "Green Road", "amenity": "hospital", "internet_access": "wlan", "name": "Green Life College", "name:en": "Green Life Medical College Hospital", "opening_hours": "24/7", "phone": "+88029612345", "website": "https://www.greenlife.edu.bd/"}},