{"version": 0.6, "generator": "Overpass API 0.7.61.5 4133829e", "osm3s": {"timestamp_osm_base": "2023-10-31T20:54:41Z", "copyright": "The data included in this document is from www.openstreetmap.org. The data is made available under ODbL."}, "elements": [{"type": "node", "id": 292735459, "lat": 25.2780626, "lon": 82.954338, "tags": {"amenity": "hospital", "healthcare": "hospital"}}, {"type": "node", "id": 293208846, "lat": 25.2929029, "lon": 83.0055074, "tags": {"addr:city": "Varanasi", "amenity": "hospital", "healthcare": "hospital", "name": "Mata Anandmayee Hosiptal", "name:etymology:wikidata": "Q433594"}}, {"type": "node", "id": 293217529, "lat": 25.2986311, "lon": 83.0021003, "tags": {"amenity": "hospital", "healthcare": "hospital"}}, {"type": "node", "id": 293268558, "lat": 25.3162104, "lon": 83.0050584, "tags": {"amenity": "hospital"}}, {"type": "node", "id": 293440150, "lat": 25.3384937, "lon": 82.9959608, "tags": {"amenity": "hospital"}}, {"type": "node", "id": 294127865, "lat": 25.3460988, "lon": 83.0372616, "tags": {"amenity": "hospital", "healthcare": "hospital", "name": "Punjabi Hospital"}}, {"type": "node", "id": 661970037, "lat": 25.929208, "lon": 83.5665555, "tags": {"amenity": "hospital"}}, {"type": "node", "id": 702577422, "lat": 22.8173748, "lon": 89.5676428, "tags": {"amenity": "hospital", "name": "Khulna Sadar Hospital"}}, {"type": "node", "id": 943246318, "lat": 27.7179394, "lon": 85.3112441, "tags": {"amenity": "hospital", "name": "\u092e\u0928\u092e\u094b\u0939\u0928 \u092e\u0947\u092e\u094b\u0930\u093f\u092f\u0932 \u0905\u0938\u094d\u092a\u0924\u093e\u0932", "name:en": "Manmohan Memorial Hospital", "name:ne": "\u092e\u0928\u092e\u094b\u0939\u0928 \u092e\u0947\u092e\u094b\u0930\u093f\u092f\u0932 \u0905\u0938\u094d\u092a\u0924\u093e\u0932", "website": "http://www.mmchospital.org.np"}}, {"type": "node", "id": 1012264149, "lat": 26.465464, "lon": 80.305789, "tags": {"amenity": "hospital", "name": "Mariampur Hospital"}}, {"type": "node", "id": 1189036467, "lat": 22.5727398, "lon": 88.3600196, "tags": {"amenity": "hospital", "name": "Eden Hospital"}}, {"type": "node", "id": 1189036837, "lat": 22.5722242, "lon": 88.3614363, "tags": {"amenity": "hospital", "name": "Calcutta Medical College & Hospital", "wikidata": "Q3348933", "wikipedia": "en:Medical College and Hospital, Kolkata"}}, {"type": "node", "id": 1272967205, "lat": 22.4987178, "lon": 88.3163322, "tags": {"addr:district": "South 24 Parganas", "addr:full": "Brahma Samaj Road, Vidyasagar Park, Behala", "addr:postcode": "700034", "addr:state": "West Bengal", "amenity": "hospital", "description": "Sub-District Hospital", "name": "Vidyasagar State General Hospital", "source": "OpenGovernmentData", "website": "wbhealth.gov.in", "wikidata": "Q61453790"}}, {"type": "node", "id": 1291414310, "lat": 26.464244, "lon": 80.314388, "tags": {"amenity": "hospital", "name": "Agarwal Hospital"}}, {"type": "node", "id": 1291414312, "lat": 26.468763, "lon": 80.318223, "tags": {"amenity": "hospital", "name": "Rama Krishna Mission Hospital"}}, {"type": "node", "id": 1323428700, "lat": 26.7379729, "lon": 83.895048, "tags": {"amenity": "hospital", "healthcare": "hospital", "name": "Kushinagar Clinic"}}, {"type": "node", "id": 1358917799, "lat": 25.6102948, "lon": 85.130907, "tags": {"addr:district": "Patna", "addr:postcode": "803210", "addr:state": "Bihar", "addr:subdistrict": "Belchhi", "amenity": "hospital", "name": "New Gardinar Road Hospital", "source": "OpenGovernmentData"}}, {"type": "node", "id": 1382985019, "lat": 28.3999274, "lon": 83.6993752, "tags": {"amenity": "hospital", "name": "Gorepani Comunal Healt Social Reform Group"}}, {"type": "node", "id": 1410289625, "lat": 23.0907842, "lon": 86.9560942, "tags": {"addr:district": "Bankura", "addr:full": "Gunnath Primary School, Brajarajpur", "addr:postcode": "722121", "addr:state": "West Bengal", "addr:subdistrict": "Indpur", "amenity": "hospital", "description": "Primary Health Centre", "emergency": "no", "healthcare": "centre", "name": "Gunnath PHC", "source": "OpenGovernmentData", "wikidata": "Q61442273"}}, {"type": "node", "id": 1417852753, "lat": 27.5840061, "lon": 85.5134905, "tags": {"amenity": "hospital", "name": "Red Cross", "source": "Garmin Orgeon 450 GPS"}}, {"type": "node", "id": 1435520481, "lat": 28.6062923, "lon": 81.6005701, "tags": {"amenity": "hospital", "emergency": "yes", "name": "Mid Western Regional Hospital", "services": "PMTCTCT, ART VCT"}}, {"type": "node", "id": 1459846250, "lat": 28.7035346, "lon": 80.5876112, "tags": {"addr:city": "Dhangadhi", "addr:place": "Hospital line", "addr:street": "Main Road", "amenity": "hospital", "contact:phone": "091-524281", "name": "Seti Zonal Hospital, Dhangadhi", "opening_hours": "Su-Fr 10:00-17:00"}}, {"type": "node", "id": 1467951643, "lat": 22.3410222, "lon": 87.3035662, "tags": {"amenity": "hospital", "name": "TB HOSPITAL"}}, {"type": "node", "id": 1471137964, "lat": 22.3166763, "lon": 87.3004378, "tags": {"alt_name": "B C Roy Technology Hospital", "amenity": "hospital", "emergency": "yes", "healthcare": "hospital", "name": "Bidhan Chandra Roy Technology Hospital", "name:etymology:wikidata": "Q2901773"}}, {"type": "node", "id": 1497172311, "lat": 27.7114391, "lon": 85.2913209, "tags": {"amenity": "hospital", "emergency": "yes", "name": "\u0938\u0948\u0928\u093f\u0915 \u0905\u0938\u094d\u092a\u0924\u093e\u0932", "name:en": "Military Hospital", "name:ne": "\u0938\u0948\u0928\u093f\u0915 \u0905\u0938\u094d\u092a\u0924\u093e\u0932"}}, {"type": "node", "id": 1497390981, "lat": 26.7592515, "lon": 85.9910239, "tags": {"amenity": "hospital", "name": "Health Post"}}, {"type": "node", "id": 1512400305, "lat": 28.0379368, "lon": 83.7732919, "tags": {"amenity": "hospital", "name": "Health Post/Birth Clinic"}}, {"type": "node", "id": 1512438687, "lat": 28.0475418, "lon": 83.7496382, "tags": {"amenity": "hospital", "name": "Sub Healthpost"}}, {"type": "node", "id": 1617044401, "lat": 28.0692468, "lon": 84.5296803, "tags": {"FIXME": "position", "amenity": "hospital", "name": "Amppipal", "website": "http://www.amppipal.de/", "wikidata": "Q4748539", "wikipedia": "en:Amppipal"}}, {"type": "node", "id": 1634140077, "lat": 26.4781242, "lon": 80.3114319, "tags": {"addr:district": "Kanpur Nagar", "addr:full": "Swaroop Nagar", "addr:postcode": "208001", "addr:state": "Uttar Pradesh", "alt_name": "L.L.R Hospital", "amenity": "hospital", "emergency": "yes", "name": "Lala Lajpat Rai and Associate Hospital", "name:hi": "\u0932\u093e\u0932\u093e \u0932\u093e\u091c\u092a\u0924 \u0930\u093e\u092f \u0905\u0938\u094d\u092a\u0924\u093e\u0932", "source": "OpenGovernmentData"}}, {"type": "node", "id": 1635332528, "lat": 24.3718395, "lon": 88.5863408, "tags": {"amenity": "hospital", "emergency": "yes", "name": "Altaf Uz Zaman Collage & Hospital", "source": "Altaf Uz Zaman Collage & Hospital"}}, {"type": "node", "id": 1684554285, "lat": 22.5843732, "lon": 88.4289579, "tags": {"amenity": "hospital", "name": "Anandalok(\u0986\u09a8\u09a8\u09cd\u09a6\u09b2\u09cb\u0995)", "name:bn": "\u0986\u09a8\u09a8\u09cd\u09a6\u09b2\u09cb\u0995\u00a0\u09b9\u09be\u09b8\u09aa\u09be\u09a4\u09be\u09b2"}}, {"type": "node", "id": 1753170163, "lat": 22.420542, "lon": 87.3218592, "tags": {"amenity": "hospital", "healthcare": "hospital"}}, {"type": "node", "id": 1765139008, "lat": 22.4951399, "lon": 88.3121663, "tags": {"amenity": "hospital"}}, {"type": "node", "id": 1767445004, "lat": 27.6296267, "lon": 85.5237477, "tags": {"amenity": "hospital", "name": "Krishna Prasad Hospital"}}, {"type": "node", "id": 1787063191, "lat": 27.667072, "lon": 85.3330204, "tags": {"amenity": "hospital", "healthcare": "hospital", "name": "\u0917\u094d\u0932\u094b\u092c\u0932 \u0905\u0938\u094d\u092a\u0924\u093e\u0932", "name:en": "Global hospital", "name:ne": "\u0917\u094d\u0932\u094b\u092c\u0932 \u0905\u0938\u094d\u092a\u0924\u093e\u0932", "opening_hours": "24/7"}}, {"type": "node", "id": 1822525113, "lat": 22.4580817, "lon": 88.3836982, "tags": {"addr:district": "South 24 Parganas", "addr:full": "2406,Garia Main Road", "addr:postcode": "700084", "addr:state": "West Bengal", "amenity": "hospital", "building:use": "residential", "emergency": "yes", "name": "Hindustan Health Point Pvt Ltd", "source": "OpenGovernmentData"}}, {"type": "node", "id": 1891343745, "lat": 27.7324263, "lon": 85.3443527, "tags": {"amenity": "hospital", "healthcare": "hospital", "name": "\u0927\u0928\u094d\u0935\u0928\u094d\u0924\u0930\u0940 \u0906\u092f\u0941\u0930\u094d\u0935\u0947\u0926 \u0905\u0938\u094d\u092a\u0924\u093e\u0932 \u0924\u0925\u093e \u0905\u0928\u0941\u0938\u0928\u094d\u0927\u093e\u0928 \u0915\u0947\u0928\u094d\u0926\u094d\u0930", "name:en": "Dhanwantari Aryuved Hospital & Research Centre", "name:ne": "\u0927\u0928\u094d\u0935\u0928\u094d\u0924\u0930\u0940 \u0906\u092f\u0941\u0930\u094d\u0935\u0947\u0926 \u0905\u0938\u094d\u092a\u0924\u093e\u0932 \u0924\u0925\u093e \u0905\u0928\u0941\u0938\u0928\u094d\u0927\u093e\u0928 \u0915\u0947\u0928\u094d\u0926\u094d\u0930"}}, {"type": "node", "id": 1898593305, "lat": 27.7177828, "lon": 85.3304899, "tags": {"addr:city": "Kathmandu", "addr:street": "Thirbam Sadak", "amenity": "hospital", "healthcare": "hospital", "name": "\u0906\u0930\u094b\u0917\u094d\u092f \u0906\u0936\u094d\u0930\u092e", "name:en": "Aarogya Aashram", "name:ne": "\u0906\u0930\u094b\u0917\u094d\u092f \u0906\u0936\u094d\u0930\u092e", "operator": "Dr. Pramod Kumar Gautam", "phone": "014412075", "religion": "hindu"}}, {"type": "node", "id": 1904498930, "lat": 27.6821809, "lon": 84.4363371, "tags": {"amenity": "hospital", "emergency": "yes", "healthcare": "hospital", "healthcare:speciality": "general;orthopaedics;dental_oral_maxillo_facial_surgery;gynaecology;cardiology;paediatrics;psychiatry", "name": "Bharatpur District Hospital", "name:ne": "\u091c\u093f\u0932\u094d\u0932\u093e \u0905\u0938\u094d\u092a\u0924\u093e\u0932"}}, {"type": "node", "id": 1905959105, "lat": 27.6991788, "lon": 84.423163, "tags": {"amenity": "hospital", "emergency": "no", "name": "Nepal Red Cross Society"}}, {"type": "node", "id": 1905962473, "lat": 27.6991445, "lon": 84.4235261, "tags": {"amenity": "hospital", "emergency": "no", "name": "Mary Stopes"}}, {"type": "node", "id": 1905992892, "lat": 27.6757452, "lon": 84.4384875, "tags": {"amenity": "hospital", "emergency": "no", "healthcare": "hospital", "name": "District Veterinary Hospital"}}, {"type": "node", "id": 1906007914, "lat": 27.6709797, "lon": 84.4387436, "tags": {"amenity": "hospital", "emergency": "no", "healthcare": "hospital", "name": "Bharatpur Family Planning Hospital"}}, {"type": "node", "id": 1906007947, "lat": 27.6837229, "lon": 84.4360734, "tags": {"amenity": "hospital", "name": "College Of Medical Sciences Teaching Hospital"}}, {"type": "node", "id": 1906007957, "lat": 27.6847699, "lon": 84.4391608, "tags": {"amenity": "hospital", "emergency": "yes", "healthcare": "hospital", "healthcare:speciality": "ophthalmology", "name": "Mahendra Memorial Eye Hospital"}}, {"type": "node", "id": 1938618648, "lat": 25.3928575, "lon": 85.4928302, "tags": {"amenity": "hospital", "emergency": "no", "healthcare": "hospital", "name": "Barah Primary Hospital", "source": "Bing"}}, {"type": "node", "id": 1938619007, "lat": 25.3711011, "lon": 85.5334754, "tags": {"amenity": "hospital", "emergency": "yes", "healthcare": "hospital", "name": "Harnaut Hospital"}}, {"type": "node", "id": 1944291982, "lat": 26.8746885, "lon": 80.9603472, "tags": {"addr:district": "Lucknow", "addr:full": "B-328-B, Sector B, Mahanagar., Near Mount Carmal School", "addr:postcode": "226006", "addr:state": "Uttar Pradesh", "amenity": "hospital", "name": "Devishiv Hospital, Lucknow", "source": "OpenGovernmentData"}}, {"type": "node", "id": 1950821381, "lat": 25.7670137, "lon": 89.2315591, "tags": {"amenity": "hospital", "name": "Rangpur Medial College Hospital"}}, {"type": "node", "id": 1957170597, "lat": 27.6853544, "lon": 84.4307286, "tags": {"amenity": "hospital", "emergency": "yes", "healthcare": "hospital", "name": "Chitwan Medical College Teaching Hospital"}}, {"type": "node", "id": 1958684029, "lat": 25.9226334, "lon": 86.7928963, "tags": {"amenity": "hospital", "emergency": "yes", "healthcare": "hospital", "name": "Main Hospital"}}, {"type": "node", "id": 1958696319, "lat": 25.9092345, "lon": 86.7873763, "tags": {"amenity": "hospital", "name": "JB Singh Hospital"}}, {"type": "node", "id": 1960210094, "lat": 27.6816756, "lon": 84.4324497, "tags": {"amenity": "hospital", "emergency": "yes", "healthcare": "hospital", "name": "Narayani Samydayik Hospital"}}, {"type": "node", "id": 1979213270, "lat": 27.6902999, "lon": 84.4096154, "tags": {"amenity": "hospital", "name": "Balkumari Maternity Hospital"}}, {"type": "node", "id": 1985458243, "lat": 27.7202714, "lon": 85.3178811, "tags": {"addr:city": "Lainchaur, Kathmandu", "addr:country": "NP", "addr:postcode": "00977", "addr:state": "Central Region", "addr:street": "British-Indian Embassy Rd", "amenity": "hospital", "contact:email": "ciwecclinic@mail.com.np", "description": "Emergency and Ambulance services available along with a variety of other services. 24 hrs/day, 7 days/week.", "fax": "977-1-4412590", "healthcare": "hospital", "name": "CIWEC Hospital", "phone": "977-1-4424111, 4435232", "website": "https://www.ciwec-clinic.com/"}}, {"type": "node", "id": 1986847488, "lat": 24.3687089, "lon": 88.6266259, "tags": {"amenity": "hospital", "healthcare": "hospital", "name": "RUET Central Hospital, Rajshahi"}}, {"type": "node", "id": 2027886569, "lat": 27.6922104, "lon": 85.3301616, "tags": {"amenity": "hospital", "emergency": "yes", "name": "\u091a\u093f\u0930\u093e\u092f\u0941 \u0930\u093e\u0937\u094d\u091f\u094d\u0930\u093f\u092f \u0905\u0938\u094d\u092a\u0924\u093e\u0932 \u0924\u0925\u093e \u091a\u093f\u0915\u093f\u0924\u094d\u0938\u093e \u0938\u0902\u0938\u094d\u0925\u093e\u0928", "name:en": "Chirayu National Hospital & Medical Institute", "name:ne": "\u091a\u093f\u0930\u093e\u092f\u0941 \u0930\u093e\u0937\u094d\u091f\u094d\u0930\u093f\u092f \u0905\u0938\u094d\u092a\u0924\u093e\u0932 \u0924\u0925\u093e \u091a\u093f\u0915\u093f\u0924\u094d\u0938\u093e \u0938\u0902\u0938\u094d\u0925\u093e\u0928", "toilets:wheelchair": "no", "wheelchair": "limited"}}, {"type": "node", "id": 2027895182, "lat": 27.6903846, "lon": 85.32902, "tags": {"amenity": "hospital", "name": "\u0907\u0928\u094d\u092b\u0947\u0930\u0932\u093f\u091f\u0940 \u0938\u0947\u0928\u094d\u091f\u0930", "name:en": "Infertility Center", "name:ne": "\u0907\u0928\u094d\u092b\u0947\u0930\u0932\u093f\u091f\u0940 \u0938\u0947\u0928\u094d\u091f\u0930"}}, {"type": "node", "id": 2077258831, "lat": 27.7378197, "lon": 85.3230411, "tags": {"amenity": "hospital", "name": "\u0938\u0941\u092c\u094d\u092c\u093e \u092e\u0947\u0921\u093f\u0915\u0932 \u0938\u0947\u0928\u094d\u091f\u0930 \u092a\u094d\u0930\u093e. \u0932\u093f", "name:en": "Subba Medical Centre Pvt ltd", "name:ne": "\u0938\u0941\u092c\u094d\u092c\u093e \u092e\u0947\u0921\u093f\u0915\u0932 \u0938\u0947\u0928\u094d\u091f\u0930 \u092a\u094d\u0930\u093e. \u0932\u093f"}}, {"type": "node", "id": 2108702032, "lat": 22.8076052, "lon": 86.1817547, "tags": {"amenity": "hospital", "emergency": "no", "name": "Loyola Free Clinic"}}, {"type": "node", "id": 2121884151, "lat": 27.713065, "lon": 85.3092366, "tags": {"amenity": "hospital", "emergency": "no", "healthcare": "hospital", "name": "\u0915\u0941\u0928\u094d\u092b\u0947\u0928 \u0924\u093f\u092c\u094d\u092c\u0924\u0940 \u091a\u093f\u0915\u093f\u0924\u094d\u0938\u093e", "name:en": "Kunphen Tibetian Medicine", "name:ne": "\u0915\u0941\u0928\u094d\u092b\u0947\u0928 \u0924\u093f\u092c\u094d\u092c\u0924\u0940 \u091a\u093f\u0915\u093f\u0924\u094d\u0938\u093e"}}, {"type": "node", "id": 2122386462, "lat": 27.7024512, "lon": 85.2824017, "tags": {"amenity": "hospital", "emergency": "yes", "name": "\u092f\u0924\u0940 \u0905\u0938\u094d\u092a\u0924\u093e\u0932", "name:en": "Yeti Hospital", "name:ne": "\u092f\u0924\u0940 \u0905\u0938\u094d\u092a\u0924\u093e\u0932"}}, {"type": "node", "id": 2132581290, "lat": 26.8861056, "lon": 88.1883803, "tags": {"amenity": "hospital"}}, {"type": "node", "id": 2140382060, "lat": 27.7498415, "lon": 85.0669243, "tags": {"amenity": "hospital", "emergency": "yes", "name": "Mahadev Basi Helth post", "operator": "Nepal Government"}}, {"type": "node", "id": 2153239616, "lat": 27.5923956, "lon": 85.5169801, "tags": {"amenity": "hospital", "name": "Panauti Hospital", "name:ne": "\u092a\u0928\u094c\u0924\u0940 \u0905\u0938\u094d\u092a\u0924\u093e\u0932"}}, {"type": "node", "id": 2155539563, "lat": 26.8927337, "lon": 88.0715599, "tags": {"amenity": "hospital", "emergency": "no", "name": "Phikkal Hospital"}}, {"type": "node", "id": 2164877858, "lat": 27.6656582, "lon": 85.3054073, "tags": {"amenity": "hospital", "emergency": "yes", "name": "\u0938\u093e\u0930\u094d\u0935\u091c\u0928\u093f\u0915 \u0905\u0938\u094d\u092a\u0924\u093e\u0932", "name:en": "Public Hospital", "name:ne": "\u0938\u093e\u0930\u094d\u0935\u091c\u0928\u093f\u0915 \u0905\u0938\u094d\u092a\u0924\u093e\u0932"}}, {"type": "node", "id": 2165424701, "lat": 27.6948215, "lon": 85.3112844, "tags": {"amenity": "hospital", "healthcare": "hospital", "name": "\u0928\u0947\u092a\u093e\u0932 \u092a\u0936\u0941 \u0905\u0938\u094d\u092a\u0924\u093e\u0932", "name:en": "Nepal Veterinary Hospital", "name:ne": "\u0928\u0947\u092a\u093e\u0932 \u092a\u0936\u0941 \u0905\u0938\u094d\u092a\u0924\u093e\u0932"}}, {"type": "node", "id": 2165424708, "lat": 27.6937147, "lon": 85.3152583, "tags": {"amenity": "hospital", "email": "care@bluecross.com.np", "name": "\u092c\u094d\u0932\u0941 \u0915\u094d\u0930\u0938 \u0905\u0938\u094d\u092a\u0924\u093e\u0932", "name:en": "Blue Cross Hospital", "name:ne": "\u092c\u094d\u0932\u0941 \u0915\u094d\u0930\u0938 \u0905\u0938\u094d\u092a\u0924\u093e\u0932", "phone": "014262027", "toilets:wheelchair": "no", "website": "https://www.bluecross.com.np/", "wheelchair": "yes"}}, {"type": "node", "id": 2167488187, "lat": 22.7586464, "lon": 88.3707083, "tags": {"amenity": "hospital", "emergency": "no", "name": "XPons Doctor's Clinic", "source": "Survey"}}, {"type": "node", "id": 2174767695, "lat": 25.6141766, "lon": 85.1900358, "tags": {"addr:district": "Patna", "addr:full": "P.O. Gulzarbagh", "addr:postcode": "800007", "addr:state": "Bihar", "amenity": "hospital", "emergency": "yes", "healthcare": "hospital", "name": "Tripolia Social Service Hospital", "source": "OpenGovernmentData"}}, {"type": "node", "id": 2176750961, "lat": 27.6913755, "lon": 85.2985867, "tags": {"amenity": "hospital"}}, {"type": "node", "id": 2192928421, "lat": 22.4809641, "lon": 88.3938205, "tags": {"addr:district": "Kolkata", "addr:full": "360 Panchasayar", "addr:postcode": "700094", "addr:state": "West Bengal", "amenity": "hospital", "email": "ph.enquiry@peerlesshospital.com", "emergency": "yes", "name": "Peerless Hospital and B.K.Roy Research Center", "operator:type": "private", "source": "OpenGovernmentData", "website": "https://www.peerlesshospital.com/", "wikidata": "Q30263004"}}, {"type": "node", "id": 2206349156, "lat": 29.7691345, "lon": 84.0311056, "tags": {"amenity": "hospital", "healthcare": "hospital"}}, {"type": "node", "id": 2218658273, "lat": 27.7066149, "lon": 85.2867623, "tags": {"amenity": "hospital", "healthcare": "hospital", "name": "\u0926\u093f\u0935\u094d\u092f\u093e \u0938\u0902\u091c\u0940\u0935\u0928\u0940 \u0905\u0938\u094d\u092a\u0924\u093e\u0932", "name:en": "Divya Sanjivani Hospital", "name:ne": "\u0926\u093f\u0935\u094d\u092f\u093e \u0938\u0902\u091c\u0940\u0935\u0928\u0940 \u0905\u0938\u094d\u092a\u0924\u093e\u0932"}}, {"type": "node", "id": 2236622338, "lat": 27.6943238, "lon": 85.3370557, "tags": {"addr:city": "Kathmandu", "amenity": "hospital", "healthcare": "hospital", "name": "\u092d\u093e\u0930\u094b\u0938\u093e \u0905\u0938\u094d\u092a\u0924\u093e\u0932", "name:en": "Bharosa Hospital", "name:ne": "\u092d\u093e\u0930\u094b\u0938\u093e \u0905\u0938\u094d\u092a\u0924\u093e\u0932", "operator": "private"}}, {"type": "node", "id": 2282086109, "lat": 27.7010578, "lon": 85.3116341, "tags": {"amenity": "hospital", "building_count": "1", "capacity:beds": "0", "facility:icu": "no", "facility:operating_theatre": "no", "facility:ventilator": "yes", "facility:x-ray": "yes", "name": "\u0928\u0947\u092a\u093e\u0932 \u0921\u093e\u092f\u0917\u094d\u0928\u094b\u0938\u094d\u091f\u093f\u0915 \u0938\u0947\u0928\u094d\u091f\u0930 \u092a\u094d\u0930\u093e. \u0932\u093f.", "name:en": "Nepal Diagnostic Center Pvt. Ltd.", "name:ne": "\u0928\u0947\u092a\u093e\u0932 \u0921\u093e\u092f\u0917\u094d\u0928\u094b\u0938\u094d\u091f\u093f\u0915 \u0938\u0947\u0928\u094d\u091f\u0930 \u092a\u094d\u0930\u093e. \u0932\u093f.", "opd:patients:count": "10", "operator:type": "private", "personnel:count": "13", "source": "OpenDRI survey"}}, {"type": "node", "id": 2282788885, "lat": 27.6809967, "lon": 84.4140065, "tags": {"amenity": "hospital", "emergency": "yes", "name": "school of science"}}, {"type": "node", "id": 2303544093, "lat": 25.0780216, "lon": 89.7995151, "tags": {"amenity": "hospital", "name": "Islampur Upazilla Health Complex"}}, {"type": "node", "id": 2311234700, "lat": 25.1620877, "lon": 89.7589438, "tags": {"amenity": "hospital", "emergency": "yes", "name": "Dewangonj Upazilla Health Complex"}}, {"type": "node", "id": 2320025820, "lat": 28.6663006, "lon": 84.0236087, "tags": {"amenity": "hospital", "healthcare": "hospital", "name": "Manang Health Post", "name:ne": "\u0938\u094d\u0938\u094d\u0935\u0938\u094d\u0925\u094d\u092f \u091a\u094c\u0915\u0940"}}, {"type": "node", "id": 2332679845, "lat": 24.3896744, "lon": 89.990275, "tags": {"amenity": "hospital", "name": "Kalihati Upazilla Health Complex"}}, {"type": "node", "id": 2332680744, "lat": 24.4629746, "lon": 89.8745858, "tags": {"amenity": "hospital", "name": "Bhuapur Upazilla Health Complex"}}, {"type": "node", "id": 2332680745, "lat": 24.2639698, "lon": 89.9252633, "tags": {"addr:city": "Tangail", "addr:postcode": "1900", "amenity": "hospital", "emergency": "yes", "name": "Tangail Medical College Hospital"}}, {"type": "node", "id": 2332686515, "lat": 23.8909213, "lon": 89.877144, "tags": {"amenity": "hospital", "name": "Ghior Upazilla Health Complex"}}, {"type": "node", "id": 2332686517, "lat": 24.0507025, "lon": 89.8738267, "tags": {"amenity": "hospital", "name": "Nagarpur Upazilla Health Complex"}}, {"type": "node", "id": 2332792026, "lat": 25.8083678, "lon": 89.6451388, "tags": {"amenity": "hospital", "name": "Kurigram General Hospital"}}, {"type": "node", "id": 2332792027, "lat": 25.564414, "lon": 89.5189417, "tags": {"amenity": "hospital", "name": "Sundarganj Upazila Health Complex"}}, {"type": "node", "id": 2332802122, "lat": 25.3272548, "lon": 89.5376381, "tags": {"amenity": "hospital", "name": "Gaibandha General Hospital"}}, {"type": "node", "id": 2332802123, "lat": 25.9198854, "lon": 89.4559009, "tags": {"amenity": "hospital", "name": "Lalmonirhat General Hospital"}}, {"type": "node", "id": 2332802124, "lat": 25.3894271, "lon": 89.4689775, "tags": {"amenity": "hospital", "name": "Shadullahpur Upazila Health Complex"}}, {"type": "node", "id": 2332804904, "lat": 25.5812943, "lon": 89.6602718, "tags": {"amenity": "hospital", "name": "Chilmari Upazila Health Complex"}}, {"type": "node", "id": 2332804905, "lat": 25.4180151, "lon": 89.0819612, "tags": {"amenity": "hospital", "name": "Nawabganj Upazila Health Complex"}}, {"type": "node", "id": 2332856864, "lat": 25.3646528, "lon": 89.765778, "tags": {"amenity": "hospital", "name": "Char Rajibpur Upazila Health Complex"}}, {"type": "node", "id": 2332856904, "lat": 24.8937936, "lon": 89.7173658, "tags": {"amenity": "hospital", "name": "Madarganj Upazila Health Complex"}}, {"type": "node", "id": 2332856918, "lat": 25.1130044, "lon": 89.581814, "tags": {"amenity": "hospital", "name": "Saghatta Upazila Health Complex"}}, {"type": "node", "id": 2332856922, "lat": 24.8940962, "lon": 89.5740239, "tags": {"amenity": "hospital", "name": "Sariakandi Upazila Health Complex"}}, {"type": "node", "id": 2343347185, "lat": 22.2861, "lon": 89.9534843, "tags": {"amenity": "hospital", "name": "Mathbaria Upazila Health Complex"}}, {"type": "node", "id": 2343347187, "lat": 22.0335498, "lon": 89.9658496, "tags": {"amenity": "hospital", "name": "Patharghata Upazila Health Complex"}}, {"type": "node", "id": 2343347189, "lat": 22.3128592, "lon": 89.8501541, "tags": {"amenity": "hospital", "name": "Sharankhola Upazila Health Complex"}}, {"type": "node", "id": 2343351848, "lat": 22.6679542, "lon": 89.7885648, "tags": {"amenity": "hospital", "name": "Bagerhat General Hospital"}}, {"type": "node", "id": 2343351854, "lat": 22.7953508, "lon": 89.8719259, "tags": {"amenity": "hospital", "name": "Chitalmari Upazila Health Complex"}}, {"type": "node", "id": 2343351858, "lat": 22.5998477, "lon": 89.5177706, "tags": {"amenity": "hospital", "name": "Dacope Upazila Health Complex"}}, {"type": "node", "id": 2343351862, "lat": 22.7775291, "lon": 89.7005198, "tags": {"amenity": "hospital", "name": "Fakirhat Upazila Health Complex"}}, {"type": "node", "id": 2343351870, "lat": 22.4639038, "lon": 89.0248954, "tags": {"amenity": "hospital", "name": "Kaliganj Upazila Health Complex"}}, {"type": "node", "id": 2343351880, "lat": 22.4732356, "lon": 89.6175708, "tags": {"amenity": "hospital", "name": "Mangla Upazila Health Complex"}}, {"type": "node", "id": 2343351884, "lat": 22.5783, "lon": 89.9764492, "tags": {"amenity": "hospital", "name": "Pirozpur General Hospital"}}, {"type": "node", "id": 2343351923, "lat": 22.3439009, "lon": 89.1026876, "tags": {"amenity": "hospital", "healthcare": "hospital", "name": "Shymnagar Upazila Health Complex", "operator": "Goverment", "operator:type": "government"}}, {"type": "node", "id": 2343395379, "lat": 22.7385303, "lon": 89.5144786, "tags": {"amenity": "hospital", "name": "Batiaghata Upazila Health Complex"}}, {"type": "node", "id": 2343395385, "lat": 22.8099927, "lon": 89.4105622, "tags": {"amenity": "hospital", "name": "Dumuria Upazila Health Complex"}}, {"type": "node", "id": 2343395400, "lat": 22.8605568, "lon": 89.0359397, "tags": {"amenity": "hospital", "name": "Kalaroa Upazila Health Complex"}}, {"type": "node", "id": 2343395424, "lat": 22.9280408, "lon": 89.8010799, "tags": {"amenity": "hospital", "name": "Mollahat Upazila Health Complex"}}, {"type": "node", "id": 2343395441, "lat": 22.7524226, "lon": 89.2591267, "tags": {"amenity": "hospital", "name": "Tala Upazila Health Complex"}}, {"type": "node", "id": 2343395447, "lat": 22.9281896, "lon": 89.6728479, "tags": {"amenity": "hospital", "healthcare": "hospital", "name": "Terokhada Upazila Health Complex"}}, {"type": "node", "id": 2343395452, "lat": 22.8981361, "lon": 89.517012, "tags": {"amenity": "hospital", "name": "Tuberculosis Hospital Khulna"}}, {"type": "node", "id": 2343395458, "lat": 22.8938108, "lon": 89.8890717, "tags": {"amenity": "hospital", "name": "Tungipara Upazila Health Complex"}}, {"type": "node", "id": 2343411488, "lat": 23.2201316, "lon": 89.344068, "tags": {"amenity": "hospital", "name": "Bagherpara Upazila Health Complex"}}, {"type": "node", "id": 2343411498, "lat": 23.1689124, "lon": 89.2090257, "tags": {"addr:city": "Jessore", "addr:postcode": "7400", "addr:street": "Ghop Nowapara Road", "amenity": "hospital", "healthcare": "hospital", "name": "Jessore 250 bed General Hospital", "wheelchair": "yes"}}, {"type": "node", "id": 2343411509, "lat": 23.1052437, "lon": 89.1090706, "tags": {"amenity": "hospital", "name": "Jhikorgacha Upazila Health Complex"}}, {"type": "node", "id": 2343411530, "lat": 23.0091161, "lon": 89.2378169, "tags": {"amenity": "hospital", "name": "Manirampur Upazila Health Complex"}}, {"type": "node", "id": 2343411551, "lat": 23.1721885, "lon": 89.499297, "tags": {"amenity": "hospital", "name": "Narail General Hospital"}}, {"type": "node", "id": 2343417352, "lat": 23.1021398, "lon": 89.7569937, "tags": {"amenity": "hospital", "name": "Gopinathpur Union Health Complex"}}, {"type": "node", "id": 2343417355, "lat": 23.2423634, "lon": 89.718635, "tags": {"amenity": "hospital", "name": "Kashiani Upazila Health Complex"}}, {"type": "node", "id": 2343417356, "lat": 23.1840993, "lon": 89.6476117, "tags": {"amenity": "hospital", "name": "Lohagara Upazila Health Complex"}}, {"type": "node", "id": 2344153960, "lat": 23.3192131, "lon": 89.8721499, "tags": {"amenity": "hospital", "name": "Muksudpur Upazila Health Complex"}}, {"type": "node", "id": 2344153964, "lat": 23.3821523, "lon": 89.9800209, "tags": {"amenity": "hospital", "name": "Bhanga Upazila Health Complex"}}, {"type": "node", "id": 2344154848, "lat": 23.3927365, "lon": 89.6848321, "tags": {"amenity": "hospital", "emergency": "yes", "name": "Boalmari Upazila Health Complex"}}, {"type": "node", "id": 2344154849, "lat": 23.4033153, "lon": 89.142871, "tags": {"amenity": "hospital", "name": "Kaliganj Upazila Health Complex"}}, {"type": "node", "id": 2344154850, "lat": 23.4863527, "lon": 89.4217504, "tags": {"amenity": "hospital", "emergency": "yes", "healthcare": "hospital", "name": "Magura General Hospital"}}, {"type": "node", "id": 2344158198, "lat": 23.411486, "lon": 89.0054199, "tags": {"amenity": "hospital", "healthcare": "hospital", "name": "Kotchandpur Upazila Health Complex"}}, {"type": "node", "id": 2344158202, "lat": 23.5447204, "lon": 89.6295835, "tags": {"amenity": "hospital", "name": "Madhukhali Upazila Health Complex"}}, {"type": "node", "id": 2344160641, "lat": 23.6356794, "lon": 88.8473986, "tags": {"amenity": "hospital", "name": "Chuadanga General Hospital"}}, {"type": "node", "id": 2344160642, "lat": 23.6142025, "lon": 88.7627066, "tags": {"amenity": "hospital", "name": "Damurhuda Upazila Health Complex"}}, {"type": "node", "id": 2344160643, "lat": 23.6498504, "lon": 89.0437351, "tags": {"amenity": "hospital", "name": "Hariakunda Upazila Health Complex"}}, {"type": "node", "id": 2344312573, "lat": 23.7779628, "lon": 88.6420993, "tags": {"amenity": "hospital", "name": "Meherpur General Hospital"}}, {"type": "node", "id": 2344313632, "lat": 23.8162206, "lon": 88.7444092, "tags": {"amenity": "hospital", "healthcare": "hospital", "name": "Gangni Upazila Health Complex"}}, {"type": "node", "id": 2344314708, "lat": 24.0006974, "lon": 88.8731064, "tags": {"amenity": "hospital", "name": "Daulatpur Upazila Health Complex"}}, {"type": "node", "id": 2344447490, "lat": 23.6320113, "lon": 89.548978, "tags": {"amenity": "hospital", "name": "Baliakandi Upazila Health Complex"}}, {"type": "node", "id": 2344447494, "lat": 24.1273814, "lon": 89.0715238, "tags": {"amenity": "hospital", "name": "Ishwardi Upazila Health Complex"}}, {"type": "node", "id": 2344447497, "lat": 23.8105835, "lon": 89.288611, "tags": {"amenity": "hospital", "name": "Khoksha Upazila Health Complex"}}, {"type": "node", "id": 2344447502, "lat": 23.8595981, "lon": 89.2367708, "tags": {"amenity": "hospital", "name": "Kumarkhali Upazila Health Complex"}}, {"type": "node", "id": 2344447507, "lat": 24.1768408, "lon": 88.9620062, "tags": {"amenity": "hospital", "name": "Lalpur Upazila Health Complex"}}, {"type": "node", "id": 2344447512, "lat": 23.7909362, "lon": 89.425505, "tags": {"amenity": "hospital", "name": "Pangsha Upazila Health Complex"}}, {"type": "node", "id": 2344447518, "lat": 23.6818924, "lon": 89.2452986, "tags": {"amenity": "hospital", "name": "Shailkupa Upazila Health Complex"}}, {"type": "node", "id": 2344447969, "lat": 24.2815556, "lon": 88.7544322, "tags": {"amenity": "hospital", "name": "Charghat Upazila Health Complex"}}, {"type": "node", "id": 2344448874, "lat": 24.3767363, "lon": 88.5820023, "tags": {"amenity": "hospital", "name": "Tuberculosis Hospital Rajshahi"}}, {"type": "node", "id": 2344452078, "lat": 23.9386038, "lon": 89.4095874, "tags": {"amenity": "hospital", "name": "Sujanagar Upazila Health Complex"}}, {"type": "node", "id": 2344452177, "lat": 24.2189873, "lon": 89.3911297, "tags": {"amenity": "hospital", "name": "Bhangura Upazila Health Complex"}}, {"type": "node", "id": 2344452178, "lat": 24.1607052, "lon": 89.457109, "tags": {"amenity": "hospital", "name": "FaridpurUpazila Health Complex"}}, {"type": "node", "id": 2344452476, "lat": 24.2329754, "lon": 89.2868106, "tags": {"amenity": "hospital", "name": "Chatmohar Upazila Health Complex"}}, {"type": "node", "id": 2344453138, "lat": 24.4098391, "lon": 88.9834983, "tags": {"amenity": "hospital", "name": "Natore General Hospital"}}, {"type": "node", "id": 2344453917, "lat": 24.4737703, "lon": 88.3239856, "tags": {"amenity": "hospital", "name": "Godagari Upazila Health Complex"}}, {"type": "node", "id": 2344454633, "lat": 24.5978494, "lon": 88.2654598, "tags": {"amenity": "hospital", "name": "Chapai Nawabganj General Hospital"}}, {"type": "node", "id": 2344456527, "lat": 24.7347879, "lon": 88.4174943, "tags": {"amenity": "hospital", "name": "Nachole Upazila Health Complex"}}, {"type": "node", "id": 2344457241, "lat": 24.6886618, "lon": 88.1600351, "tags": {"amenity": "hospital", "name": "Shibganj Upazila Health Complex"}}, {"type": "node", "id": 2349376157, "lat": 24.8309811, "lon": 88.5748276, "tags": {"amenity": "hospital", "name": "Niamatpur Upazila Health Complex"}}, {"type": "node", "id": 2349378792, "lat": 24.9363788, "lon": 88.2218319, "tags": {"amenity": "hospital", "name": "Bholarhat Upazila Health Complex"}}, {"type": "node", "id": 2349378799, "lat": 25.0229353, "lon": 88.455204, "tags": {"amenity": "hospital", "name": "Porsha Upazila Health Complex"}}, {"type": "node", "id": 2349386825, "lat": 24.3003839, "lon": 89.6950129, "tags": {"amenity": "hospital", "name": "Belkuchi Upazila Health Complex"}}, {"type": "node", "id": 2349386830, "lat": 25.1515031, "lon": 88.8511378, "tags": {"amenity": "hospital", "name": "Dhamoirhat Upazila Health Complex"}}, {"type": "node", "id": 2349386837, "lat": 24.6475827, "lon": 89.2438725, "tags": {"amenity": "hospital", "name": "Nandigram Upazila Health Complex"}}, {"type": "node", "id": 2349386841, "lat": 24.8229669, "lon": 88.9370101, "tags": {"amenity": "hospital", "name": "Naogaon General Hospital"}}, {"type": "node", "id": 2349386844, "lat": 25.0492086, "lon": 88.7555694, "tags": {"amenity": "hospital", "name": "Patnitola Upazila Health Complex"}}, {"type": "node", "id": 2349386848, "lat": 24.742842, "lon": 88.9607748, "tags": {"amenity": "hospital", "name": "Raninagar Upazila Health Complex"}}, {"type": "node", "id": 2349386851, "lat": 24.5135663, "lon": 89.1461038, "tags": {"amenity": "hospital", "name": "Singra Upazila Health Complex"}}, {"type": "node", "id": 2349386854, "lat": 24.5758157, "lon": 88.5749801, "tags": {"amenity": "hospital", "name": "Tanore Upazila Health Complex"}}, {"type": "node", "id": 2349387234, "lat": 25.0954903, "lon": 89.042542, "tags": {"amenity": "hospital", "name": "Joypurhat General Hospital"}}, {"type": "node", "id": 2349387503, "lat": 25.2866264, "lon": 89.0124068, "tags": {"amenity": "hospital", "name": "Hakimpur Upazila Health Complex"}}, {"type": "node", "id": 2349387505, "lat": 25.1946879, "lon": 89.0414077, "tags": {"amenity": "hospital", "name": "Panchbibi Upazila Health Complex"}}, {"type": "node", "id": 2352335413, "lat": 24.8219949, "lon": 89.0442439, "tags": {"amenity": "hospital", "name": "Adamdighi Upazila Health Complex"}}, {"type": "node", "id": 2352335414, "lat": 24.9673039, "lon": 89.0225946, "tags": {"amenity": "hospital", "name": "Akkelpur Upazila Health Complex"}}, {"type": "node", "id": 2352335415, "lat": 24.0536652, "lon": 89.5482098, "tags": {"amenity": "hospital", "name": "Sathiya Upazila Health Complex"}}, {"type": "node", "id": 2352335416, "lat": 24.4585684, "lon": 89.7110651, "tags": {"amenity": "hospital", "name": "Sirajganj General Hospital"}}, {"type": "node", "id": 2352337332, "lat": 24.8758068, "lon": 89.1717127, "tags": {"amenity": "hospital", "name": "Dupchachia Upazila Health Complex"}}, {"type": "node", "id": 2352666875, "lat": 27.6980033, "lon": 85.304213, "tags": {"addr:street": "Guna Kam Dev Marga", "amenity": "hospital", "building_count": "1", "capacity:beds": "0", "facility:icu": "no", "facility:operating_theatre": "no", "facility:ventilator": "no", "facility:x-ray": "no", "name": "Buddha Minimal Access International (MAI) Center", "opd:patients:count": "15", "operator:type": "private", "personnel:count": "10", "source": "OpenDRI survey"}}, {"type": "node", "id": 2355925100, "lat": 25.4969605, "lon": 81.8684147, "tags": {"addr:district": "Allahabad", "addr:full": "Shivkuti", "addr:postcode": "211001", "addr:state": "Uttar Pradesh", "amenity": "hospital", "name": "Sri Narayan Ashram Hospital", "source": "OpenGovernmentData"}}, {"type": "node", "id": 2365517019, "lat": 23.6062639, "lon": 89.8381585, "tags": {"amenity": "hospital", "name": "Faridpur General Hospital"}}, {"type": "node", "id": 2365517022, "lat": 23.5893522, "lon": 89.835914, "tags": {"amenity": "hospital", "name": "Faridpur Medical College Hospital"}}, {"type": "node", "id": 2365517025, "lat": 23.7240229, "lon": 89.7466981, "tags": {"amenity": "hospital", "name": "Goalanda Upazila Health Complex"}}, {"type": "node", "id": 2365517028, "lat": 23.7422154, "lon": 89.9756, "tags": {"amenity": "hospital", "name": "Harirampur Upazila Health Complex"}}, {"type": "node", "id": 2365517031, "lat": 23.7499925, "lon": 89.6476795, "tags": {"amenity": "hospital", "name": "Rajbari General Hospital"}}, {"type": "node", "id": 2365532473, "lat": 25.5021795, "lon": 88.9482671, "tags": {"amenity": "hospital", "name": "Phulbari Upazila Health Complex"}}, {"type": "node", "id": 2365535325, "lat": 25.4186693, "lon": 89.0818059, "tags": {"amenity": "hospital", "name": "Nawabganj Upazila Health Complex"}}, {"type": "node", "id": 2365539233, "lat": 25.0060446, "lon": 89.3157235, "tags": {"amenity": "hospital", "name": "Shibganj Upazila Health Complex"}}, {"type": "node", "id": 2365903278, "lat": 22.5728078, "lon": 88.4134692, "tags": {"addr:housename": "IB 175, Sector III, Salt Lake City Kolkata", "addr:postcode": "700091", "amenity": "hospital", "name": "Subodh Mitra Cancer Hospital and Research Centre", "phone": "03323352515", "source": "OpenGovernmentData", "website": "http://ww16.cancerhospital.org/"}}, {"type": "node", "id": 2381383521, "lat": 23.9670114, "lon": 89.8284615, "tags": {"amenity": "hospital", "name": "Daulatpur Upazila Health Complex"}}, {"type": "node", "id": 2381383999, "lat": 24.163777, "lon": 89.966907, "tags": {"amenity": "hospital", "name": "Delduar Upazila Health Complex"}}, {"type": "node", "id": 2381384473, "lat": 24.3899051, "lon": 89.9905506, "tags": {"amenity": "hospital", "name": "Kalihati Upazila Health Complex"}}, {"type": "node", "id": 2381386582, "lat": 26.3392356, "lon": 88.5573101, "tags": {"amenity": "hospital", "name": "Panchagarh General Hospital"}}, {"type": "node", "id": 2381387093, "lat": 26.2370487, "lon": 88.4088819, "tags": {"amenity": "hospital", "name": "Atwari Upazila Health Complex"}}, {"type": "node", "id": 2381388292, "lat": 26.2034807, "lon": 88.5532585, "tags": {"amenity": "hospital", "name": "Boda Upazila Health Complex"}}, {"type": "node", "id": 2381388293, "lat": 26.0305929, "lon": 88.4758423, "tags": {"amenity": "hospital", "name": "Thakurgaon General Hospital"}}, {"type": "node", "id": 2381389093, "lat": 25.6256582, "lon": 88.6371367, "tags": {"amenity": "hospital", "name": "Dinajpur General Hospital"}}, {"type": "node", "id": 2381389722, "lat": 25.7937281, "lon": 88.606676, "tags": {"amenity": "hospital", "name": "Kaharole Upazila Health Complex"}}, {"type": "node", "id": 2381391525, "lat": 25.8994086, "lon": 89.0128047, "tags": {"amenity": "hospital", "name": "\u0995\u09bf\u09b6\u09cb\u09b0\u0997\u099e\u09cd\u099c \u0989\u09aa\u099c\u09c7\u09b2\u09be \u09b8\u09cd\u09ac\u09be\u09b8\u09cd\u09a5\u09cd\u09af \u0995\u09ae\u09aa\u09cd\u09b2\u09c7\u0995\u09cd\u09b8", "name:en": "Kishoreganj Upazila Health Complex"}}, {"type": "node", "id": 2381391884, "lat": 25.9306735, "lon": 88.8453772, "tags": {"amenity": "hospital", "name": "Nilphamari General Hospital"}}, {"type": "node", "id": 2381392623, "lat": 26.1162244, "lon": 88.7560236, "tags": {"amenity": "hospital", "name": "Debiganj Upazila Health Complex"}}, {"type": "node", "id": 2382256252, "lat": 23.8465191, "lon": 89.8215542, "tags": {"amenity": "hospital", "name": "Shibalaya Upazila Health Complex"}}, {"type": "node", "id": 2406177576, "lat": 29.0851166, "lon": 80.5608601, "tags": {"amenity": "hospital", "name": "New Padma Hospital"}}, {"type": "node", "id": 2419810969, "lat": 23.3498788, "lon": 85.3300172, "tags": {"amenity": "hospital", "name": "Guru Nanak Hospital", "name:sat": "\u1c5c\u1c69\u1c68\u1c69 \u1c71\u1c5f\u1c71\u1c5a\u1c60 \u1c66\u1c5f\u1c65\u1c6f\u1c5f\u1c5b\u1c5f\u1c5e"}}, {"type": "node", "id": 2425005466, "lat": 27.7310242, "lon": 85.3235715, "tags": {"amenity": "hospital", "healthcare": "hospital", "management_type": "government", "name": "\u0928\u0947\u092a\u093e\u0932 \u092a\u094d\u0930\u0939\u0930\u0940 \u0905\u0938\u094d\u092a\u0924\u093e\u0932", "name:en": "Nepal Police Hospital", "name:ne": "\u0928\u0947\u092a\u093e\u0932 \u092a\u094d\u0930\u0939\u0930\u0940 \u0905\u0938\u094d\u092a\u0924\u093e\u0932"}}, {"type": "node", "id": 2426797210, "lat": 23.0549149, "lon": 85.2848754, "tags": {"amenity": "hospital", "name": "Khunti Government Hospital"}}, {"type": "node", "id": 2431185143, "lat": 23.1732251, "lon": 89.5066191, "tags": {"amenity": "hospital", "healthcare": "hospital", "name": "Narail Upazilla Office Complex"}}, {"type": "node", "id": 2445342986, "lat": 20.2834826, "lon": 85.7696633, "tags": {"addr:district": "Khordha", "addr:full": "IMS and SUM Hospital, K-8,Kalinga Nagar, Bhubaneswar,Khordha", "addr:postcode": "751003", "addr:state": "Odisha", "addr:subdistrict": "Bhubaneswar", "amenity": "hospital", "email": "sumhospital@soauniversity.ac.in", "name": "IMS SUM Hospital", "source": "OpenGovernmentData", "website": "https://www.ims.ac.in/"}}, {"type": "node", "id": 2445343009, "lat": 20.2828486, "lon": 85.7673727, "tags": {"amenity": "hospital", "name": "Institute of Dental Sciences"}}, {"type": "node", "id": 2451664683, "lat": 23.9676211, "lon": 89.3210623, "tags": {"amenity": "hospital", "name": "ASEAB Health Clinic"}}, {"type": "node", "id": 2456643501, "lat": 27.697102, "lon": 84.4267111, "tags": {"amenity": "hospital"}}, {"type": "node", "id": 2456677959, "lat": 27.6814753, "lon": 84.4303659, "tags": {"amenity": "hospital", "healthcare": "hospital", "name": "Chitwan Hospital"}}, {"type": "node", "id": 2459077734, "lat": 27.9095694, "lon": 84.5308581, "tags": {"amenity": "hospital", "name": "Health Post"}}, {"type": "node", "id": 2460793572, "lat": 22.5909895, "lon": 88.4122473, "tags": {"amenity": "hospital", "name": "Suraksha Diagnostic"}}, {"type": "node", "id": 2460827333, "lat": 22.5912273, "lon": 88.4110886, "tags": {"amenity": "hospital", "name": "Bidhannagar State General Hospital"}}, {"type": "node", "id": 2460827352, "lat": 22.5908731, "lon": 88.4105441, "tags": {"amenity": "hospital", "name": "Seba"}}, {"type": "node", "id": 2460827384, "lat": 22.5896424, "lon": 88.4089267, "tags": {"addr:district": "Kolkata", "addr:full": "Andromeda, Dd-30, Sector-1, Saltlake City, Salt Lake", "addr:housename": "DD-30, Sector-1, Salt Lake City, Kolkata, West Bengal2nd Cross Road, DD Block, Salt Lake City, Bidhan Nagar, West Bengal 700064", "addr:postcode": "700064", "addr:state": "West Bengal", "amenity": "hospital", "contact:phone": "339890000", "name": "Vasan Eye Care Hospital, Kolkata", "source": "OpenGovernmentData"}}, {"type": "node", "id": 2464908634, "lat": 22.5855232, "lon": 88.4914262, "tags": {"amenity": "hospital", "name": "Global Healthcare System"}}, {"type": "node", "id": 2471894122, "lat": 22.5264408, "lon": 88.3471209, "tags": {"amenity": "hospital", "name": "Chittaranjan Shishu Hospital", "name:etymology:wikidata": "Q560182"}}, {"type": "node", "id": 2471894125, "lat": 22.5259264, "lon": 88.3470069, "tags": {"amenity": "hospital", "name": "Chittaranjan Seva Sadan", "name:etymology:wikidata": "Q560182"}}, {"type": "node", "id": 2471894143, "lat": 22.5252694, "lon": 88.3466423, "tags": {"addr:city": "Kolkata", "addr:district": "Kolkata", "addr:housenumber": "37", "addr:postcode": "700026", "addr:state": "West Bengal", "addr:street": "Shyama Prasad Mukherjee Road", "amenity": "hospital", "check_date": "2023-09-30", "healthcare": "hospital", "internet_access": "wlan", "internet_access:fee": "no", "name": "Chittaranjan National Cancer Institute Hospital", "name:etymology:wikidata": "Q560182", "payment:mastercard": "yes", "payment:visa": "yes", "source": "OpenGovernmentData", "wheelchair": "yes", "wikidata": "Q5102433", "wikipedia": "en:Chittaranjan National Cancer Institute"}}, {"type": "node", "id": 2476338392, "lat": 27.7297316, "lon": 85.3810864, "tags": {"amenity": "hospital"}}, {"type": "node", "id": 2478662597, "lat": 21.8764139, "lon": 88.1853849, "tags": {"addr:postcode": "743347", "amenity": "hospital", "name": "Nonamath Sub Center", "phone": "+9187 59 810923"}}, {"type": "node", "id": 2493910990, "lat": 25.5434374, "lon": 83.4006007, "tags": {"addr:city": "Ghazipur", "addr:postcode": "233302", "addr:street": "Nandganj", "amenity": "hospital", "emergency": "yes", "name": "Government Hospital Nandganj"}}, {"type": "node", "id": 2508510818, "lat": 25.6266021, "lon": 88.638255, "tags": {"amenity": "hospital", "name": "Institute of Nuclear Medicine and Allied Sciences"}}, {"type": "node", "id": 2510273574, "lat": 24.8836681, "lon": 89.3571877, "tags": {"amenity": "hospital", "name": "Bogra Diabetic Hospital"}}, {"type": "node", "id": 2552266475, "lat": 24.4537651, "lon": 89.7096693, "tags": {"amenity": "hospital"}}, {"type": "node", "id": 2623539155, "lat": 23.7128039, "lon": 86.8769296, "tags": {"amenity": "hospital", "emergency": "yes", "name": "Dr. Kalyan"}}, {"type": "node", "id": 2639793226, "lat": 26.4955581, "lon": 83.7819431, "tags": {"addr:block": "Manjghgawa (DEORIA SADAR)", "addr:district": "Deoria", "addr:full": "Deoria, Front of Bus stand, Near CMO Office", "addr:postcode": "274001", "addr:state": "Uttar Pradesh", "amenity": "hospital", "description": "District Hospital", "name": "DWH Deoria", "source": "OpenGovernmentData"}}, {"type": "node", "id": 2643251999, "lat": 27.2954348, "lon": 87.319959, "tags": {"amenity": "hospital", "name": "Primary Health Post, Chainpur"}}, {"type": "node", "id": 2662694372, "lat": 27.6201886, "lon": 86.0785213, "tags": {"amenity": "hospital"}}, {"type": "node", "id": 2684770935, "lat": 27.6737417, "lon": 85.3117739, "tags": {"amenity": "hospital", "name": "\u092e\u094b\u092c\u093e\u0907\u0932 \u092a\u0936\u0941 \u091a\u093f\u0915\u093f\u0924\u094d\u0938\u093e \u0905\u0938\u094d\u092a\u0924\u093e\u0932", "name:en": "Mobile Veterinary Hospital", "name:ne": "\u092e\u094b\u092c\u093e\u0907\u0932 \u092a\u0936\u0941 \u091a\u093f\u0915\u093f\u0924\u094d\u0938\u093e \u0905\u0938\u094d\u092a\u0924\u093e\u0932"}}, {"type": "node", "id": 2799229931, "lat": 24.2537174, "lon": 89.9171926, "tags": {"amenity": "hospital", "name": "Doctors Clinic"}}, {"type": "node", "id": 2799241565, "lat": 24.271815, "lon": 89.9223291, "tags": {"amenity": "hospital", "name": "Shapla Clinic"}}, {"type": "node", "id": 2802881628, "lat": 26.5382787, "lon": 86.7434096, "tags": {"amenity": "hospital", "name": "sachhi nursing home"}}, {"type": "node", "id": 2802945302, "lat": 26.5410338, "lon": 86.7543666, "tags": {"amenity": "hospital"}}, {"type": "node", "id": 2803058057, "lat": 26.5989884, "lon": 86.7226564, "tags": {"amenity": "hospital", "name": "unique collage of medecal science and hospital"}}, {"type": "node", "id": 2803092648, "lat": 26.555821, "lon": 86.746969, "tags": {"addr:district": "Saptari", "addr:place": "Maleth", "amenity": "hospital"}}, {"type": "node", "id": 2803886657, "lat": 23.5417661, "lon": 89.1917141, "tags": {"amenity": "hospital", "name": "Jhenaidah Eye Hospital"}}, {"type": "node", "id": 2803892521, "lat": 23.5413088, "lon": 89.1923282, "tags": {"amenity": "hospital", "name": "Jhenaidah Shishu Hospital"}}, {"type": "node", "id": 2807805447, "lat": 28.06868, "lon": 83.24897, "tags": {"amenity": "hospital", "name": "Eye Hospital Tamghas"}}, {"type": "node", "id": 2807805457, "lat": 28.21695, "lon": 83.03344, "tags": {"amenity": "hospital", "name": "MHP Aaglung SHP", "note": "MHP Aaglung SHP"}}, {"type": "node", "id": 2807805458, "lat": 28.157663, "lon": 83.164846, "tags": {"amenity": "hospital", "name": "MHP Amarpur SHP", "note": "MHP Amarpur SHP"}}, {"type": "node", "id": 2807805459, "lat": 28.18547, "lon": 83.17835, "tags": {"amenity": "hospital", "name": "MHP Arjee SHP", "note": "MHP Arjee SHP"}}, {"type": "node", "id": 2807805460, "lat": 28.21791, "lon": 83.11939, "tags": {"amenity": "hospital", "name": "MHP Arkhawang SHP", "note": "MHP Arkhawang SHP"}}, {"type": "node", "id": 2807805461, "lat": 28.197827, "lon": 83.068537, "tags": {"amenity": "hospital", "healthcare": "hospital", "name": "MHP Bajkateri SHP", "note": "MHP Bajkateri SHP"}}, {"type": "node", "id": 2807805462, "lat": 28.11648, "lon": 83.14954, "tags": {"amenity": "hospital", "name": "MHP Dhurkot PHC (PHCC)", "note": "MHP Dhurkot PHC (PHCC)"}}, {"type": "node", "id": 2807805463, "lat": 28.18323, "lon": 83.2119, "tags": {"amenity": "hospital", "name": "MHP Dohali SHP", "note": "MHP Dohali SHP"}}, {"type": "node", "id": 2807805464, "lat": 28.0477388, "lon": 83.272374, "tags": {"amenity": "hospital", "name": "MHP Dubichaur SHP", "note": "MHP Dubichaur SHP"}}, {"type": "node", "id": 2807805465, "lat": 28.1017, "lon": 83.1082, "tags": {"amenity": "hospital", "name": "MHP Hadahade SHP", "note": "MHP Hadahade SHP"}}, {"type": "node", "id": 2807805466, "lat": 28.13327, "lon": 83.23692, "tags": {"amenity": "hospital", "name": "MHP Hastichaur SHP", "note": "MHP Hastichaur SHP"}}, {"type": "node", "id": 2807805467, "lat": 28.23264, "lon": 83.132, "tags": {"amenity": "hospital", "name": "MHP Hawangdi HP", "note": "MHP Hawangdi HP"}}, {"type": "node", "id": 2807805468, "lat": 28.17623, "lon": 83.19566, "tags": {"amenity": "hospital", "name": "MHP Ismarajasthal HP", "note": "MHP Ismarajasthal HP"}}, {"type": "node", "id": 2807805469, "lat": 28.101818, "lon": 83.1841005, "tags": {"amenity": "hospital", "name": "MHP Jaisithok SHP", "note": "MHP Jaisithok SHP"}}, {"type": "node", "id": 2807805470, "lat": 28.169185, "lon": 83.037786, "tags": {"amenity": "hospital", "name": "MHP Malagiri SHP"}}, {"type": "node", "id": 2807805471, "lat": 28.17655, "lon": 83.12784, "tags": {"amenity": "hospital", "name": "MHP Marbhung SHP", "note": "MHP Marbhung SHP"}}, {"type": "node", "id": 2807805472, "lat": 28.17043, "lon": 83.0648, "tags": {"amenity": "hospital", "name": "MHP Myalpokhari SHP", "note": "MHP Myalpokhari SHP"}}, {"type": "node", "id": 2807805473, "lat": 28.24374, "lon": 83.18134, "tags": {"amenity": "hospital", "name": "MHP Neta SHP", "note": "MHP Neta SHP"}}, {"type": "node", "id": 2807805474, "lat": 28.21747, "lon": 83.22993, "tags": {"amenity": "hospital", "name": "MHP Paudhi SHP", "note": "MHP Paudhi SHP"}}, {"type": "node", "id": 2807805475, "lat": 28.08575, "lon": 83.13937, "tags": {"amenity": "hospital", "name": "MHP Pipaldhara HP", "note": "MHP Pipaldhara HP"}}, {"type": "node", "id": 2807805476, "lat": 28.14339, "lon": 83.07469, "tags": {"amenity": "hospital", "name": "MHP Purkhot Daha HP", "note": "MHP Purkhot Daha HP"}}, {"type": "node", "id": 2807805477, "lat": 28.18656, "lon": 83.09407, "tags": {"amenity": "hospital", "name": "MHP Sirseni SHP", "note": "MHP Sirseni SHP"}}, {"type": "node", "id": 2807805478, "lat": 28.0682616, "lon": 83.2482724, "tags": {"alt_name": "MHP Tamghas District Hospital", "amenity": "hospital", "name": "Gulmi District Hospital"}}, {"type": "node", "id": 2807805479, "lat": 28.15858, "lon": 83.11575, "tags": {"amenity": "hospital", "name": "MHP Wagla SHP", "note": "MHP Wagla SHP"}}, {"type": "node", "id": 2807805480, "lat": 28.2099002, "lon": 83.0761906, "tags": {"amenity": "hospital", "name": "Madhane Community Health Center"}}, {"type": "node", "id": 2807809539, "lat": 28.06697, "lon": 83.24644, "tags": {"amenity": "hospital", "leisure": "sports_centre", "name": "Red Cross Society Tamghas;Sports Hall"}}, {"type": "node", "id": 2808738880, "lat": 23.1737359, "lon": 89.5033818, "tags": {"amenity": "hospital", "name": "Surjer Hashi Clinic"}}, {"type": "node", "id": 2809039581, "lat": 23.3112773, "lon": 89.4254447, "tags": {"amenity": "hospital", "name": "Bunagati High School"}}, {"type": "node", "id": 2824254451, "lat": 24.6140873, "lon": 89.916475, "tags": {"amenity": "hospital", "name": "Nagda Shimla Health Center"}}, {"type": "node", "id": 2824316034, "lat": 28.1050369, "lon": 83.87385, "tags": {"amenity": "hospital", "description": "This is a ART site", "name": "ART Center"}}, {"type": "node", "id": 2824322300, "lat": 28.1050724, "lon": 83.8739627, "tags": {"amenity": "hospital", "description": "This is PMTCT Sites", "name": "PMTCT Center"}}, {"type": "node", "id": 2824323800, "lat": 28.1052995, "lon": 83.8738554, "tags": {"amenity": "hospital", "description": "This is a HTC Site", "name": "HTC Centre"}}, {"type": "node", "id": 2824324593, "lat": 28.1052569, "lon": 83.8739064, "tags": {"amenity": "hospital", "description": "This is a STI Site", "name": "STI Center"}}, {"type": "node", "id": 2837594743, "lat": 27.1477905, "lon": 87.7657898, "tags": {"amenity": "hospital", "name": "Panchthar Hospital"}}, {"type": "node", "id": 2840587043, "lat": 23.1877313, "lon": 81.5717458, "tags": {"amenity": "hospital", "name": "Central Hospital"}}, {"type": "node", "id": 2841173322, "lat": 26.8095561, "lon": 87.2675932, "tags": {"amenity": "hospital", "healthcare": "hospital", "name": "BP Koirala Institute of Health Science"}}, {"type": "node", "id": 2857869822, "lat": 27.7049515, "lon": 85.3084222, "tags": {"amenity": "hospital", "name": "\u0924\u093e\u0930\u093f\u0928\u0940 \u0938\u094d\u0935\u093e\u0938\u094d\u0925\u094d\u092f \u0915\u0947\u0928\u094d\u0926\u094d\u0930", "name:en": "Tarini Health Center", "name:ne": "\u0924\u093e\u0930\u093f\u0928\u0940 \u0938\u094d\u0935\u093e\u0938\u094d\u0925\u094d\u092f \u0915\u0947\u0928\u094d\u0926\u094d\u0930"}}, {"type": "node", "id": 2866263075, "lat": 23.1550564, "lon": 81.9707571, "tags": {"amenity": "hospital", "name": "Regional Hospital"}}, {"type": "node", "id": 2879281678, "lat": 27.0216168, "lon": 87.1208862, "tags": {"amenity": "hospital", "emergency": "yes", "name": "hatuwagadi gaupalika"}}, {"type": "node", "id": 2881689476, "lat": 24.5921412, "lon": 89.9126986, "tags": {"amenity": "hospital", "name": "Chatila Sub Health Center"}}, {"type": "node", "id": 2895073909, "lat": 20.3057095, "lon": 85.8316524, "tags": {"addr:city": "Bhubaneswar", "addr:housenumber": "Acharya Vihar", "addr:street": "bhubaneswar", "amenity": "hospital", "emergency": "yes"}}, {"type": "node", "id": 2901364765, "lat": 27.6796691, "lon": 86.0752611, "tags": {"amenity": "hospital", "name": "Gaurishankar General Hospital"}}, {"type": "node", "id": 2901364775, "lat": 27.6795302, "lon": 86.0757181, "tags": {"amenity": "hospital", "name": "Dolakha Lions Eye Centre"}}, {"type": "node", "id": 2910348514, "lat": 23.3791108, "lon": 85.3246278, "tags": {"amenity": "hospital", "name": "dental hospital"}}, {"type": "node", "id": 2912554272, "lat": 27.9949532, "lon": 84.6279988, "tags": {"amenity": "hospital", "name": "Gorkha District Hospital"}}, {"type": "node", "id": 2913949308, "lat": 28.3224017, "lon": 82.615648, "tags": {"amenity": "hospital", "name": "Rolpa District Hospital"}}, {"type": "node", "id": 2914152846, "lat": 28.8271888, "lon": 81.710261, "tags": {"amenity": "hospital", "name": "Dailekh District Hospital"}}, {"type": "node", "id": 2920357305, "lat": 24.2127513, "lon": 83.0367937, "tags": {"amenity": "hospital", "name": "Accident and Emergency Hospital"}}, {"type": "node", "id": 2920357342, "lat": 24.2237004, "lon": 83.0381322, "tags": {"amenity": "hospital", "name": "ESI Hospital"}}, {"type": "node", "id": 2920357351, "lat": 24.2169831, "lon": 83.0413344, "tags": {"amenity": "hospital", "name": "Homeopathic Clinic"}}, {"type": "node", "id": 2920357352, "lat": 24.2134572, "lon": 83.035969, "tags": {"amenity": "hospital", "name": "Hospital Front Gate"}}, {"type": "node", "id": 2928932109, "lat": 20.2932299, "lon": 85.8114232, "tags": {"addr:city": "Bhubaneswar", "addr:postcode": "751015", "addr:street": "Nayapalli", "amenity": "hospital", "name": "Lion's Eye Hospital"}}, {"type": "node", "id": 2934142991, "lat": 20.2728258, "lon": 85.7951552, "tags": {"amenity": "hospital"}}, {"type": "node", "id": 2935070101, "lat": 20.2442831, "lon": 85.7851433, "tags": {"amenity": "hospital", "name": "kids hospital ground"}}, {"type": "node", "id": 2948362003, "lat": 25.6293787, "lon": 85.0371613, "tags": {"amenity": "hospital", "healthcare": "hospital"}}, {"type": "node", "id": 2953667081, "lat": 21.1994701, "lon": 81.2857545, "tags": {"addr:city": "durg", "addr:housenumber": "om parisar", "addr:postcode": "491001", "amenity": "hospital", "name": "Life Care Scan & Research"}}, {"type": "node", "id": 2953667575, "lat": 21.198755, "lon": 81.2856067, "tags": {"addr:city": "durg", "addr:district": "Durg", "addr:full": "Om Parisar , Dhamdha Road Near Tularam School , Infront Of Kalibai Near I.Ma Chowk", "addr:postcode": "491001", "addr:state": "Chhattisgarh", "amenity": "hospital", "name": "Gayatri Hospital, Durg", "source": "OpenGovernmentData"}}, {"type": "node", "id": 2953674104, "lat": 21.1872237, "lon": 81.2794181, "tags": {"addr:city": "Durg", "addr:postcode": "491001", "amenity": "hospital", "emergency": "yes", "name": "District Hospital"}}, {"type": "node", "id": 3016283185, "lat": 26.7019525, "lon": 88.4159569, "tags": {"addr:city": "Siliguri", "addr:postcode": "734005", "addr:street": "Station Feeder Road", "amenity": "hospital", "ele": "0", "healthcare": "hospital", "name": "Dr Agarwal's Clinic - Dental & Skin Experts", "note": "Dr Agarwal\u2019s Clinic \u2013 Dental & Skin Experts is a modern, well equipped & advanced Skin, Hair, Laser, Cosmetic Dermatology & Dental Clinic in Siliguri.", "phone": "+91 9832229559", "website": "https://dragarwalsclinic.com/", "wheelchair": "no"}}, {"type": "node", "id": 3047240296, "lat": 27.6873782, "lon": 85.3164579, "tags": {"amenity": "hospital", "email": "netradham.nepal@gmail.com", "internet_access": "wlan", "name": "\u0928\u0947\u0924\u094d\u0930\u0927\u093e\u092e \u0906\u0901\u0916\u093e \u0938\u0947\u0935\u093e \u0915\u0947\u0928\u094d\u0926\u094d\u0930", "name:en": "Netradham Eye care center", "name:ne": "\u0928\u0947\u0924\u094d\u0930\u0927\u093e\u092e \u0906\u0901\u0916\u093e \u0938\u0947\u0935\u093e \u0915\u0947\u0928\u094d\u0926\u094d\u0930", "phone": "015551345"}}, {"type": "node", "id": 3062776977, "lat": 20.8314714, "lon": 85.6232957, "tags": {"addr:district": "Dhenkanal", "addr:postcode": "759023", "addr:state": "Odisha", "addr:subdistrict": "Kamakshyanagar", "amenity": "hospital", "description": "Primary Health Centre", "emergency": "yes", "healthcare": "centre", "name": "Public Health Center (PHC), Guneibil", "source": "OpenGovernmentData"}}, {"type": "node", "id": 3062839219, "lat": 20.8621245, "lon": 85.6751963, "tags": {"addr:district": "Dhenkanal", "addr:full": "Jiral", "addr:postcode": "759023", "addr:state": "Odisha", "addr:subdistrict": "Bhuban", "amenity": "hospital", "description": "Community Health Centre", "emergency": "yes", "healthcare": "centre", "name": "CHC, Jiral", "source": "OpenGovernmentData"}}, {"type": "node", "id": 3071437196, "lat": 20.9337468, "lon": 85.5431211, "tags": {"addr:district": "Dhenkanal", "addr:full": "At/Po-Kamkakhya Nagar", "addr:postcode": "759018", "addr:state": "Odisha", "amenity": "hospital", "name": "Sub Divisional Medical Office, Kamakhyanagar", "source": "OpenGovernmentData"}}, {"type": "node", "id": 3071563122, "lat": 20.6631548, "lon": 85.5970774, "tags": {"amenity": "hospital", "emergency": "yes", "name": "District Headquarter Hospital"}}, {"type": "node", "id": 3071563123, "lat": 20.6721742, "lon": 85.5892024, "tags": {"amenity": "hospital", "emergency": "yes", "name": "veterinary Hospital"}}, {"type": "node", "id": 3071622766, "lat": 20.6600397, "lon": 85.5840834, "tags": {"addr:district": "Dhenkanal", "addr:full": "Dakhinakali Road", "addr:postcode": "759001", "addr:state": "Odisha", "amenity": "hospital", "name": "Kalinga Eye Hospital and Research Centre", "source": "OpenGovernmentData"}}, {"type": "node", "id": 3074585332, "lat": 27.7174587, "lon": 85.3475795, "tags": {"amenity": "hospital"}}, {"type": "node", "id": 3097212437, "lat": 26.8024464, "lon": 80.8957547, "tags": {"addr:district": "Lucknow", "addr:full": "Avadh Hospital Chauraha, 9-D, Singar Nagar, Kanpur Road", "addr:postcode": "226005", "addr:state": "Uttar Pradesh", "amenity": "hospital", "name": "Avadh Hospital And Heart Centre", "source": "OpenGovernmentData"}}, {"type": "node", "id": 3098258129, "lat": 21.1897672, "lon": 81.2746431, "tags": {"amenity": "hospital", "name": "ABC"}}, {"type": "node", "id": 3098261869, "lat": 22.5984249, "lon": 80.3712308, "tags": {"amenity": "hospital", "healthcare": "hospital", "name": "Government Hospital", "operator": "Government of Madhya Pradesh", "operator:type": "public"}}, {"type": "node", "id": 3099945763, "lat": 23.1345548, "lon": 83.1938147, "tags": {"City": "Ambikapur", "amenity": "hospital", "name": "Holi Cross Hospital (Mission Hospital)"}}, {"type": "node", "id": 3122581508, "lat": 28.2457314, "lon": 84.3157881, "tags": {"amenity": "hospital", "name": "Baglungpani Health Post"}}, {"type": "node", "id": 3123743150, "lat": 28.139964, "lon": 84.4382822, "tags": {"amenity": "hospital"}}, {"type": "node", "id": 3125478630, "lat": 28.0521943, "lon": 81.6160057, "tags": {"amenity": "hospital", "name": "Nepalgunj Eye Hospital"}}, {"type": "node", "id": 3125490935, "lat": 28.055423, "lon": 81.6285101, "tags": {"amenity": "hospital", "name": "Eye hospital"}}, {"type": "node", "id": 3134943544, "lat": 20.2610038, "lon": 85.7863147, "tags": {"amenity": "hospital", "name": "Zenith Clinic"}}, {"type": "node", "id": 3204508062, "lat": 28.0651409, "lon": 81.6277995, "tags": {"amenity": "hospital", "name": "A.R Hospital"}}, {"type": "node", "id": 3229720177, "lat": 26.6525245, "lon": 87.4493976, "tags": {"addr:housenumber": "34", "addr:street": "Laxmimarga-Dangihat Road", "amenity": "hospital", "emergency": "yes", "name": "Laxmimarga-Dangihat hospital"}}, {"type": "node", "id": 3230169715, "lat": 27.736213, "lon": 86.1605955, "tags": {"amenity": "hospital", "name": "Singati Community Hospital"}}, {"type": "node", "id": 3261546865, "lat": 26.6005988, "lon": 87.1508363, "tags": {"amenity": "hospital", "internet_access": "wlan", "name": "inaruwa hospital"}}, {"type": "node", "id": 3307268806, "lat": 23.5154119, "lon": 87.2656454, "tags": {"addr:city": "Durgapur", "addr:postcode": "713215", "addr:street": "Angadpur", "amenity": "hospital", "name": "Matri Sadan"}}, {"type": "node", "id": 3316604593, "lat": 26.5599901, "lon": 88.0803749, "tags": {"amenity": "hospital", "name": "\u0913\u092e \u0938\u093e\u0907 \u092a\u093e\u0925\u093f\u092d\u093e\u0930\u093e \u0905\u0938\u094d\u092a\u0924\u093e\u0932 \u0924\u0925\u093e \u0905\u0928\u0941\u0938\u0928\u094d\u0927\u093e\u0928 \u0915\u0947\u0928\u0926\u094d\u0930", "name:en": "Om Sai Pathibhara Hospital and Research Center"}}, {"type": "node", "id": 3324142933, "lat": 22.5895694, "lon": 88.3507269, "tags": {"amenity": "hospital", "name": "Mayor Chect Clinick"}}, {"type": "node", "id": 3343357437, "lat": 27.6986884, "lon": 84.4224991, "tags": {"amenity": "hospital", "name": "abaya upchar kendra"}}, {"type": "node", "id": 3343362893, "lat": 27.6987231, "lon": 84.4225384, "tags": {"amenity": "hospital", "name": "avaya upchar kendra"}}, {"type": "node", "id": 3352996091, "lat": 22.8175849, "lon": 89.5457201, "tags": {"addr:city": "Khulna", "addr:street": "Majid Sarani", "amenity": "hospital", "emergency": "yes", "healthcare": "hospital", "healthcare:speciality": "general;gynaecology;ophthalmology;paediatrics;orthopaedics;dermatology;surgery;urology;dentist", "name": "Gazi Medical College and Hospital", "operator": "Dr. Gazi Mizanur Rahman"}}, {"type": "node", "id": 3360213293, "lat": 24.3193097, "lon": 89.6721271, "tags": {"amenity": "hospital", "name": "Adachaki Community Hospital", "operator": "Government"}}, {"type": "node", "id": 3381756304, "lat": 26.1563388, "lon": 88.9249713, "tags": {"addr:city": "Dimla", "addr:postcode": "5350", "amenity": "hospital", "emergency": "no", "name": "\u09a1\u09bf\u09ae\u09b2\u09be \u0989\u09aa\u099c\u09c7\u09b2\u09be \u09b8\u09cd\u09ac\u09be\u09b8\u09cd\u09a5\u09cd\u09af \u0995\u09ae\u09aa\u09cd\u09b2\u09c7\u0995\u09cd\u09b8", "name:bn": "\u09a1\u09bf\u09ae\u09b2\u09be \u0989\u09aa\u099c\u09c7\u09b2\u09be \u09b8\u09cd\u09ac\u09be\u09b8\u09cd\u09a5\u09cd\u09af \u0995\u09ae\u09aa\u09cd\u09b2\u09c7\u0995\u09cd\u09b8", "name:en": "Dimla Upazila Health Complex", "operator": "Government", "phone": "+8801730324683"}}, {"type": "node", "id": 3392229877, "lat": 27.679569, "lon": 84.4318936, "tags": {"amenity": "hospital", "healthcare": "hospital", "name": "Chitwan Valley Model Hospital"}}, {"type": "node", "id": 3392269915, "lat": 27.687011, "lon": 84.4296794, "tags": {"amenity": "hospital", "name": "Anamol Arayog Kandra"}}, {"type": "node", "id": 3392281251, "lat": 27.6810851, "lon": 84.4325728, "tags": {"amenity": "hospital", "healthcare": "hospital", "name": "Mankamana Hospital", "phone": "056524162"}}, {"type": "node", "id": 3392281252, "lat": 27.6813682, "lon": 84.4322248, "tags": {"amenity": "hospital", "healthcare": "hospital", "name": "Om Hospital", "phone": "056527673"}}, {"type": "node", "id": 3392281253, "lat": 27.6811392, "lon": 84.4316313, "tags": {"amenity": "hospital", "healthcare": "hospital", "name": "Shanti Hospital"}}, {"type": "node", "id": 3392281256, "lat": 27.6782161, "lon": 84.4307855, "tags": {"amenity": "hospital", "healthcare": "hospital", "name": "National Eye Hospital"}}, {"type": "node", "id": 3392283035, "lat": 27.6809433, "lon": 84.4335294, "tags": {"amenity": "hospital", "healthcare": "hospital", "name": "Bharatpur samudaik hospital", "phone": "056523200"}}, {"type": "node", "id": 3392283036, "lat": 27.6780877, "lon": 84.4315618, "tags": {"amenity": "hospital", "healthcare": "hospital", "name": "Chitwan Ankha Hospital", "phone": "056533780"}}, {"type": "node", "id": 3392283037, "lat": 27.6811711, "lon": 84.4315492, "tags": {"amenity": "hospital", "healthcare": "hospital", "name": "Jay Buddha Hospital", "phone": "056524536"}}, {"type": "node", "id": 3392283071, "lat": 27.685502, "lon": 84.4294439, "tags": {"amenity": "hospital", "name": "\u0928\u093f\u0915\u094b \u091a\u093f\u0932\u094d\u0921\u094d\u0930\u0947\u0928\u094d\u0938 \u0939\u0938\u094d\u092a\u093f\u091f\u0932 (\u092a\u094d\u0930\u093e.) \u0932\u093f", "name:en": "Niko Children's Hospital Pvt. Ltd.", "name:ne": "\u0928\u093f\u0915\u094b \u091a\u093f\u0932\u094d\u0921\u094d\u0930\u0947\u0928\u094d\u0938 \u0939\u0938\u094d\u092a\u093f\u091f\u0932 (\u092a\u094d\u0930\u093e.) \u0932\u093f"}}, {"type": "node", "id": 3392283072, "lat": 27.6859846, "lon": 84.4287179, "tags": {"amenity": "hospital", "name": "Alive Hospital"}}, {"type": "node", "id": 3392283801, "lat": 27.6839862, "lon": 84.4323063, "tags": {"amenity": "hospital", "name": "life care hospital"}}, {"type": "node", "id": 3392283802, "lat": 27.682554, "lon": 84.4302743, "tags": {"amenity": "hospital", "name": "Puspanjali Hospital"}}, {"type": "node", "id": 3392283803, "lat": 27.6809481, "lon": 84.4333861, "tags": {"amenity": "hospital", "healthcare": "hospital", "name": "asha hospital", "phone": "056525355"}}, {"type": "node", "id": 3392283804, "lat": 27.6813808, "lon": 84.4319255, "tags": {"amenity": "hospital", "healthcare": "hospital", "name": "Advance Community Hospital", "phone": "056520266"}}, {"type": "node", "id": 3392283805, "lat": 27.6803636, "lon": 84.4304008, "tags": {"amenity": "hospital", "healthcare": "hospital", "name": "Maulakalika Hospital", "phone": "056525798"}}, {"type": "node", "id": 3392331573, "lat": 27.6803508, "lon": 84.4332766, "tags": {"amenity": "hospital", "healthcare": "hospital", "name": "Asha Hospital pvt.ltd", "phone": "056-525355/525356"}}, {"type": "node", "id": 3392361328, "lat": 27.6806469, "lon": 84.4334678, "tags": {"amenity": "hospital", "healthcare": "hospital", "name": "Bharatpur Samaudayek Hospital"}}, {"type": "node", "id": 3392408845, "lat": 27.6962801, "lon": 84.422115, "tags": {"amenity": "hospital", "name": "kantipur dental", "phone": "056528538"}}, {"type": "node", "id": 3408490712, "lat": 27.8111146, "lon": 84.8334747, "tags": {"amenity": "hospital", "name": "Rajmarga Samudayak Hospital", "name:en": "Highway Community Hospital"}}, {"type": "node", "id": 3408491510, "lat": 27.8052449, "lon": 84.8793615, "tags": {"amenity": "hospital", "name": "Gajuri Hospital"}}, {"type": "node", "id": 3423191245, "lat": 20.7036708, "lon": 83.490138, "tags": {"amenity": "hospital", "name": "Ayurvedic Hospital, Balangir"}}, {"type": "node", "id": 3423195194, "lat": 20.7074022, "lon": 83.4944462, "tags": {"addr:district": "Balangir", "addr:full": "Near Pataneswari Temple, Balangir Muncipality, Balangir", "addr:postcode": "767001", "addr:state": "Odisha", "addr:subdistrict": "Balangir", "amenity": "hospital", "description": "District Hospital", "name": "DH Balangir", "source": "OpenGovernmentData"}}, {"type": "node", "id": 3431019595, "lat": 26.8253483, "lon": 87.2870304, "tags": {"amenity": "hospital", "name": "Red Cross Society Office"}}, {"type": "node", "id": 3446075301, "lat": 27.541439, "lon": 84.807784, "tags": {"amenity": "hospital", "name": "\u0906\u0901\u0916\u093e \u0905\u0938\u094d\u092a\u0924\u093e\u0932", "name:en": "eye hospital", "name:ne": "\u0906\u0901\u0916\u093e \u0905\u0938\u094d\u092a\u0924\u093e\u0932"}}, {"type": "node", "id": 3451909072, "lat": 27.6839787, "lon": 84.5067582, "tags": {"amenity": "hospital", "name": "Padampur Health Post"}}, {"type": "node", "id": 3455123727, "lat": 25.5860309, "lon": 85.8873844, "tags": {"amenity": "hospital", "designation": "HOSPITAL", "emergency": "yes", "healthcare": "hospital", "name": "PHC Bachhawara", "source": "GOVT HOSPITAL"}}, {"type": "node", "id": 3472527245, "lat": 27.5881643, "lon": 84.6023438, "tags": {"amenity": "hospital", "name": "Kathar HealthPost"}}, {"type": "node", "id": 3485939891, "lat": 26.4590078, "lon": 87.2908758, "tags": {"addr:city": "biratnagar", "addr:street": "madhumara", "amenity": "hospital", "name": "R.K children's hospital"}}, {"type": "node", "id": 3494699580, "lat": 27.4111084, "lon": 85.3646625, "tags": {"X": "85.36466248", "Y": "27.41110844", "amenity": "hospital", "districtna": "Makwanpur", "fixme": "Probably wrong location. Nothing to see on Bing", "healthtype": "Sub Health Post", "id": "0", "source": "UNOCHA", "vdccode": "C-NAR-31-005", "vdcname": "Betini"}}, {"type": "node", "id": 3494700138, "lat": 27.4446412, "lon": 85.275168, "tags": {"Fixme": "Seems to be wrongly located. Nothing to see on Bing", "X": "85.27516804", "Y": "27.44464116", "amenity": "hospital", "districtna": "Makwanpur", "healthtype": "Sub Health Post", "id": "0", "source": "UNOCHA", "vdccode": "C-NAR-31-030", "vdcname": "Manthali"}}, {"type": "node", "id": 3494710417, "lat": 28.0627405, "lon": 84.6197052, "tags": {"X": "84.61970523", "Y": "28.06274045", "amenity": "hospital", "districtna": "Gorkha", "fixme": "position", "healthtype": "Sub Health Post", "id": "0", "source": "UNOCHA", "vdccode": "W-GAN-36-024", "vdcname": "Gakhu"}}, {"type": "node", "id": 3494710460, "lat": 28.0769179, "lon": 84.7417608, "tags": {"X": "84.74178275", "Y": "28.07686545", "amenity": "hospital", "districtna": "Gorkha", "healthtype": "Sub Health Post", "id": "0", "source": "UNOCHA", "vdccode": "W-GAN-36-048", "vdcname": "Panchkhuwadeurali"}}, {"type": "node", "id": 3494710815, "lat": 28.1100888, "lon": 84.3306949, "tags": {"amenity": "hospital", "districtna": "Tanahu", "healthtype": "Sub Health Post", "source": "UNOCHA", "vdccode": "W-GAN-38-039", "vdcname": "Risti"}}, {"type": "node", "id": 3494711409, "lat": 28.1421939, "lon": 85.3364796, "tags": {"X": "85.33647957", "Y": "28.1421939", "amenity": "hospital", "healthtype": "Sub Center", "id": "0", "is_in:district": "Rasuwa", "source": "UNOCHA", "vdccode": "C-BAG-29-014", "vdcname": "Syafru"}}, {"type": "node", "id": 3497722515, "lat": 28.1758251, "lon": 85.0862239, "tags": {"amenity": "hospital", "emergency": "no", "name": "Healthpost", "source": "Nepa Maps"}}, {"type": "node", "id": 3499808391, "lat": 22.8011423, "lon": 86.1814155, "tags": {"addr:district": "East Singhbhum", "addr:full": "Jamshedpur", "addr:postcode": "831001", "addr:state": "Jharkhand", "amenity": "hospital", "name": "Tata Main Hospital", "source": "OpenGovernmentData"}}, {"type": "node", "id": 3506270627, "lat": 27.0153436, "lon": 84.975526, "tags": {"amenity": "hospital"}}, {"type": "node", "id": 3532265996, "lat": 27.7964923, "lon": 85.9092499, "tags": {"amenity": "hospital", "healthcare": "hospital", "name": "Bahrabise SHP"}}, {"type": "node", "id": 3536701593, "lat": 23.1738426, "lon": 89.5030255, "tags": {"addr:housenumber": "17", "addr:street": "750", "amenity": "hospital", "name": "High Light Eye Hospital"}}, {"type": "node", "id": 3583149294, "lat": 22.8966272, "lon": 89.5093048, "tags": {"addr:city": "khulna", "addr:postcode": "9203", "amenity": "hospital", "emergency": "yes", "healthcare": "hospital", "name": "Mamata clinic", "phone": "+8801688821399"}}, {"type": "node", "id": 3585016399, "lat": 23.3797308, "lon": 85.3285143, "tags": {"amenity": "hospital", "name": "Kripal Darshan", "name:sat": "\u1c60\u1c68\u1c64\u1c6f\u1c5f\u1c5e \u1c6b\u1c5a\u1c68\u1c65\u1c77\u1c5a\u1c71"}}, {"type": "node", "id": 3585031094, "lat": 23.3761979, "lon": 85.3328128, "tags": {"amenity": "hospital", "name": "New mediciner"}}, {"type": "node", "id": 3587864422, "lat": 26.7196758, "lon": 88.0490912, "tags": {"amenity": "hospital", "name": "Budhabare Health Post"}}, {"type": "node", "id": 3588100499, "lat": 26.7213681, "lon": 88.0505173, "tags": {"amenity": "hospital", "name": "Mahila Samudhaik Hospital"}}, {"type": "node", "id": 3588100500, "lat": 26.7190504, "lon": 88.0492183, "tags": {"amenity": "hospital", "name": "Ayurbedic Hospital"}}, {"type": "node", "id": 3589367214, "lat": 27.8684531, "lon": 85.6161532, "tags": {"amenity": "hospital", "name": "Lagarche Health Post"}}, {"type": "node", "id": 3640853145, "lat": 27.6947253, "lon": 85.2821685, "tags": {"amenity": "hospital", "healthcare": "hospital", "name": "\u0928\u0947\u092a\u093e\u0932 \u0928\u094d\u092f\u093e\u0938\u0928\u0932 \u0905\u0938\u094d\u092a\u0924\u093e\u0932", "name:en": "Nepal National Hospital", "name:ne": "\u0928\u0947\u092a\u093e\u0932 \u0928\u094d\u092f\u093e\u0938\u0928\u0932 \u0905\u0938\u094d\u092a\u0924\u093e\u0932", "operator": "Nepal National Hospital", "toilets:wheelchair": "yes", "wheelchair": "yes"}}, {"type": "node", "id": 3666610144, "lat": 26.6850027, "lon": 87.9910051, "tags": {"amenity": "hospital", "name": "MEDICAL HOUSE"}}, {"type": "node", "id": 3670045564, "lat": 25.2965812, "lon": 83.0013293, "tags": {"addr:district": "Varanasi", "addr:full": "B-27/88-G,Ravindrapuri,Bhelupur", "addr:postcode": "221005", "addr:state": "Uttar Pradesh", "amenity": "hospital", "healthcare": "hospital", "name": "Samvedna Hospital, Varanasi", "source": "OpenGovernmentData", "wheelchair": "limited"}}, {"type": "node", "id": 3678313106, "lat": 22.8040431, "lon": 86.2025846, "tags": {"addr:city": "jamshedpur", "addr:street": "main road sakchi", "amenity": "hospital", "name": "eye hospital", "phone": "06572432203"}}, {"type": "node", "id": 3681626477, "lat": 22.8256765, "lon": 86.1331011, "tags": {"addr:city": "jamshedpur", "addr:housenumber": "chhota gamharia", "addr:postcode": "832108", "addr:street": "tata kandra road", "amenity": "hospital", "name": "nursing home"}}, {"type": "node", "id": 3681630422, "lat": 22.7585375, "lon": 86.2010948, "tags": {"addr:district": "Purbi Singhbhum", "addr:full": "Jamshedpur, Khasmahal", "addr:postcode": "831002", "addr:state": "Jharkhand", "addr:subdistrict": "Golmuri-Cum-Jugsalai", "amenity": "hospital", "name": "Sadar Hospital,Jamshedpur", "source": "OpenGovernmentData"}}, {"type": "node", "id": 3689951142, "lat": 26.9890722, "lon": 84.8511368, "tags": {"addr:district": "East Champaran", "addr:full": "Raxaul", "addr:postcode": "845305", "addr:state": "Bihar", "amenity": "hospital", "name": "The Duncan Hospital", "source": "OpenGovernmentData"}}, {"type": "node", "id": 3702727074, "lat": 22.7869972, "lon": 86.1777241, "tags": {"addr:city": "Jamshedpur", "addr:postcode": "831001", "amenity": "hospital", "emergency": "yes", "operator": "Medica Super Speciality"}}, {"type": "node", "id": 3715059897, "lat": 22.1423439, "lon": 88.0905806, "tags": {"addr:city": "Haldia", "addr:district": "Medinipur East", "addr:full": "Viveknagar, P.O. Chaitanyapur (Haldia)", "addr:postcode": "721645", "addr:state": "West Bengal", "addr:street": "Brajalalchak-Kukrahati Road", "amenity": "hospital", "name": "Vivekananda Mission Asram Netra Niramay Niketan", "operator": "Vivekananda Mission Asram", "source": "OpenGovernmentData"}}, {"type": "node", "id": 3731340874, "lat": 24.077227, "lon": 89.614898, "tags": {"addr:city": "Bera", "addr:postcode": "6688", "addr:street": "Hospital Road", "amenity": "hospital", "emergency": "yes", "name": "Bera Upazilla Health Complex", "operator": "Government", "phone": "+8801730324690"}}, {"type": "node", "id": 3774564938, "lat": 21.2414376, "lon": 81.6232005, "tags": {"addr:city": "Raipur", "addr:postcode": "492001", "addr:street": "budhapara", "amenity": "hospital", "description": "hospital", "emergency": "yes", "healthcare": "hospital", "name": "bagri nursing home", "operator": "nursing"}}, {"type": "node", "id": 3776240715, "lat": 23.2053061, "lon": 89.9668575, "tags": {"amenity": "hospital"}}, {"type": "node", "id": 3777142424, "lat": 20.305642, "lon": 85.8316432, "tags": {"addr:district": "Khordha", "addr:full": "Plot No -251 Sainik School Road Unit-15 Bhubaneswar", "addr:postcode": "751005", "addr:state": "Odisha", "amenity": "hospital", "name": "Apollo Hospitals", "source": "OpenGovernmentData"}}, {"type": "node", "id": 3777142895, "lat": 20.2483697, "lon": 85.8415191, "tags": {"amenity": "hospital", "name": "Shree Hospitals"}}, {"type": "node", "id": 3787164078, "lat": 29.2196253, "lon": 81.2226321, "tags": {"amenity": "hospital", "name": "Bayalpata Hospital", "wheelchair": "yes"}}, {"type": "node", "id": 3814963528, "lat": 23.0415561, "lon": 89.6304735, "tags": {"addr:city": "Kalia", "addr:district": "Narail", "addr:place": "Kalia", "addr:postcode": "7520", "addr:province": "Khulna", "addr:street": "Boro Kalia Road", "addr:subdistrict": "Kalia", "amenity": "hospital", "name": "Niramoy Clinic"}}, {"type": "node", "id": 3815912423, "lat": 27.9375931, "lon": 85.6519501, "tags": {"amenity": "hospital", "name": "Dhulikhel Hospital Outreach Centre, Manekharka"}}, {"type": "node", "id": 3827017857, "lat": 22.9707724, "lon": 88.4651161, "tags": {"amenity": "hospital", "name": "Kalyani Eye Care and Laser Clinic"}}, {"type": "node", "id": 3827017858, "lat": 22.9687125, "lon": 88.4652265, "tags": {"amenity": "hospital", "name": "Royal Vision"}}, {"type": "node", "id": 3827017860, "lat": 22.9686793, "lon": 88.4652182, "tags": {"addr:city": "Kalyani", "addr:postcode": "741235", "amenity": "hospital", "name": "B C Roy Eye Clinic"}}, {"type": "node", "id": 3860610108, "lat": 22.9734061, "lon": 88.4556102, "tags": {"addr:city": "Kalyani", "addr:postcode": "741235", "amenity": "hospital", "name": "Manav Jiban Pharmacy"}}, {"type": "node", "id": 3860641390, "lat": 22.9792698, "lon": 88.4372693, "tags": {"addr:city": "Kalyani", "addr:postcode": "741235", "amenity": "hospital", "name": "Kalyani Nursing Home"}}, {"type": "node", "id": 3860641392, "lat": 22.9803156, "lon": 88.437854, "tags": {"addr:city": "Kalyani", "addr:postcode": "741235", "amenity": "hospital", "name": "Apollo Pharmacy"}}, {"type": "node", "id": 3920273527, "lat": 24.7366042, "lon": 85.0432321, "tags": {"amenity": "hospital"}}, {"type": "node", "id": 3920285024, "lat": 27.8998985, "lon": 83.933676, "tags": {"addr:city": "Sankhar", "addr:street": "Mohami Road", "amenity": "hospital", "emergency": "no", "healthcare": "hospital", "name": "Sankhar Health Post"}}, {"type": "node", "id": 3921551173, "lat": 28.0610351, "lon": 81.6321363, "tags": {"amenity": "hospital", "capacity:beds": "55", "contact:email": "tbnepalnpj5@gmail.com", "contact:phone": "81524267", "emergency": "yes", "facility:ambulance": "no", "facility:icu": "no", "facility:nicu": "no", "facility:operating_theatre": "no", "facility:ventilator": "yes", "facility:x-ray": "no", "name": "TB Nepal, Nepalgunj Tuberculosis Referal Center", "opening_hours": "10:00-16:30", "operator:type": "Government", "personnel:count": "35"}}, {"type": "node", "id": 3965247726, "lat": 24.6967871, "lon": 84.9802141, "tags": {"amenity": "hospital", "name": "Bhuripalo Hospital", "phone": "+919955819322"}}, {"type": "node", "id": 4067937518, "lat": 28.9573609, "lon": 82.8905635, "tags": {"amenity": "hospital", "name": "District hospital"}}, {"type": "node", "id": 4129499712, "lat": 22.5812129, "lon": 88.4254218, "tags": {"amenity": "hospital", "name": "Doctor"}}, {"type": "node", "id": 4132097725, "lat": 27.6909765, "lon": 85.3246923, "tags": {"amenity": "hospital", "name": "\u0938\u093f\u091f\u0940 \u0905\u0938\u094d\u092a\u0924\u093e\u0932", "name:en": "City Hospital", "name:ne": "\u0938\u093f\u091f\u0940 \u0905\u0938\u094d\u092a\u0924\u093e\u0932", "operator": "XYZ"}}, {"type": "node", "id": 4132510093, "lat": 27.7015906, "lon": 85.3275905, "tags": {"amenity": "hospital", "name": "\u0915\u093e\u0920\u092e\u093e\u0921\u094c\u0902 \u092e\u0947\u0921\u093f\u0915\u0932 \u0915\u0932\u0947\u091c", "name:en": "Kathmandu Medical College", "name:ne": "\u0915\u093e\u0920\u092e\u093e\u0921\u094c\u0902 \u092e\u0947\u0921\u093f\u0915\u0932 \u0915\u0932\u0947\u091c", "opening_hours": "24/7", "toilets:wheelchair": "no", "wheelchair": "yes"}}, {"type": "node", "id": 4133319212, "lat": 27.3857993, "lon": 89.8912219, "tags": {"amenity": "hospital", "description": "Basic Health Unit, provides medicine and vaccination", "name": "BHU"}}, {"type": "node", "id": 4146268492, "lat": 26.6902965, "lon": 88.3858419, "tags": {"amenity": "hospital", "healthcare": "hospital", "name": "North Bengal Medical Hospital & College"}}, {"type": "node", "id": 4147031666, "lat": 27.4654664, "lon": 83.4576314, "tags": {"amenity": "hospital"}}, {"type": "node", "id": 4152469225, "lat": 25.4573983, "lon": 81.8541354, "tags": {"addr:district": "Allahabad", "addr:full": "29- B, Pannalal Road, Near Indian Press Building", "addr:postcode": "211002", "addr:state": "Uttar Pradesh", "amenity": "hospital", "name": "Priti Hospital", "source": "OpenGovernmentData"}}, {"type": "node", "id": 4152488497, "lat": 25.436294, "lon": 81.8465893, "tags": {"addr:district": "Allahabad", "addr:full": "162, Bai Ka Bagh, Lowther Road", "addr:postcode": "211003", "addr:state": "Uttar Pradesh", "amenity": "hospital", "name": "Jeevan Jyoti Hospital, Allahabad", "source": "OpenGovernmentData"}}, {"type": "node", "id": 4200342854, "lat": 27.7921343, "lon": 84.6216375, "tags": {"amenity": "hospital", "name": "Kaule Dispensary"}}, {"type": "node", "id": 4208543590, "lat": 27.971878, "lon": 84.6748032, "tags": {"amenity": "hospital", "name": "Bungkot Hospital"}}, {"type": "node", "id": 4214868851, "lat": 27.452712, "lon": 89.6549287, "tags": {"addr:city": "Thimphu", "amenity": "hospital", "healthcare": "hospital", "name": "Satellite Health clinic", "operator": "Ministry of Health,"}}, {"type": "node", "id": 4225138790, "lat": 27.6720774, "lon": 85.4220862, "tags": {"addr:postcode": "44800", "addr:street": "Dudhpati", "amenity": "hospital", "name": "Bhaktapur Hospital Emergency Block"}}, {"type": "node", "id": 4240911790, "lat": 27.6713156, "lon": 86.049564, "tags": {"addr:city": "Charikot", "addr:postcode": "45500", "addr:street": "Kalinchwok Road", "amenity": "hospital", "emergency": "yes", "name": "\u091c\u093f\u0932\u094d\u0932\u093e \u0938\u094d\u0935\u093e\u0938\u094d\u0925\u094d\u092f \u0915\u093e\u0930\u094d\u092f\u093e\u0932\u092f", "name:en": "District Health Office", "name:ne": "\u091c\u093f\u0932\u094d\u0932\u093e \u0938\u094d\u0935\u093e\u0938\u094d\u0925\u094d\u092f \u0915\u093e\u0930\u094d\u092f\u093e\u0932\u092f", "website": "www.dhodolakha.gov.np"}}, {"type": "node", "id": 4241711741, "lat": 23.4113868, "lon": 85.2336127, "tags": {"addr:city": "Ratu,Kathitar chowk,Ranchi", "addr:postcode": "835222", "amenity": "hospital", "name": "Late ilyas azad hospital"}}, {"type": "node", "id": 4243043791, "lat": 27.6725806, "lon": 85.3879984, "tags": {"amenity": "hospital", "healthcare": "hospital", "name": "\u092e\u0927\u094d\u092f\u092a\u0941\u0930 \u0905\u0938\u094d\u092a\u0924\u093e\u0932", "name:en": "Madhyapur Hospital", "name:ne": "\u092e\u0927\u094d\u092f\u092a\u0941\u0930 \u0905\u0938\u094d\u092a\u0924\u093e\u0932"}}, {"type": "node", "id": 4246041122, "lat": 23.3758395, "lon": 85.3326437, "tags": {"addr:city": "Ranchi", "addr:housenumber": "OPPOSITE RWC ARTS BLOCK", "addr:postcode": "834001", "addr:street": "Circular Road.", "amenity": "hospital", "name": "THYRO CARE"}}, {"type": "node", "id": 4246041123, "lat": 23.3759602, "lon": 85.332684, "tags": {"addr:city": "Ranchi", "addr:housenumber": "OPPOSITE TANISQUE SHOWROOM", "addr:postcode": "834001", "addr:street": "Circular Road.", "amenity": "hospital", "name": "PEARL SKIN CLINIC"}}, {"type": "node", "id": 4261924702, "lat": 28.3755067, "lon": 83.8098997, "tags": {"amenity": "hospital", "healthcare": "hospital", "name": "Health post", "operator:type": "government", "source": "Yoyo Preset"}}, {"type": "node", "id": 4261924703, "lat": 28.3755397, "lon": 83.8097495, "tags": {"amenity": "hospital", "healthcare": "hospital", "name": "Childcare centre, Ghandruk", "source": "Yoyo Preset"}}, {"type": "node", "id": 4264064753, "lat": 27.617975, "lon": 85.3196166, "tags": {"amenity": "hospital", "name": "Family Hospital"}}, {"type": "node", "id": 4275734989, "lat": 27.5058563, "lon": 83.4541135, "tags": {"amenity": "hospital", "name": "bhim"}}, {"type": "node", "id": 4297395096, "lat": 28.0595708, "lon": 81.6172459, "tags": {"amenity": "hospital", "name": "Nepalgunj Medical college "}}, {"type": "node", "id": 4300710154, "lat": 26.971887, "lon": 87.3437792, "tags": {"amenity": "hospital", "emergency": "yes", "source": "survey"}}, {"type": "node", "id": 4319812767, "lat": 26.6860982, "lon": 87.9890032, "tags": {"amenity": "hospital", "emergency": "yes", "name": "Sankhar Hospital"}}, {"type": "node", "id": 4328996528, "lat": 27.6484976, "lon": 85.6208633, "tags": {"amenity": "hospital", "designation": "kantipur hospital branch", "emergency": "yes"}}, {"type": "node", "id": 4339288289, "lat": 22.8096271, "lon": 89.572642, "tags": {"amenity": "hospital", "healthcare": "hospital", "name": "Nargis Memorial Hospital (Pvt) Ltd."}}, {"type": "node", "id": 4357630389, "lat": 27.4685068, "lon": 89.6402858, "tags": {"addr:housenumber": "2", "addr:postcode": "11001", "addr:street": "Norzin Lam", "amenity": "hospital", "healthcare": "hospital", "name:en": "HISC"}}, {"type": "node", "id": 4367705591, "lat": 27.9015088, "lon": 85.1457841, "tags": {"amenity": "hospital", "name:en": "Panchakanaya Community Hospital"}}, {"type": "node", "id": 4369796989, "lat": 27.4558025, "lon": 89.6598614, "tags": {"addr:street": "Sama Lam", "amenity": "hospital", "emergency": "yes", "healthcare": "hospital", "name": "RBA Hospital (old)", "name:en": "Lungtenphu Army Hospital"}}, {"type": "node", "id": 4370810245, "lat": 27.4694181, "lon": 89.6385208, "tags": {"amenity": "hospital", "healthcare": "hospital", "name": "IMTART Hospital"}}, {"type": "node", "id": 4376903104, "lat": 25.6164025, "lon": 80.5241517, "tags": {"amenity": "hospital", "name": "government hospital"}}, {"type": "node", "id": 4388842951, "lat": 25.7350465, "lon": 89.2907846, "tags": {"amenity": "hospital"}}, {"type": "node", "id": 4391812490, "lat": 27.6349943, "lon": 86.2315954, "tags": {"amenity": "hospital", "name:zh": "jiri"}}, {"type": "node", "id": 4393701590, "lat": 27.6755499, "lon": 85.3520244, "tags": {"addr:street": "Arniko Raj Marga", "amenity": "hospital", "name": "\u0938\u0902\u091c\u0940\u0935\u0928\u0940 \u0939\u0947\u0932\u094d\u0925 \u0915\u0947\u092f\u0930 \u0938\u0947\u0928\u094d\u091f\u0930", "name:en": "Sanjeevani Health Care Center", "name:ne": "\u0938\u0902\u091c\u0940\u0935\u0928\u0940 \u0939\u0947\u0932\u094d\u0925 \u0915\u0947\u092f\u0930 \u0938\u0947\u0928\u094d\u091f\u0930", "opening_hours": "24/7", "phone": "+9779841245023"}}, {"type": "node", "id": 4398823789, "lat": 27.4419931, "lon": 85.0792469, "tags": {"amenity": "hospital", "name:en": "Public Health Post", "opening_hours": "24/7"}}, {"type": "node", "id": 4404082824, "lat": 27.8701503, "lon": 82.5276859, "tags": {"amenity": "hospital", "name": "\u0932\u092e\u0939\u0940 \u0938\u0930\u094d\u092a\u0926\u0902\u0936 \u0909\u092a\u091a\u093e\u0930 \u0915\u0947\u0928\u094d\u0926\u094d\u0930", "name:en": "Lamahi SnakeBite Treatment Center", "name:ne": "\u0932\u092e\u0939\u0940 \u0938\u0930\u094d\u092a\u0926\u0902\u0936 \u0909\u092a\u091a\u093e\u0930 \u0915\u0947\u0928\u094d\u0926\u094d\u0930"}}, {"type": "node", "id": 4406938590, "lat": 26.7376329, "lon": 85.9198093, "tags": {"addr:street": "Ramanand Chowk Road", "amenity": "hospital", "email": "dr.nagendraprasad@gmail.com", "name:en": "Araddhya Hospital Pvt. Ltd. Ramanand Chowk, Janakpur, Nepal.", "opening_hours": "24/7", "phone": "+9779844274501"}}, {"type": "node", "id": 4407834159, "lat": 27.9938874, "lon": 85.2034632, "tags": {"addr:city": "Kalikasthan", "addr:postcode": "45003", "amenity": "hospital", "emergency": "yes", "name": "Kalika Community Hospital"}}, {"type": "node", "id": 4418393329, "lat": 28.2462841, "lon": 82.7297233, "tags": {"amenity": "hospital", "name": "Government Hospital", "operator": "Sub Health Post"}}, {"type": "node", "id": 4418397309, "lat": 27.6268892, "lon": 84.0905131, "tags": {"amenity": "hospital", "name": "madhyabindu samudayik hospital"}}, {"type": "node", "id": 4418798768, "lat": 26.8929536, "lon": 81.0676311, "tags": {"addr:district": "Lucknow", "addr:full": "233, Tiwariganj,Faizabad Road,Via Chinhat", "addr:postcode": "226016", "addr:state": "Uttar Pradesh", "amenity": "hospital", "name": "Saraswathi Hospital and Research Centre", "source": "OpenGovernmentData"}}, {"type": "node", "id": 4419833268, "lat": 22.0741311, "lon": 82.1583685, "tags": {"addr:city": "BILASPUR", "addr:street": "near by rajiv plaza", "amenity": "hospital", "emergency": "yes", "name": "jila  chikitsalay", "operator": "ritu , tanya"}}, {"type": "node", "id": 4421468431, "lat": 22.0888774, "lon": 82.1520889, "tags": {"addr:city": "bilaspur", "addr:district": "Bilaspur", "addr:full": "Sadar Vallabh Bhai Patel hospital", "addr:postcode": "495009", "addr:state": "Chhattisgarh", "amenity": "hospital", "contact:phone": "7752230030", "name": "Chhattisgarh Institute of Medical Sciences Hospital", "operator:type": "government", "source": "OpenGovernmentData", "website": "https://cimsbilaspur.ac.in/"}}, {"type": "node", "id": 4421487645, "lat": 22.0721506, "lon": 82.171635, "tags": {"amenity": "hospital", "name": "lal chandani hospital"}}, {"type": "node", "id": 4421494773, "lat": 27.455188, "lon": 89.660783, "tags": {"addr:street": "Lungten Lam", "amenity": "hospital", "healthcare": "hospital", "name": "Hospital", "name:en": "Military Hospital"}}, {"type": "node", "id": 4422564794, "lat": 27.667308, "lon": 84.1796081, "tags": {"addr:street": "Mahendra Highway", "amenity": "hospital", "name:en": "pradhan medical hall", "opening_hours": "24/7"}}, {"type": "node", "id": 4423819192, "lat": 27.6665427, "lon": 84.1792127, "tags": {"amenity": "hospital", "name:en": "pandey pet clinic"}}, {"type": "node", "id": 4427673990, "lat": 26.9188249, "lon": 80.9777199, "tags": {"amenity": "hospital"}}, {"type": "node", "id": 4428414097, "lat": 27.4574052, "lon": 89.647131, "tags": {"addr:city": "Thimphu", "addr:housenumber": "4", "addr:postcode": "11001", "addr:street": "Zamdo Lam", "amenity": "hospital", "healthcare": "hospital", "name": "Menlha Phramacy"}}, {"type": "node", "id": 4428414291, "lat": 27.4574678, "lon": 89.6470529, "tags": {"addr:city": "Thimphu", "addr:housenumber": "4", "addr:postcode": "11001", "addr:street": "Zamdo Lam", "amenity": "hospital", "healthcare": "hospital", "name": "Padkar Diagnostic Center"}}, {"type": "node", "id": 4436436491, "lat": 27.6533235, "lon": 84.1080758, "tags": {"amenity": "hospital", "name:en": "Manakamana Hospital"}}, {"type": "node", "id": 4436465289, "lat": 27.6559663, "lon": 84.1112624, "tags": {"amenity": "hospital", "name:en": "Government Health Post"}}, {"type": "node", "id": 4445104811, "lat": 21.2130814, "lon": 81.6537238, "tags": {"addr:city": "Raipur", "addr:district": "Raipur", "addr:full": "(Ramkrishna Care Medical Sciences Pvt Ltd) Aurobindo Enclave,Pachpedi Naka,Dhamatri Road", "addr:postcode": "492001", "addr:state": "Chhattisgarh", "addr:street": "Aurobindo Enclave, Pachpedi Naka, Dhamtari Road, NH43,", "amenity": "hospital", "emergency": "no", "name": "Ramkrishna Care Hospital", "phone": "+91 7713003300", "source": "OpenGovernmentData", "website": "https://www.carehospitals.com/"}}, {"type": "node", "id": 4445112827, "lat": 21.2132613, "lon": 81.657736, "tags": {"addr:city": "Raipur", "addr:district": "Raipur", "addr:full": "Dhamtari Road, Lalpur Near Pachpedi Naka", "addr:postcode": "492015", "addr:state": "Chhattisgarh", "addr:street": "Dhamtari Road, Lalpur", "amenity": "hospital", "emergency": "yes", "name": "Narayana Hrudayalaya Mmi Hospital (Managed By Narayana Hrudayalaya Pvt Ltd - Bangalore) - Raipur", "phone": "+91 7714210901", "source": "OpenGovernmentData"}}, {"type": "node", "id": 4445113471, "lat": 21.2584938, "lon": 81.6060273, "tags": {"addr:city": "Raipur", "addr:district": "Raipur", "addr:full": "Kota Gudhiyari Road, Behind Hotel Piccadilly", "addr:postcode": "492010", "addr:state": "Chhattisgarh", "addr:street": "Gudhiyari Road, Behind hotel piccadily, kota", "amenity": "hospital", "contact:phone": "7712575833", "emergency": "yes", "name": "Suyash Superspeciality Hospital", "phone": "+91 7712575275", "source": "OpenGovernmentData", "website": "www.suyashhospitalsraipur.com"}}, {"type": "node", "id": 4445119946, "lat": 21.2131689, "lon": 81.6561777, "tags": {"addr:city": "Raipur", "addr:postcode": "492001", "addr:street": "Infront of colors mall, Dhamtari road", "amenity": "hospital", "emergency": "yes", "name": "Shri Ganesh Vinayak Eye Hospital", "phone": "+91 7714077741", "website": "https://sgveh.com/"}}, {"type": "node", "id": 4445129008, "lat": 21.2520112, "lon": 81.6632415, "tags": {"addr:city": "Raipur", "addr:district": "Raipur", "addr:full": "Sector - 1, Shankar Nagar", "addr:postcode": "492007", "addr:state": "Chhattisgarh", "addr:street": "Infront of shankar nagargarden, main road, sector-1, shankar nagar,", "amenity": "hospital", "contact:phone": "7712425778", "emergency": "yes", "name": "Vardaan Hospital (Unit Of Jindal Medicare)", "phone": "+91 7712425778", "source": "OpenGovernmentData", "website": "www.vardaanhospital.com"}}, {"type": "node", "id": 4445137285, "lat": 21.2349337, "lon": 81.6413322, "tags": {"addr:city": "Raipur", "addr:district": "Raipur", "addr:full": "Opposite Ashirwad Bhawan, Byron Bazar", "addr:postcode": "492001", "addr:state": "Chhattisgarh", "addr:street": "Near mahila police thane, byron bazar road", "amenity": "hospital", "emergency": "yes", "name": "Bal Gopal Children Hospital and Research Institute", "phone": "+91 7714225600", "source": "OpenGovernmentData", "website": "www.balgopalhospital.in"}}, {"type": "node", "id": 4445146001, "lat": 21.2403202, "lon": 81.6293508, "tags": {"addr:city": "Raipur", "addr:postcode": "492001", "addr:street": "TatyaparaChowk, GE road, Tatyapara Raipur", "amenity": "hospital", "name": "Yashwant Hospital", "phone": "+91 7712539333", "website": "https://www.vyhospital.in/"}}, {"type": "node", "id": 4454310593, "lat": 26.7177708, "lon": 87.685745, "tags": {"amenity": "hospital", "name:en": "Health center, Beldangi Two(II)"}}, {"type": "node", "id": 4462955789, "lat": 27.50935, "lon": 85.9351683, "tags": {"amenity": "hospital", "name:en": "Doramba"}}, {"type": "node", "id": 4488075627, "lat": 28.3296534, "lon": 84.1107204, "tags": {"amenity": "hospital", "name": "Nepal Red Cross Society, Nsmsrjung Sub Chapter", "note": "on community building", "office": "ngo", "phone": "+977 9846048117;+977 9856032614"}}, {"type": "node", "id": 4488515992, "lat": 27.8118991, "lon": 82.5369278, "tags": {"amenity": "hospital", "internet_access": "wlan", "name:en": "puspa clinic", "name:hi": "\u092a\u0941\u0937\u094d\u092a\u093e \u092e\u0947\u0921\u093f\u0915\u0932"}}, {"type": "node", "id": 4496257621, "lat": 28.0705189, "lon": 84.3713274, "tags": {"amenity": "hospital", "name": "Chandrawati Medical"}}, {"type": "node", "id": 4496257636, "lat": 28.0712288, "lon": 84.3726012, "tags": {"amenity": "hospital", "name": "Chandrawati Vaccination Center"}}, {"type": "node", "id": 4499885483, "lat": 27.4452844, "lon": 89.6608666, "tags": {"addr:street": "\u00d3lakha Lam", "amenity": "hospital", "name": "Kuenphen Rabten[pharmacy]"}}, {"type": "node", "id": 4499885846, "lat": 27.4460062, "lon": 89.6605936, "tags": {"addr:street": "\u00d3lakha Lam", "amenity": "hospital", "name": "Druk pharmacy"}}, {"type": "node", "id": 4504643591, "lat": 26.4728365, "lon": 87.2755094, "tags": {"addr:street": "Chandani Marg", "amenity": "hospital", "email": "info@lifeguardhospital.com.np", "name": "Lifeguard Hospital", "name:en": "Lifeguard Hospital", "phone": "00977-021-538812", "website": "http://www.lifeguardhospital.com.np/"}}, {"type": "node", "id": 4506115297, "lat": 26.9044958, "lon": 80.9745792, "tags": {"addr:street": "Kanchana Bihari Marg", "amenity": "hospital", "name:en": "Metro Hospital"}}, {"type": "node", "id": 4506418889, "lat": 26.8977996, "lon": 80.9687508, "tags": {"addr:district": "Lucknow", "addr:full": "C-50/51, Trimurnigram,Ring Road,Kalyanpur", "addr:postcode": "226022", "addr:state": "Uttar Pradesh", "addr:street": "Ring Road", "amenity": "hospital", "name": "Jagrani Hospital", "name:en": "Jagrani Hospital", "source": "OpenGovernmentData", "website": "dietician.jagranihospital.com"}}, {"type": "node", "id": 4513009489, "lat": 21.6611692, "lon": 82.1411607, "tags": {"amenity": "hospital", "name": "Balodabazar", "name:en": "Balodabazar", "name:hi": "\u092c\u0932\u094c\u0926\u093e\u092c\u093e\u091c\u093e\u0930"}}, {"type": "node", "id": 4532457890, "lat": 27.6307063, "lon": 85.5353208, "tags": {"addr:street": "Budol M.", "amenity": "hospital", "email": "Remeh.bnp@gmail.com", "name:en": "Reyukai Eye Hospital", "phone": "011661580"}}, {"type": "node", "id": 4537066892, "lat": 27.7204629, "lon": 85.3622164, "tags": {"amenity": "hospital", "healthcare": "hospital", "name": "\u091a\u093e\u0907\u0928\u093e \u0939\u0938\u094d\u092a\u093f\u091f\u0932 (\u092a\u0940) \u0932\u093f\u092e\u093f\u091f\u0947\u0921", "name:en": "China Hospital (P) Ltd.", "name:ne": "\u091a\u093e\u0907\u0928\u093e \u0939\u0938\u094d\u092a\u093f\u091f\u0932 (\u092a\u0940) \u0932\u093f\u092e\u093f\u091f\u0947\u0921", "opening_hours": "Mo-Su 09:00-17:00", "phone": "01-4482275"}}, {"type": "node", "id": 4548854493, "lat": 27.9768326, "lon": 84.2689367, "tags": {"amenity": "hospital", "name": "Shree Ratnahari Memorial Hospital"}}, {"type": "node", "id": 4553817101, "lat": 27.6728273, "lon": 84.5290998, "tags": {"amenity": "hospital", "name:en": "Kholesimal Hospital"}},