{"version": 0.6, "generator": "Overpass API 0.7.61.5 4133829e", "osm3s": {"timestamp_osm_base": "2023-10-31T20:54:41Z", "copyright": "The data included in this document is from www.openstreetmap.org. The data is made available under ODbL."}, "elements": [{"type": "node", "id": 266488791, "lat": 25.3088637, "lon": 55.3689992, "tags": {"amenity": "hospital", "healthcare": "hospital", "name": "Al Taawun Mall", "name:en": "Al Taawun Mall"}}, {"type": "node", "id": 430571399, "lat": 26.3036137, "lon": 50.2004567, "tags": {"amenity": "hospital", "name": "Saad Specialist Hospital (11,567 patient )"}}, {"type": "node", "id": 615086746, "lat": 23.6152954, "lon": 58.5966638, "tags": {"amenity": "hospital", "name": "Waljat Hospital", "name:ml": "\u0d35\u0d7d\u0d1c\u0d3e\u0d24\u0d4d\u0d24\u0d4d \u0d06\u0d36\u0d41\u0d2a\u0d24\u0d4d\u0d30\u0d3f"}}, {"type": "node", "id": 626423070, "lat": 25.0292611, "lon": 55.1147026, "tags": {"amenity": "hospital", "emergency": "yes", "name": "Lifeline Hospital", "name:en": "Lifeline Hospital"}}, {"type": "node", "id": 739149908, "lat": 26.2542184, "lon": 50.6449283, "tags": {"amenity": "hospital", "name": "NBB Arad Health Centre", "name:en": "NBB Arad Health Centre"}}, {"type": "node", "id": 776005592, "lat": 26.2171501, "lon": 50.5717556, "tags": {"amenity": "hospital", "name": "Salmanyia Medical Complex", "name:en": "Salmanyia Medical Complex"}}, {"type": "node", "id": 776005604, "lat": 26.2175185, "lon": 50.5672168, "tags": {"amenity": "hospital", "name": "Ministry of Health Phsyciatric Hospital", "name:en": "Ministry of Health Phsyciatric Hospital"}}, {"type": "node", "id": 840555513, "lat": 24.4630356, "lon": 54.3677488, "tags": {"addr:city": "\u0623\u0628\u0648 \u0638\u0628\u064a", "amenity": "hospital", "healthcare": "hospital"}}, {"type": "node", "id": 914626057, "lat": 25.3416747, "lon": 55.43209, "tags": {"amenity": "hospital", "name": "Al Qassimi Hospital", "name:en": "Al Qassimi Hospital"}}, {"type": "node", "id": 916327476, "lat": 24.4172257, "lon": 54.4615873, "tags": {"amenity": "hospital", "emergency": "yes", "healthcare": "hospital", "name": "Medi Clinic airport Rd", "name:en": "Al Noor Hospital"}}, {"type": "node", "id": 1012451802, "lat": 24.2592656, "lon": 55.7727013, "tags": {"amenity": "hospital", "healthcare": "hospital", "name": "\u0645\u062c\u0645\u0639 \u064a\u0627\u0633 \u0627\u0644\u0637\u0628\u064a", "name:en": "Yas Medical center", "website": "https://www.yas.med.om/"}}, {"type": "node", "id": 1020157392, "lat": 24.3377983, "lon": 56.7345046, "tags": {"amenity": "hospital", "name": "\u0627\u0644\u0631\u0641\u0627\u0639\u0629", "name:ar": "\u0627\u0644\u0631\u0641\u0627\u0639\u0629", "name:en": "Al Raffah"}}, {"type": "node", "id": 1022587366, "lat": 24.3507498, "lon": 56.7336249, "tags": {"amenity": "hospital", "name": "Al Raffah", "name:en": "Al Raffah"}}, {"type": "node", "id": 1069810626, "lat": 24.4929813, "lon": 54.3600568, "tags": {"amenity": "hospital", "name": "Franco Emirien", "name:en": "Franco Emirien", "source": "Kaart Ground Survey 2017"}}, {"type": "node", "id": 1108918873, "lat": 25.2389325, "lon": 55.3025801, "tags": {"amenity": "hospital", "healthcare": "hospital", "name": "\u062a\u0645\u062a \u0627\u0632\u0627\u0644\u062a\u0647", "name:ar": "\u062a\u0645\u062a \u0627\u0632\u0627\u0644\u062a\u0647"}}, {"type": "node", "id": 1172943645, "lat": 26.2028806, "lon": 50.5959675, "tags": {"amenity": "hospital", "name": "Kims Bahrain Medical Centre", "name:en": "Kims Bahrain Medical Centre"}}, {"type": "node", "id": 1187237858, "lat": 24.2145803, "lon": 55.7577996, "tags": {"amenity": "hospital", "name": "Specialised Medical Care Hospital", "name:en": "Specialised Medical Care Hospital"}}, {"type": "node", "id": 1187652402, "lat": 25.1820685, "lon": 55.2356582, "tags": {"amenity": "hospital", "name": "Samaa Medical Centre", "name:en": "Samaa Medical Centre"}}, {"type": "node", "id": 1187656221, "lat": 25.1013394, "lon": 55.1608675, "tags": {"amenity": "hospital", "name": "Welcare Hospital", "name:en": "Welcare Hospital"}}, {"type": "node", "id": 1198273499, "lat": 25.2703474, "lon": 55.3145494, "tags": {"addr:city": "\u062f\u0628\u064a", "addr:street": "\u0634\u0627\u0631\u0639 \u0645\u0633\u062a\u0634\u0641\u0649 \u0627\u0644\u0645\u0643\u062a\u0648\u0645", "amenity": "hospital", "name": "\u0645\u0633\u062a\u0634\u0641\u0649 \u0627\u0644\u0645\u0643\u062a\u0648\u0645", "name:ar": "\u0645\u0633\u062a\u0634\u0641\u0649 \u0627\u0644\u0645\u0643\u062a\u0648\u0645", "name:en": "Al Maktoum Hospital"}}, {"type": "node", "id": 1198282901, "lat": 24.2301282, "lon": 55.7427619, "tags": {"amenity": "hospital", "name": "NMC Specialty Hospital Al Ain", "name:en": "NMC Specialty Hospital Al Ain"}}, {"type": "node", "id": 1272998626, "lat": 25.2947087, "lon": 51.5024128, "tags": {"admin_level": "10", "amenity": "hospital", "name": "Hamad Medical City (37)", "name:en": "Hamad Medical City (37)"}}, {"type": "node", "id": 1305608692, "lat": 26.2190001, "lon": 50.5746636, "tags": {"amenity": "hospital", "name": "Al Reaya Medical Complex", "name:en": "Al Reaya Medical Complex"}}, {"type": "node", "id": 1315864856, "lat": 25.6354564, "lon": 56.267094, "tags": {"amenity": "hospital"}}, {"type": "node", "id": 1330403062, "lat": 26.459296, "lon": 50.0872241, "tags": {"amenity": "hospital", "emergency": "no", "name": "RAM Dental Clinics"}}, {"type": "node", "id": 1354710123, "lat": 25.3012605, "lon": 55.3730205, "tags": {"amenity": "hospital", "designation": "Sunny Medical Centre", "healthcare": "hospital", "name": "Sunny Medical Centre", "name:en": "Sunny Medical Centre"}}, {"type": "node", "id": 1357692409, "lat": 25.3014024, "lon": 55.3751321, "tags": {"amenity": "hospital", "healthcare": "hospital", "name": "Sahara Medical Centre", "name:en": "Sahara Medical Centre", "source": "Kaart Ground Survey 2017"}}, {"type": "node", "id": 1368754888, "lat": 25.2765957, "lon": 55.3460688, "tags": {"amenity": "hospital", "emergency": "yes", "name": "New Medical Centre", "name:en": "New Medical Centre"}}, {"type": "node", "id": 1376019586, "lat": 24.4900929, "lon": 54.3731241, "tags": {"addr:city": "\u0623\u0628\u0648 \u0638\u0628\u064a", "addr:city:ar": "\u0623\u0628\u0648 \u0638\u0628\u064a", "addr:city:en": "Abu Dhabi", "addr:city:ur": "\u0627\u0628\u0648\u0638\u06c1\u0628\u06cc", "addr:country": "AE", "amenity": "hospital", "healthcare": "hospital", "name": "National Hospital", "name:en": "National Hospital", "opening_hours": "24/7"}}, {"type": "node", "id": 1502792363, "lat": 25.2833757, "lon": 55.3484865, "tags": {"amenity": "hospital", "emergency": "no", "name": "Hor-Al-Anz Primary Health Centre", "name:en": "Hor-Al-Anz Primary Health Centre"}}, {"type": "node", "id": 1509507965, "lat": 25.2764609, "lon": 55.3370717, "tags": {"amenity": "hospital", "emergency": "no", "name": "Aster Medical Centre", "name:en": "Aster Medical Centre"}}, {"type": "node", "id": 1532270489, "lat": 25.2441836, "lon": 55.318893, "tags": {"amenity": "hospital", "emergency": "yes", "healthcare": "hospital", "name": "\u0645\u0633\u062a\u0634\u0641\u0649 \u0631\u0627\u0634\u062f", "name:en": "Rashid Hospital", "name:ml": "\u0d31\u0d3e\u0d37\u0d3f\u0d26\u0d4d \u0d06\u0d36\u0d41\u0d2a\u0d24\u0d4d\u0d30\u0d3f", "wikidata": "Q7294896", "wikipedia": "en:Rashid Hospital"}}, {"type": "node", "id": 1694689334, "lat": 28.6823315, "lon": 57.7491295, "tags": {"amenity": "hospital", "emergency": "yes", "name": "\u0628\u06cc\u0645\u0627\u0631\u0633\u062a\u0627\u0646 \u0627\u0645\u0627\u0645 \u062e\u0645\u06cc\u0646\u06cc", "name:en": "Emam Khomeini Hospital"}}, {"type": "node", "id": 1719823942, "lat": 23.5888374, "lon": 58.5326465, "tags": {"alt_name": "\u0645\u0633\u062a\u0634\u0641\u0649 \u0627\u0644\u0646\u0647\u0636\u0629", "amenity": "hospital", "int_name": "Mustashf\u00e1 an Nah\u1e11a, An Nahda Hospital, \u0645\u0633\u062a\u0634\u0641\u0649 \u0627\u0644\u0646\u0647\u0636\u0629, Mustashfa an Nahda, An Nahda Hospital, \u0645\u0633\u062a\u0634\u0641\u0649 \u0627\u0644\u0646\u0647\u0636\u0629", "name": "\u0645\u0633\u062a\u0634\u0641\u0649 \u0627\u0644\u0646\u0647\u0636\u0629", "name:ar1": "\u0645\u0633\u062a\u0634\u0641\u0649 \u0627\u0644\u0646\u0647\u0636\u0629", "name:en": "Al Nahda Hostpital"}}, {"type": "node", "id": 1719823981, "lat": 23.5796269, "lon": 58.5693881, "tags": {"alt_name": "\u0645\u0633\u062a\u0634\u0641\u0649 \u0627\u0644\u0631\u062d\u0645\u0629", "amenity": "hospital", "int_name": "Mustashf\u00e1 ar Ra\u1e29mah, \u0645\u0633\u062a\u0634\u0641\u0649 \u0627\u0644\u0631\u062d\u0645\u0629, Mustashfa ar Rahmah, \u0645\u0633\u062a\u0634\u0641\u0649 \u0627\u0644\u0631\u062d\u0645\u0629", "name": "\u0645\u0633\u062a\u0634\u0641\u0649 \u0627\u0644\u0631\u062d\u0645\u0629", "name:ar": "\u0645\u0633\u062a\u0634\u0641\u0649 \u0627\u0644\u0631\u062d\u0645\u0629", "name:ar1": "\u0645\u0633\u062a\u0634\u0641\u0649 \u0627\u0644\u0631\u062d\u0645\u0629", "name:de": "Mustashfa ar Rahmah", "name:en": "Mustashfa ar Rahmah", "name:fr": "Mustashfa ar Rahmah"}}, {"type": "node", "id": 1719830869, "lat": 23.6201241, "lon": 58.5611895, "tags": {"alt_name": "\u0645\u0631\u0643\u0632 \u0635\u062d\u064a \u0645\u0637\u0631\u062d", "amenity": "hospital", "int_name": "Markaz \u015ei\u1e29\u1e29\u012b Mu\u0163ra\u1e29, \u0645\u0631\u0643\u0632 \u0635\u062d\u064a \u0645\u0637\u0631\u062d, Markaz Sihhi Mutrah, \u0645\u0631\u0643\u0632 \u0635\u062d\u064a \u0645\u0637\u0631\u062d", "name": "\u0645\u0631\u0643\u0632 \u0635\u062d\u064a \u0645\u0637\u0631\u062d", "name:ar": "\u0645\u0631\u0643\u0632 \u0635\u062d\u064a \u0645\u0637\u0631\u062d", "name:en": "Markaz Sihhi Mutrah"}}, {"type": "node", "id": 1719830876, "lat": 23.620299, "lon": 58.5611806, "tags": {"amenity": "hospital", "int_name": "Mutrah Health Centre, Mutrah Health Centre", "name": "\u0645\u0631\u0643\u0632 \u0645\u0637\u0631\u062d \u0627\u0644\u0635\u062d\u064a", "name:ar": "\u0645\u0631\u0643\u0632 \u0645\u0637\u0631\u062d \u0627\u0644\u0635\u062d\u064a", "name:de": "Mutrah Health Centre", "name:en": "Mutrah Health Centre", "name:fr": "Mutrah Health Centre"}}, {"type": "node", "id": 1719837141, "lat": 23.5079341, "lon": 58.6618291, "tags": {"alt_name": "\u0645\u0631\u0643\u0632 \u0635\u062d\u064a \u064a\u062a\u064a", "amenity": "hospital", "int_name": "Markaz \u015ei\u1e29\u1e29\u012b Yit\u012b, \u0645\u0631\u0643\u0632 \u0635\u062d\u064a \u064a\u062a\u064a, Yiti Health Centre, Markaz Sihhi Yiti, \u0645\u0631\u0643\u0632 \u0635\u062d\u064a \u064a\u062a\u064a, Yiti Health Centre", "is_in": "Oman , \u0639\u064f\u0645\u0627\u0646", "name": "\u0645\u0631\u0643\u0632 \u0635\u062d\u064a \u064a\u062a\u064a", "name:ar": "\u0645\u0631\u0643\u0632 \u0635\u062d\u064a \u064a\u062a\u064a", "name:ar1": "\u0645\u0631\u0643\u0632 \u0635\u062d\u064a \u064a\u062a\u064a", "name:de": "Markaz Sihhi Yiti", "name:en": "Yitti Health Centre", "name:fr": "Markaz Sihhi Yiti"}}, {"type": "node", "id": 1754891297, "lat": 25.2995965, "lon": 55.489687, "tags": {"amenity": "hospital", "name": "University Hospital Sharjah", "name:en": "University Hospital Sharjah"}}, {"type": "node", "id": 1876498389, "lat": 24.4735767, "lon": 54.3188383, "tags": {"amenity": "hospital", "designation": "Clinic for Urology and Pediatric Urology", "email": "info@marinahpc.com", "healthcare": "hospital", "name": "Burjeel MHPC", "name:en": "Burjeel MHPC", "source": "Dr. Jorg Meyer", "website": "http://www.marinahpc.com"}}, {"type": "node", "id": 1911616975, "lat": 26.2801085, "lon": 50.6297117, "tags": {"amenity": "hospital", "name": "NBB Dair Health Centre", "name:en": "NBB Dair Health Centre"}}, {"type": "node", "id": 1969601368, "lat": 25.1602543, "lon": 51.4062128, "tags": {"amenity": "hospital", "designation": "governemt hospital", "emergency": "yes", "name": "Workers Health Centre", "name:en": "Workers Health Center"}}, {"type": "node", "id": 2000732534, "lat": 26.5662975, "lon": 50.0838614, "tags": {"amenity": "hospital", "emergency": "no", "healthcare": "hospital", "name": "Rabiyiah Primary Healthcare", "name:ar": "\u0645\u0631\u0643\u0632 \u0627\u0644\u0631\u0639\u0627\u064a\u0629 \u0627\u0644\u0623\u0648\u0644\u064a\u0629 \u0628\u0627\u0644\u0631\u0628\u064a\u0639\u064a\u0629"}}, {"type": "node", "id": 2127655657, "lat": 26.2694837, "lon": 50.6139688, "tags": {"amenity": "hospital", "name": "Muharraq Maternity and Geriatric Hospital", "name:en": "Muharraq Maternity and Geriatric Hospital"}}, {"type": "node", "id": 2177553265, "lat": 25.416554, "lon": 55.4957304, "tags": {"amenity": "hospital", "name": "Khalifa Hospital", "name:ar": "\u0645\u0633\u062a\u0634\u0641\u0649 \u0627\u0644\u0634\u064a\u062e \u062e\u0644\u064a\u0641\u0629", "name:en": "Khalifa Hospital"}}, {"type": "node", "id": 2266827999, "lat": 26.2524132, "lon": 50.6141539, "tags": {"amenity": "hospital", "name": "Shaikh Salman Health Centre", "name:en": "Shaikh Salman Health Centre"}}, {"type": "node", "id": 2323452366, "lat": 25.6820451, "lon": 51.4981894, "tags": {"amenity": "hospital", "emergency": "no", "healthcare": "hospital", "name": "Al Khor Primary Health Clinic", "name:en": "Al Khor Primary Health Clinic"}}, {"type": "node", "id": 2375621534, "lat": 25.0490227, "lon": 55.1299784, "tags": {"addr:street": "1 A Street", "amenity": "hospital", "healthcare": "hospital", "name": "Aster Medical", "name:en": "Aster Medical"}}, {"type": "node", "id": 2383781436, "lat": 26.5477543, "lon": 50.0049402, "tags": {"amenity": "hospital", "name": "\u0645\u0631\u0643\u0632 \u0627\u0644\u0631\u0639\u0627\u064a\u0629 \u0627\u0644\u0635\u062d\u064a\u0629 \u0627\u0644\u0623\u0648\u0644\u064a\u0629 \u0628\u0627\u0644\u0634\u0648\u064a\u0643\u0629"}}, {"type": "node", "id": 2400414766, "lat": 23.5729535, "lon": 58.3886651, "tags": {"amenity": "hospital", "name": "\u0645\u062c\u0645\u0639 \u0628\u0648\u0634\u0631 \u0627\u0644\u0635\u062d\u064a", "name:en": "Boshar PC"}}, {"type": "node", "id": 2411234720, "lat": 24.256247, "lon": 54.5531307, "tags": {"addr:city": "\u0627\u0644\u0638\u0641\u0631\u0629", "addr:city:ar": "\u0627\u0644\u0638\u0641\u0631\u0629", "amenity": "hospital", "emergency": "no", "healthcare": "hospital", "name": "\u0645\u0633\u062a\u0634\u0641\u0649 \u0627\u0644\u0638\u0641\u0631\u0629", "name:ar": "\u0645\u0633\u062a\u0634\u0641\u0649 \u0627\u0644\u0638\u0641\u0631\u0629", "name:en": "Al Dhafra Hospital"}}, {"type": "node", "id": 2479728849, "lat": 25.5738649, "lon": 55.5602055, "tags": {"amenity": "hospital", "healthcare": "hospital", "name": "\u0645\u0633\u062a\u0634\u0641\u0649 \u0623\u0645 \u0627\u0644\u0642\u064a\u0648\u064a\u0646 \u0627\u0644\u0639\u0627\u0645", "name:ar": "\u0645\u0633\u062a\u0634\u0641\u0649 \u0623\u0645 \u0627\u0644\u0642\u064a\u0648\u064a\u0646 \u0627\u0644\u0639\u0627\u0645", "name:en": "Umm Al Quwain Hospital", "opening_hours": "24/7"}}, {"type": "node", "id": 2485941511, "lat": 25.2600165, "lon": 55.2938072, "tags": {"addr:city": "\u062f\u0628\u064a", "addr:city:ar": "\u062f\u0628\u064a", "addr:city:en": "Dubai", "addr:city:ur": "\u062f\u0628\u0626\u06cc", "amenity": "hospital", "healthcare": "hospital", "name": "Aster Medical Centre (Aster Jubilee Medical Complex)", "name:en": "Aster Medical Centre (Aster Jubilee Medical Complex)", "phone": "+971 4 509 0300", "website": "http://www.astermedicalcentre.com/"}}, {"type": "node", "id": 2493075567, "lat": 24.4852257, "lon": 54.3561478, "tags": {"amenity": "hospital", "emergency": "no", "healthcare": "hospital", "name": "Ansari Medical Centre", "name:en": "Ansari Medical Centre"}}, {"type": "node", "id": 2499040284, "lat": 25.21074, "lon": 55.3115743, "tags": {"addr:city": "\u062f\u0628\u064a", "addr:city:ar": "\u062f\u0628\u064a", "addr:city:en": "Dubai", "addr:city:ur": "\u062f\u0628\u0626\u06cc", "addr:housename": "Oud Mehta Road", "addr:housenumber": "Zaabeel", "addr:postcode": "2666", "addr:street": "2nd Zabeel Road", "amenity": "hospital", "emergency": "no", "healthcare": "hospital", "name": "Dubai Herbal And Treatment Centre", "name:en": "Dubai Herbal And Treatment Centre", "phone": "0097143351200", "website": "https://www.dubaihtc.com/", "wikidata": "Q17000864"}}, {"type": "node", "id": 2505533033, "lat": 23.6075528, "lon": 58.2328022, "tags": {"amenity": "hospital", "name": "Azahar Medical Complex", "name:ar": "\u0645\u062c\u0645\u0639 \u0623\u0632\u0627\u0647\u0627\u0631 \u0627\u0644\u0637\u0628\u064a"}}, {"type": "node", "id": 2510567752, "lat": 29.7912388, "lon": 52.5152296, "tags": {"amenity": "hospital", "emergency": "yes", "healthcare": "hospital", "healthcare:speciality": "general", "name": "\u062f\u0631\u0645\u0627\u0646\u06af\u0627\u0647 \u0639\u0644\u06cc \u0628\u0646 \u0627\u0628\u06cc\u0637\u0627\u0644\u0628(\u0639)"}}, {"type": "node", "id": 2546729671, "lat": 23.5980188, "lon": 58.4012672, "tags": {"amenity": "hospital", "healthcare": "hospital", "name": "\u0645\u0631\u0643\u0632 \u0635\u062d\u064a \u0627\u0644\u063a\u0628\u0631\u0629", "name:en": "Ghubrah Health Center"}}, {"type": "node", "id": 2559425023, "lat": 23.5345607, "lon": 58.3516762, "tags": {"amenity": "hospital", "name": "Al-Ansab"}}, {"type": "node", "id": 2567672824, "lat": 25.1732955, "lon": 51.5953958, "tags": {"amenity": "hospital", "emergency": "yes", "name": "Al Wakra Healthcare Center", "name:ar": "\u0645\u0631\u0643\u0632 \u0627\u0644\u0648\u0643\u0631\u0629 \u0627\u0644\u0635\u062d\u064a", "source": "Survey"}}, {"type": "node", "id": 2568229585, "lat": 24.2748382, "lon": 54.6524362, "tags": {"amenity": "hospital", "name": "Central Veterinary Hospital", "name:en": "Central Veterinary Hospital"}}, {"type": "node", "id": 2571724643, "lat": 25.1632989, "lon": 51.5983609, "tags": {"amenity": "hospital", "emergency": "no", "name": "KIMS Qatar Hospital"}}, {"type": "node", "id": 2628601077, "lat": 23.4453206, "lon": 57.1129072, "tags": {"amenity": "hospital"}}, {"type": "node", "id": 2628601261, "lat": 23.541637, "lon": 56.7619167, "tags": {"amenity": "hospital", "healthcare": "hospital"}}, {"type": "node", "id": 2628601265, "lat": 23.5640513, "lon": 56.2543834, "tags": {"amenity": "hospital"}}, {"type": "node", "id": 2646038878, "lat": 23.6771323, "lon": 58.127453, "tags": {"amenity": "hospital", "name": "Al Farooq Polyclinic \u0645\u0631\u0643\u0632 \u0627\u0644\u0641\u0627\u0631\u0648\u0642 \u0627\u0644\u0637\u0628\u064a"}}, {"type": "node", "id": 2646039124, "lat": 23.66411, "lon": 57.8946496, "tags": {"amenity": "hospital", "name": "Badr Al Sama Polyclinic", "name:ar": "\u0645\u0633\u062a\u0634\u0641\u0649 \u0628\u062f\u0631 \u0627\u0644\u0633\u0645\u0627\u0621 \u0628\u0631\u0643\u0627\u0621"}}, {"type": "node", "id": 2690813035, "lat": 25.2347853, "lon": 55.4364185, "tags": {"addr:city": "\u062f\u0628\u064a", "addr:city:ar": "\u062f\u0628\u064a", "addr:city:en": "Dubai", "addr:city:ur": "\u062f\u0628\u0626\u06cc", "addr:housenumber": "shop no1540", "addr:postcode": "444786", "addr:street": "Al Khawaneej Road", "amenity": "hospital", "emergency": "yes", "name": "Smilecare Medical Center LLC 042855066", "name:en": "Smilecare Medical Center LLC 042855066", "note": "Dentist, implant, cosmetic, root canal, braces,orthodontist, European qualified", "phone": "042855066", "website": "www.smilecaredubai.com", "wheelchair": "yes"}}, {"type": "node", "id": 2712775153, "lat": 25.0855127, "lon": 55.1438855, "tags": {"amenity": "hospital", "designation": "Cosmetic Clinic & Dental Clinic", "emergency": "yes", "healthcare": "hospital", "name": "Health Avenue Polyclinics", "source": "owner"}}, {"type": "node", "id": 2719215767, "lat": 25.085336, "lon": 55.1417994, "tags": {"amenity": "hospital", "healthcare": "hospital", "name": "\u0645\u0633\u062a\u0634\u0641\u0649 \u0627\u0644\u0625\u0645\u0627\u0631\u0627\u062a", "name:ar": "\u0645\u0633\u062a\u0634\u0641\u0649 \u0627\u0644\u0625\u0645\u0627\u0631\u0627\u062a", "name:de": "Emirates Hospital", "name:en": "Emirates Hospital", "phone": "+971 4 447 1777", "website": "https://www.emirateshospital.ae/"}}, {"type": "node", "id": 2805359250, "lat": 25.2706444, "lon": 55.3219753, "tags": {"amenity": "hospital", "emergency": "no", "fixme": "name, name:en mismatch.", "name": "Prime Medical Centre", "name:en": "Prime Health centre Ekka's office"}}, {"type": "node", "id": 3024705700, "lat": 25.2706183, "lon": 55.3236185, "tags": {"amenity": "hospital", "healthcare": "hospital", "name": "\u067e\u0631\u06cc\u0645\u06cc\u0626\u0631 \u062a\u0634\u062e\u06cc\u0635\u06cc \u0645\u0631\u06a9\u0632", "name:en": "Premier Diagnostic Centre", "name:ur": "\u067e\u0631\u06cc\u0645\u06cc\u0626\u0631 \u062a\u0634\u062e\u06cc\u0635\u06cc \u0645\u0631\u06a9\u0632"}}, {"type": "node", "id": 3125922756, "lat": 25.2734847, "lon": 55.3217412, "tags": {"amenity": "hospital", "name": "Aster Clinic", "name:en": "Aster Clinic"}}, {"type": "node", "id": 3337958523, "lat": 25.244127, "lon": 55.3054415, "tags": {"amenity": "hospital", "healthcare": "hospital", "name": "Kottakal Ayurvedic Centre", "name:en": "Kottakal Ayurvedic Centre"}}, {"type": "node", "id": 3450031600, "lat": 26.1824358, "lon": 56.2509769, "tags": {"amenity": "hospital", "healthcare": "hospital"}}, {"type": "node", "id": 3478788984, "lat": 25.2653833, "lon": 55.3298837, "tags": {"addr:city": "\u062f\u0628\u064a", "addr:city:ar": "\u062f\u0628\u064a", "addr:city:en": "Dubai", "addr:city:ur": "\u062f\u0628\u0626\u06cc", "addr:housenumber": "Century 21 Building", "addr:postcode": "42324", "addr:street": "Abu Baker al Siddique road", "amenity": "hospital", "building:levels": "M", "healthcare": "hospital", "name": "American British Surgical & Medical Centre", "name:ar": "\u0627\u0644\u0645\u0631\u06a9\u0632 \u0627\u0644\u0627\u0645\u0631\u06cc\u06a9\u06cc \u0627\u0644\u0628\u0631\u06cc\u0637\u0627\u0646\u06cc \u0644\u0644\u0637\u0628\u06cc \u0644\u0644\u062c\u0631\u0627\u062d\u06cc", "name:en": "American British Surgical & Medical Centre", "phone": "+971 4 297 5544", "website": "https://www.absamc.com/"}}, {"type": "node", "id": 3538299723, "lat": 25.563959, "lon": 51.4532832, "tags": {"amenity": "hospital", "fixme": "name, name:en mismatch.", "name": "Al Dayaan Health Centre", "name:en": "Al Daayen Health Center", "operator": "Hamad Medical Corporation"}}, {"type": "node", "id": 3661117392, "lat": 23.3125612, "lon": 57.5397141, "tags": {"amenity": "hospital", "emergency": "yes", "name": "\u0645\u0631\u0643\u0632 \u0635\u062d\u064a \u0648\u0644\u0627\u064a\u0629 \u0627\u0644\u0639\u0648\u0627\u0628\u064a"}}, {"type": "node", "id": 3668599977, "lat": 26.4113891, "lon": 50.0116437, "tags": {"amenity": "hospital", "name": "Internal Security Forces Hospital", "operator": "Government"}}, {"type": "node", "id": 3687765311, "lat": 24.0841215, "lon": 52.6467257, "tags": {"amenity": "hospital", "name": "Ruwais Medical Center", "name:en": "Ruwais Medical Center"}}, {"type": "node", "id": 3703209177, "lat": 23.6389151, "lon": 58.2054977, "tags": {"amenity": "hospital", "emergency": "yes", "healthcare": "hospital", "name": "\u0645\u062c\u0645\u0639 \u0627\u0644\u0631\u0641\u0627\u0639\u0629 \u0627\u0644\u0637\u0628\u064a", "name:en": "Al Rafaa Medical Complex"}}, {"type": "node", "id": 3703214408, "lat": 23.5916669, "lon": 58.2453215, "tags": {"amenity": "hospital", "healthcare": "hospital", "name": "\u0645\u0631\u0643\u0632 \u0627\u0644\u062e\u0644\u064a\u062c \u0644\u062a\u0642\u0648\u064a\u0645 \u0627\u0644\u0627\u0633\u0646\u0627\u0646"}}, {"type": "node", "id": 3703217884, "lat": 23.5956825, "lon": 58.3491676, "tags": {"amenity": "hospital", "name": "\u0645\u0631\u0643\u0632 \u0627\u0644\u0631\u064a\u0645 \u0627\u0644\u0637\u0628\u064a"}}, {"type": "node", "id": 3703222814, "lat": 23.6025397, "lon": 58.3667126, "tags": {"amenity": "hospital", "name": "\u0645\u0631\u0643\u0632 \u0627\u0644\u062a\u0641\u0627\u062d \u0627\u0644\u0627\u062e\u0636\u0631 \u0644\u0637\u0628 \u0648\u062c\u0631\u0627\u062d\u0629 \u0627\u0644\u0627\u0633\u0646\u0627\u0646"}}, {"type": "node", "id": 3712992586, "lat": 22.9185597, "lon": 57.66543, "tags": {"amenity": "hospital", "name": "\u0645\u062c\u0645\u0639 \u062c\u0646\u0649 \u0627\u0644\u0637\u0628\u064a"}}, {"type": "node", "id": 3719728036, "lat": 22.9845341, "lon": 58.5029837, "tags": {"amenity": "hospital", "name": "\u0645\u0631\u0643\u0632 \u062f\u0645\u0627\u0621 \u0627\u0644\u0635\u062d\u064a", "operator": "\u0648\u0632\u0627\u0631\u0629 \u0627\u0644\u0635\u062d\u0629"}}, {"type": "node", "id": 3722471511, "lat": 23.6604292, "lon": 56.4835322, "tags": {"amenity": "hospital", "name": "Yanqul Health center"}}, {"type": "node", "id": 3724219312, "lat": 22.9300038, "lon": 57.7785353, "tags": {"amenity": "hospital", "name": "Izki Hospital"}}, {"type": "node", "id": 3724239417, "lat": 23.480904, "lon": 57.4576255, "tags": {"amenity": "hospital", "name": "\u0645\u0631\u0643\u0632 \u0635\u062d\u064a \u0627\u0644\u0631\u0633\u062a\u0627\u0642", "name:en": "alrustaq health center"}}, {"type": "node", "id": 3729555243, "lat": 23.9810198, "lon": 57.1027136, "tags": {"amenity": "hospital", "name": "\u0639\u064a\u0627\u062f\u0629"}}, {"type": "node", "id": 3729555371, "lat": 23.4139739, "lon": 58.1238044, "tags": {"amenity": "hospital", "emergency": "no", "name": "Abu Mustafa Clinic", "name:ar": "\u0639\u064a\u0627\u062f\u0629 \u0627\u0628\u0648 \u0645\u0635\u0637\u0641\u0649"}}, {"type": "node", "id": 3731313700, "lat": 23.7573733, "lon": 57.5770188, "tags": {"amenity": "hospital", "emergency": "yes", "name": "\u0645\u062c\u0645\u0639 \u0627\u0644\u0645\u0635\u0646\u0639\u0629 \u0627\u0644\u0635\u062d\u064a \u0627\u0644\u0645\u0644\u062f\u0629"}}, {"type": "node", "id": 3731315430, "lat": 23.7576449, "lon": 57.6477044, "tags": {"amenity": "hospital", "name": "\u0645\u0631\u0643\u0632 \u0627\u0644\u0645\u0635\u0646\u0639\u0629 \u0627\u0644\u0635\u062d\u064a \u0627\u0644\u0634\u0639\u064a\u0628\u0647"}}, {"type": "node", "id": 3731720501, "lat": 23.5966639, "lon": 58.4391429, "tags": {"addr:city": "\u0628\u0648\u0634\u0631\u060c \u0627\u0644\u062e\u0648\u064a\u0631", "addr:street": "\u0634\u0627\u0631\u0639 \u0627\u0644\u0633\u0644\u0637\u0627\u0646 \u0642\u0627\u0628\u0648\u0633", "amenity": "hospital", "healthcare": "hospital", "name": "Starcare Medical Center", "source": "Kaart Ground Survey 2017"}}, {"type": "node", "id": 3732995239, "lat": 23.6130667, "lon": 58.2260827, "tags": {"amenity": "hospital", "healthcare": "hospital", "name": "\u0639\u064a\u0627\u062f\u0629 \u0625\u0628\u062a\u0633\u0627\u0645\u0629"}}, {"type": "node", "id": 3733005144, "lat": 23.6147861, "lon": 58.2479464, "tags": {"amenity": "hospital", "healthcare": "hospital", "name": "\u0645\u0631\u0643\u0632 \u0627\u0644\u0628\u0633\u0645\u0629 \u0644\u0635\u062d\u0629 \u0627\u0644\u0641\u0645 \u0648\u0627\u0644\u0627\u0633\u0646\u0627\u0646"}}, {"type": "node", "id": 3737073619, "lat": 22.6920999, "lon": 58.5461521, "tags": {"amenity": "hospital", "name": "\u0645\u0631\u0643\u0632 \u0627\u0628\u0631\u0627\u0621 \u0627\u0644\u0635\u062d\u064a"}}, {"type": "node", "id": 3737086788, "lat": 22.6632044, "lon": 58.5911861, "tags": {"amenity": "hospital", "name": "\u0645\u0633\u062a\u0634\u0641\u0649 \u0627\u0628\u0631\u0627\u0621 \u0627\u0644\u0645\u0631\u0643\u0632\u064a", "name:en": "Ibra Central Hospital"}}, {"type": "node", "id": 3737087322, "lat": 22.666438, "lon": 58.5922152, "tags": {"amenity": "hospital", "name": "\u0645\u0631\u0643\u0632 \u0635\u062d\u064a \u0625\u0628\u0631\u0627 \u0627\u0644\u062c\u062f\u064a\u062f"}}, {"type": "node", "id": 3737961476, "lat": 22.7279254, "lon": 58.6396929, "tags": {"amenity": "hospital", "emergency": "no", "name": "\u0645\u0631\u0643\u0632 \u0635\u062d\u064a \u0628\u0648\u0627\u062f\u064a \u0646\u0627\u0645"}}, {"type": "node", "id": 3742328528, "lat": 23.016873, "lon": 57.3262324, "tags": {"amenity": "hospital", "name": "\u0645\u0631\u0643\u0632 \u0628\u0647\u0644\u0627 \u0627\u0644\u0635\u062d\u064a"}}, {"type": "node", "id": 3771999577, "lat": 25.402391, "lon": 51.4333253, "tags": {"addr:city": "Doha", "amenity": "hospital", "internet_access": "wlan", "name": "Qatari Czech Therapy Center", "name:en": "Qatari Czech Therapy Center", "opening_hours": "Su-Th 08:00-12:30,16:00-21:00; Fr-Sa off", "phone": "+9744417 4333", "website": "https://www.qczech.com/"}}, {"type": "node", "id": 3830464334, "lat": 25.7682628, "lon": 55.9768842, "tags": {"amenity": "hospital", "emergency": "yes", "name": "RAK Hospital", "name:en": "RAK Hospital", "wikidata": "Q18392892", "wikipedia": "en:RAK Hospital"}}, {"type": "node", "id": 3842113605, "lat": 29.6166598, "lon": 51.6466391, "tags": {"amenity": "hospital", "name": "\u0628\u06cc\u0645\u0627\u0631\u0633\u062a\u0627\u0646 \u0642\u062f\u06cc\u0645 \u0631\u062c\u0627\u06cc\u06cc"}}, {"type": "node", "id": 3851856765, "lat": 28.8783953, "lon": 54.9673348, "tags": {"amenity": "hospital", "name": "\u062f\u0631\u0645\u0627\u0646\u06af\u0627\u0647"}}, {"type": "node", "id": 3866554063, "lat": 24.050713, "lon": 56.9729837, "tags": {"amenity": "hospital", "name": "\u0645\u0631\u0643\u0632 \u062d\u0641\u064a\u062a \u0635\u062d\u064a"}}, {"type": "node", "id": 3870407710, "lat": 24.4191503, "lon": 54.4528048, "tags": {"amenity": "hospital", "healthcare": "hospital", "name": "Healthpoint Hospital", "name:en": "Healthpoint Hospital"}}, {"type": "node", "id": 3980326962, "lat": 24.4909052, "lon": 54.3604589, "tags": {"amenity": "hospital", "name": "Al Noor Hospital", "name:en": "Al Noor Hospital", "source": "Kaart Ground Survey 2017"}}, {"type": "node", "id": 4111324991, "lat": 26.353344, "lon": 50.1738012, "tags": {"amenity": "hospital", "name": "National Guard hospital. Imam Abdulrahman Bin Faisal Hospital", "name:ar": "\u0645\u0633\u062a\u0634\u0641\u0649 \u0627\u0644\u0623\u0645\u0627\u0645 \u0639\u0628\u062f\u0627\u0644\u0631\u062d\u0645\u0646 \u0628\u0646 \u0633\u0639\u0648\u062f", "website": "Www.ngha.med.sa"}}, {"type": "node", "id": 4114728295, "lat": 24.4619997, "lon": 54.3772188, "tags": {"amenity": "hospital", "healthcare": "hospital", "name": "\u0627\u0644\u0645\u0631\u0643\u0632 \u0627\u0644\u0643\u0646\u062f\u064a \u0627\u0644\u0637\u0628\u064a", "name:ar": "\u0627\u0644\u0645\u0631\u0643\u0632 \u0627\u0644\u0643\u0646\u062f\u064a \u0627\u0644\u0637\u0628\u064a", "name:en": "Canadian Medical Centre", "name:fr": "Centre M\u00e9dical Canadien", "name:ur": "\u06a9\u06cc\u0646\u06cc\u0688\u06cc\u0646 \u0645\u06cc\u0688\u06cc\u06a9\u0644 \u0645\u0631\u06a9\u0632"}}, {"type": "node", "id": 4122500690, "lat": 24.487681, "lon": 54.364913, "tags": {"amenity": "hospital", "email": "lifehosp@llhhospital.com", "name": "LLH Hospital", "name:en": "LLH Hospital", "opening_hours": "24/7", "phone": "+97126335522", "website": "https://www.llhhospital.com/"}}, {"type": "node", "id": 4128424723, "lat": 24.3967367, "lon": 54.5011017, "tags": {"amenity": "hospital", "name": "Danat Al Emarat", "name:ar": "\u0645\u0633\u062a\u0634\u0641\u064a \u062f\u0627\u0646\u0629 \u0627\u0644\u0625\u0645\u0627\u0631\u0627\u062a", "name:en": "Danat Al Emarat", "wikidata": "Q5214934", "wikipedia": "en:Danat Al Emarat Women and Children's Hospital"}}, {"type": "node", "id": 4140871089, "lat": 25.3413596, "lon": 56.3489754, "tags": {"amenity": "hospital", "healthcare": "hospital", "name": "Al Enwan medical center", "name:en": "Al Enwan medical center"}}, {"type": "node", "id": 4146391989, "lat": 24.4570849, "lon": 54.3808515, "tags": {"amenity": "hospital", "name": "Beverly Hills", "name:en": "Beverly Hills"}}, {"type": "node", "id": 4153378291, "lat": 23.541991, "lon": 57.3308212, "tags": {"amenity": "hospital", "name": "\u0645\u0631\u0643\u0632 \u0627\u0644\u062d\u0648\u0642\u064a\u0646 \u0627\u0644\u0635\u062d\u064a", "name:en": "Alhoqain Health Center"}}, {"type": "node", "id": 4157358790, "lat": 25.1216867, "lon": 55.3863219, "tags": {"addr:street": "Sheikh Mohammed bin Zayed Road", "amenity": "hospital", "healthcare": "hospital", "name": "HLG Umar", "name:en": "HLG Umar", "wheelchair": "yes"}}, {"type": "node", "id": 4166686891, "lat": 24.4590859, "lon": 54.3733245, "tags": {"addr:city": "\u0623\u0628\u0648 \u0638\u0628\u064a", "addr:postcode": "52699", "amenity": "hospital", "email": "info@beautytrick.ae", "internet_access": "wlan", "name": "Beauty Trick Medical Centre", "name:en": "Beauty Trick Medical Centre", "opening_hours": "Sa-Th 09:00-21:00", "phone": "0097126422771", "website": "http://www.beautytrick.ae"}}, {"type": "node", "id": 4166814589, "lat": 24.487668, "lon": 54.3649336, "tags": {"amenity": "hospital", "email": "lifehosp@llhhospital.com", "internet_access": "wlan", "name": "Life Line Hospital", "name:en": "Life Line Hospital", "phone": "+97126335522", "website": "https://www.llhhospital.com/"}}, {"type": "node", "id": 4180042190, "lat": 24.4697142, "lon": 54.3426642, "tags": {"amenity": "hospital", "name": "IBN SINA MEDICAL CENTRE", "name:en": "IBN SINA MEDICAL CENTRE", "opening_hours": "24/7"}}, {"type": "node", "id": 4189719989, "lat": 24.572759, "lon": 54.6946752, "tags": {"amenity": "hospital", "name": "Al Rahba Hospital", "name:en": "Al Rahba Hospital"}}, {"type": "node", "id": 4193561321, "lat": 24.4906355, "lon": 54.3719013, "tags": {"amenity": "hospital", "healthcare": "hospital", "name": "Well Care Medical Center", "name:en": "Well Care Medical Center"}}, {"type": "node", "id": 4207088117, "lat": 25.2986804, "lon": 51.5081731, "tags": {"amenity": "hospital", "name": "Hamad Hospital gate 9", "name:en": "Hamad Hospital gate 9"}}, {"type": "node", "id": 4215810191, "lat": 24.4794426, "lon": 54.3715106, "tags": {"amenity": "hospital", "healthcare": "hospital", "name": "Talat Medical Center", "name:en": "Talat Medical Center"}}, {"type": "node", "id": 4215913290, "lat": 25.3446807, "lon": 55.3934214, "tags": {"addr:street": "King Abdul Aziz Street", "amenity": "hospital", "name": "Prime Medical Center", "name:en": "Prime Medical Center", "source": "Kaart Ground Survey 2017"}}, {"type": "node", "id": 4224941966, "lat": 28.8785274, "lon": 52.0764685, "tags": {"amenity": "hospital", "healthcare": "hospital", "name": "\u0628\u06cc\u0645\u0627\u0631\u0633\u062a\u0627\u0646 \u062a\u0627\u0645\u06cc\u0646 \u0627\u062c\u062a\u0645\u0627\u0639\u06cc"}}, {"type": "node", "id": 4225390396, "lat": 24.4432644, "lon": 54.3982386, "tags": {"amenity": "hospital"}}, {"type": "node", "id": 4227940889, "lat": 25.3548763, "lon": 55.430538, "tags": {"addr:city": "sharjah", "addr:housenumber": "Villa No 3, Al Falaj Area", "addr:postcode": "60884", "addr:street": "Cultural Square", "amenity": "hospital", "emergency": "yes", "name": "Solanki Dental Center", "name:en": "Solanki Dental Center"}}, {"type": "node", "id": 4230893592, "lat": 25.2736066, "lon": 51.4318428, "tags": {"amenity": "hospital", "email": "naufar. com", "internet_access": "wlan", "name": "Naufar (src)", "name:en": "Naufar (src)"}}, {"type": "node", "id": 4242211291, "lat": 22.4520689, "lon": 58.8024436, "tags": {"amenity": "hospital", "name": "\u0645\u0633\u062a\u0634\u0641\u0649 \u0628\u062f\u064a\u0629", "name:en": "Bidiya Hospital"}}, {"type": "node", "id": 4248704789, "lat": 29.630798, "lon": 52.5171285, "tags": {"addr:street": "\u0645\u06cc\u062f\u0627\u0646 \u0646\u0645\u0627\u0632\u06cc", "amenity": "hospital", "name": "\u0628\u062e\u0634 \u062e\u0648\u0646 \u0648 \u0633\u0631\u0637\u0627\u0646 \u0628\u06cc\u0645\u0627\u0631\u0633\u062a\u0627\u0646 \u0646\u0645\u0627\u0632\u06cc", "opening_hours": "24/7"}}, {"type": "node", "id": 4254427898, "lat": 25.2656934, "lon": 51.4946948, "tags": {"addr:postcode": "2352", "addr:street": "Midmac Bridge", "amenity": "hospital", "name": "armed force med services", "name:en": "armed force med services", "opening_hours": "Su-Th 06:00-01:00"}}, {"type": "node", "id": 4268484197, "lat": 24.4513524, "lon": 54.3891054, "tags": {"amenity": "hospital", "name": "Al Madina Medical Centre", "name:en": "Al Madina Medical Centre"}}, {"type": "node", "id": 4269676794, "lat": 26.0909223, "lon": 50.5516222, "tags": {"addr:street": "Awali", "amenity": "hospital", "name": "New cardiac hospital", "name:en": "New cardiac hospital"}}, {"type": "node", "id": 4270149190, "lat": 24.4351637, "lon": 54.4031186, "tags": {"amenity": "hospital", "name": "Al Mushrif Children's Specialty Center", "name:en": "Al Mushrif Children's Specialty Center"}}, {"type": "node", "id": 4281349190, "lat": 26.3027861, "lon": 50.1731298, "tags": {"amenity": "hospital", "healthcare": "hospital", "name": "\u0645\u0633\u062a\u0634\u0641\u064a \u0627\u0644\u0631\u0639\u0627\u064a\u0647 \u0627\u0644\u062a\u062e\u0635\u0635\u064a\u0647", "name:en": "Procare Riaya Hospital", "phone": "0138955900", "website": "http://www.procare.com.sa"}}, {"type": "node", "id": 4282463790, "lat": 24.2244461, "lon": 55.7684195, "tags": {"amenity": "hospital", "name": "Al Noor Hospital", "name:en": "Al Noor Hospital"}}, {"type": "node", "id": 4286602291, "lat": 24.4640874, "lon": 54.3794642, "tags": {"amenity": "hospital", "name": "All Care Medical", "name:en": "All Care Medical"}}, {"type": "node", "id": 4294890293, "lat": 29.6311174, "lon": 52.5155362, "tags": {"addr:street": "\u0645\u06cc\u062f\u0627\u0646 \u0646\u0645\u0627\u0632\u06cc", "amenity": "hospital", "name": "\u0628\u062e\u0634 \u0627\u062a\u0641\u0627\u0642\u0627\u062a \u0646\u0645\u0627\u0632\u06cc"}}, {"type": "node", "id": 4294927391, "lat": 29.6310459, "lon": 52.5144847, "tags": {"addr:street": "\u062e\u0644\u06cc\u0644\u06cc", "amenity": "hospital", "name": "\u0628\u062e\u0634 \u0627\u0637\u0641\u0627\u0644 \u0646\u0645\u0627\u0632\u06cc"}}, {"type": "node", "id": 4295682494, "lat": 24.4837894, "lon": 54.3611005, "tags": {"amenity": "hospital", "name": "NMC Specialty Hospital", "name:en": "NMC Specialty Hospital"}}, {"type": "node", "id": 4297353090, "lat": 24.4842029, "lon": 54.3674914, "tags": {"amenity": "hospital"}}, {"type": "node", "id": 4298227789, "lat": 24.4630398, "lon": 54.3837177, "tags": {"addr:street": "Kwar Street", "amenity": "hospital", "name": "Middle East Specialized Medical Centre", "name:en": "Middle East Specialized Medical Centre", "source": "Kaart Ground Survey 2017"}}, {"type": "node", "id": 4304894214, "lat": 23.6507847, "lon": 53.7044864, "tags": {"amenity": "hospital"}}, {"type": "node", "id": 4304897796, "lat": 24.3479403, "lon": 54.5211213, "tags": {"amenity": "hospital"}}, {"type": "node", "id": 4304966591, "lat": 24.3410675, "lon": 54.5373473, "tags": {"amenity": "hospital"}}, {"type": "node", "id": 4304967292, "lat": 24.3438666, "lon": 54.5372234, "tags": {"amenity": "hospital"}}, {"type": "node", "id": 4305002090, "lat": 23.6410841, "lon": 53.7081815, "tags": {"amenity": "hospital"}}, {"type": "node", "id": 4308288889, "lat": 24.3621375, "lon": 56.7140595, "tags": {"amenity": "hospital", "name": "\u0645\u0631\u0643\u0632 \u0627\u0644\u0637\u0631\u064a\u0641 \u0627\u0644\u0635\u062d\u064a", "name:ar": "\u0645\u0631\u0643\u0632 \u0627\u0644\u0637\u0631\u064a\u0641 \u0627\u0644\u0635\u062d\u064a", "name:en": "A'ATreef Medical Center", "opening_hours": "Su-Th 08:00-13:00, 14:30-22:00"}}, {"type": "node", "id": 4312162793, "lat": 24.4620918, "lon": 54.3701647, "tags": {"addr:city": "\u0623\u0628\u0648 \u0638\u0628\u064a", "addr:street": "Al Karamah Street", "amenity": "hospital", "healthcare": "hospital", "healthcare:speciality": "hospital", "name": "Ultra Care", "name:en": "Ultra Care", "source": "Kaart Ground Survey 2017"}}, {"type": "node", "id": 4313881191, "lat": 24.482253, "lon": 54.3616559, "tags": {"amenity": "hospital", "name": "NMC Specialty Building 2", "name:en": "NMC Specialty Building 2"}}, {"type": "node", "id": 4313913189, "lat": 24.4833679, "lon": 54.3614009, "tags": {"amenity": "hospital", "name": "NMC Specialty Building 3", "name:en": "NMC Specialty Building 3"}}, {"type": "node", "id": 4313913289, "lat": 24.4824867, "lon": 54.3615591, "tags": {"amenity": "hospital", "name": "NMC Specialty Building 1", "name:en": "NMC Specialty Building 1"}}, {"type": "node", "id": 4318364894, "lat": 23.593879, "lon": 58.426902, "tags": {"amenity": "hospital", "healthcare": "hospital", "name": "Nahla Tech - Muscat Partner", "name:en": "N Alkhuwair"}}, {"type": "node", "id": 4324618295, "lat": 23.58364, "lon": 58.369056, "tags": {"amenity": "hospital", "name": "Fusion Medicare Poly Clinic and Pharmacy"}}, {"type": "node", "id": 4328322689, "lat": 24.7571519, "lon": 50.7525014, "tags": {"amenity": "hospital", "internet_access": "wlan", "name": "Salwa General Hospital", "opening_hours": "Su-Th", "website": "https://moh.gov.sa/salwa"}}, {"type": "node", "id": 4328899789, "lat": 25.3083201, "lon": 55.3715268, "tags": {"amenity": "hospital", "healthcare": "hospital", "name": "W. Wilson Specialized Hospital", "name:en": "W. Wilson Specialized Hospital", "opening_hours": "24/7", "phone": "065771757"}}, {"type": "node", "id": 4329137489, "lat": 26.7139477, "lon": 50.047745, "tags": {"amenity": "hospital", "name": "\u0645\u0631\u0643\u0632 \u0635\u062d\u064a \u0627\u0628\u0646 \u0627\u0644\u0647\u064a\u062b\u0645 - \u0645\u0631\u0643\u0632 \u0627\u0644\u0631\u0639\u0627\u064a\u0629 \u0627\u0644\u0635\u062d\u064a\u0629 \u0627\u0644\u0623\u0648\u0644\u064a\u0629 (\u062c\u0646\u0648\u0628 \u0631\u0623\u0633 \u062a\u0646\u0648\u0631\u0629)"}}, {"type": "node", "id": 4329407688, "lat": 25.309149, "lon": 55.3716565, "tags": {"amenity": "hospital", "healthcare": "hospital", "name": "Lamasat Medical Centre"}}, {"type": "node", "id": 4329431622, "lat": 25.3090998, "lon": 55.3715652, "tags": {"addr:street": "Al Taawun Street", "amenity": "hospital", "healthcare": "hospital", "name": "Farah Specialist Medical Centre", "name:en": "Farah Specialist Medical Centre"}}, {"type": "node", "id": 4329431623, "lat": 25.3082037, "lon": 55.3714706, "tags": {"addr:street": "Al Taawun Street", "amenity": "hospital", "healthcare": "hospital", "name": "Conceive-The Gynacology & Fertility Hospital", "name:en": "Conceive-The Gynacology & Fertility Hospital", "operator": "AVIVO", "source": "Kaart Ground Survey 2017"}}, {"type": "node", "id": 4339638690, "lat": 23.5817086, "lon": 58.5653689, "tags": {"amenity": "hospital", "healthcare": "hospital", "name": "Primary Health Centre Wadi Kabir", "name:ar": "\u0645\u0631\u0643\u0632 \u0635\u062d\u064a \u0627\u0644\u0648\u0627\u062f\u064a \u0627\u0644\u0643\u0628\u064a\u0631", "name:en": "Wadi Kabir HC"}}, {"type": "node", "id": 4348712090, "lat": 25.2772984, "lon": 55.3485315, "tags": {"addr:street": "24 Street", "amenity": "hospital", "fixme": "name, name:en mismatch.", "name": "Canadian Specialist Hospital", "name:ar": "\u0627\u0644\u0645\u0633\u062a\u0634\u0641\u0649 \u0627\u0644\u0643\u0646\u062f\u064a \u0627\u0644\u062a\u062e\u0635\u0635\u064a", "name:en": "Canadian Specialist Hosp"}}, {"type": "node", "id": 4351740295, "lat": 22.01747, "lon": 59.3287138, "tags": {"amenity": "hospital", "name": "JAALAN B B ALI HOSPITAL", "operator": "MOH OMAN"}}, {"type": "node", "id": 4352135989, "lat": 25.225707, "lon": 55.3771142, "tags": {"amenity": "hospital", "name": "Rashid hospital", "name:en": "Rashid hospital"}}, {"type": "node", "id": 4358892190, "lat": 23.6044338, "lon": 58.2478854, "tags": {"amenity": "hospital", "healthcare": "hospital", "name": "Starcare", "name:ar": "Starcare"}}, {"type": "node", "id": 4364338393, "lat": 23.3782835, "lon": 56.8702654, "tags": {"addr:street": "muqniyat, ibri, oman", "amenity": "hospital", "name": "\u0645\u0631\u0643\u0632 \u0645\u0642\u0646\u064a\u0627\u062a \u0627\u0644\u0635\u062d\u0649", "name:ar": "\u0645\u0631\u0643\u0632 \u0645\u0642\u0646\u064a\u0627\u062a \u0627\u0644\u0635\u062d\u0649", "name:en": "Muqniyat Health Centre", "opening_hours": "24/7", "phone": "25603388", "website": "https://www.moh.gov.om/"}}, {"type": "node", "id": 4373377891, "lat": 25.0033206, "lon": 55.153494, "tags": {"amenity": "hospital", "name": "nmc jabel ali", "name:en": "nmc jabel ali"}}, {"type": "node", "id": 4374203289, "lat": 25.3075883, "lon": 51.4989645, "tags": {"amenity": "hospital", "name:en": "Al Ahli Hospital Parking"}}, {"type": "node", "id": 4374603389, "lat": 25.2206331, "lon": 55.5061302, "tags": {"amenity": "hospital", "name": "Al khawaneej Health Centre", "name:en": "Al khawaneej Health Centre"}}, {"type": "node", "id": 4376874195, "lat": 25.3207872, "lon": 55.4081788, "tags": {"amenity": "hospital"}}, {"type": "node", "id": 4379186105, "lat": 23.5951297, "lon": 58.5536481, "tags": {"amenity": "hospital", "name": "\u0645\u0633\u062a\u0634\u0641\u0649 \u0627\u0646 \u0627\u0645 \u0633\u064a", "name:en": "Nmc Hospital"}}, {"type": "node", "id": 4382834815, "lat": 23.6545094, "lon": 58.2033656, "tags": {"amenity": "hospital", "name": "\u0645\u0633\u062a\u0634\u0641\u0649 \u0628\u062f\u0631 \u0627\u0644\u0633\u0645\u0627\u0621 \u0627\u0644\u0637\u0628\u064a", "name:ar": "\u0645\u0631\u0643\u0632 \u0628\u062f\u0631 \u0627\u0644\u0633\u0645\u0627\u0621 \u0627\u0644\u0637\u0628\u064a"}}, {"type": "node", "id": 4386703191, "lat": 23.5757683, "lon": 58.390395, "tags": {"amenity": "hospital", "name": "\u0627\u0644\u0645\u0631\u0643\u0632 \u0627\u0644\u0648\u0637\u0646\u064a \u0644\u0639\u0644\u0627\u062c \u0627\u0644\u0627\u0648\u0631\u0627\u0645", "name:ar": "\u0627\u0644\u0645\u0631\u0643\u0632 \u0627\u0644\u0648\u0637\u0646\u064a \u0644\u0639\u0644\u0627\u062c \u0627\u0644\u0627\u0648\u0631\u0627\u0645", "name:en": "National Oncology Centre"}}, {"type": "node", "id": 4391627990, "lat": 26.2052, "lon": 50.5793, "tags": {"amenity": "hospital", "healthcare": "hospital", "name": "\u0645\u0633\u062a\u0634\u0641\u0649 \u0627\u0628\u0646 \u0627\u0644\u0646\u0641\u064a\u0633", "name:ar": "\u0645\u0633\u062a\u0634\u0641\u0649 \u0627\u0628\u0646 \u0627\u0644\u0646\u0641\u064a\u0633", "name:en": "Ibn Al Nafees Hospital"}}, {"type": "node", "id": 4394496093, "lat": 25.2985754, "lon": 55.4885041, "tags": {"amenity": "hospital", "name": "University Dental Hospital", "name:en": "University Dental Hospital"}}, {"type": "node", "id": 4399044090, "lat": 24.7003443, "lon": 56.4571377, "tags": {"amenity": "hospital", "name": "\u0645\u062c\u0645\u0639 \u0635\u062d\u064a \u0634\u0646\u0627\u0635 - \u063a\u0633\u064a\u0644 \u0627\u0644\u0643\u0644\u0649", "name:ar": "\u0645\u062c\u0645\u0639 \u0635\u062d\u064a \u0634\u0646\u0627\u0635 - \u063a\u0633\u064a\u0644 \u0627\u0644\u0643\u0644\u0649"}}, {"type": "node", "id": 4399051090, "lat": 24.327567, "lon": 56.6772651, "tags": {"amenity": "hospital", "name": "\u0645\u0633\u062a\u0634\u0641\u0649 \u0635\u062d\u0627\u0631", "name:ar": "\u0635\u062d\u0627\u0631"}}, {"type": "node", "id": 4403294637, "lat": 23.58462, "lon": 58.3532399, "tags": {"amenity": "hospital"}}, {"type": "node", "id": 4406656689, "lat": 24.491554, "lon": 54.3594686, "tags": {"amenity": "hospital", "name": "Al Noor Hospital", "name:en": "Al Noor Hospital"}}, {"type": "node", "id": 4412993593, "lat": 25.3820448, "lon": 55.4624537, "tags": {"amenity": "hospital", "email": "thajman@thumbayhospital.ae", "internet_access": "wlan", "name": "\u062c\u064a \u0627\u064a\u0645 \u0633\u064a", "name:ar": "\u062c\u064a \u0627\u064a\u0645 \u0633\u064a", "name:en": "Thumbay Hospital (GMC)", "opening_hours": "24/7", "phone": "+971 6 7463333", "website": "https://thumbayhospital.com/ajman"}}, {"type": "node", "id": 4414897192, "lat": 25.3406597, "lon": 55.4322251, "tags": {"amenity": "hospital", "name": "qassimiya hospital", "name:en": "qassimiya hospital"}}, {"type": "node", "id": 4420986989, "lat": 25.0029218, "lon": 55.1537391, "tags": {"amenity": "hospital", "name": "NMC hospital DIP", "name:en": "NMC hospital DIP"}}, {"type": "node", "id": 4429574850, "lat": 28.354631, "lon": 54.4277944, "tags": {"addr:city": "\u062d\u0627\u062c\u06cc \u0627\u0628\u0627\u062f", "addr:street": "\u0627\u0645\u0627\u0645 \u062e\u0645\u06cc\u0646\u06cc", "amenity": "hospital", "emergency": "no", "name": "\u062f\u0631\u0645\u0627\u0646\u06af\u0627\u0647 \u0634\u0647\u0631\u06cc \u062d\u0627\u062c\u06cc \u0627\u0628\u0627\u062f"}}, {"type": "node", "id": 4431590390, "lat": 29.6248188, "lon": 52.548581, "tags": {"amenity": "hospital", "healthcare": "hospital", "name": "\u0628\u06cc\u0645\u0627\u0631\u0633\u062a\u0627\u0646 \u062a\u062e\u0635\u0635\u06cc \u0648 \u0641\u0648\u0642 \u062a\u062e\u0635\u0635\u06cc \u062f\u06a9\u062a\u0631 \u0645\u06cc\u0631 \u062d\u0633\u06cc\u0646\u06cc (\u062f\u06cc)"}}, {"type": "node", "id": 4432247789, "lat": 26.11949, "lon": 50.5659431, "tags": {"amenity": "hospital", "healthcare": "hospital", "name": "\u0645\u0631\u0643\u0632 \u0627\u0644\u0647\u0644\u0627\u0644 \u0645\u062a\u0639\u062f\u062f \u0627\u0644\u062a\u062e\u0635\u0635\u0627\u062a \u0627\u0644\u0637\u0628\u064a\u0629", "name:ar": "\u0645\u0631\u0643\u0632 \u0627\u0644\u0647\u0644\u0627\u0644 \u0645\u062a\u0639\u062f\u062f \u0627\u0644\u062a\u062e\u0635\u0635\u0627\u062a \u0627\u0644\u0637\u0628\u064a\u0629", "name:en": "Alhilal multispecialty medical center", "phone": "17495555"}}, {"type": "node", "id": 4436466089, "lat": 23.5897482, "lon": 58.4070601, "tags": {"addr:street": "\u0634\u0627\u0631\u0639 \u0627\u0644\u0633\u0644\u0637\u0627\u0646 \u0642\u0627\u0628\u0648\u0633", "amenity": "hospital", "name": "\u0645\u0633\u062a\u0634\u0641\u064a \u0627\u0644\u062d\u064a\u0627\u0629 \u0627\u0644\u062f\u0648\u0644\u064a\u0629", "name:en": "Al Hyatt international hospital"}}, {"type": "node", "id": 4448173790, "lat": 29.6108355, "lon": 52.5571901, "tags": {"amenity": "hospital", "name": "\u0628\u06cc\u0645\u0627\u0631\u0633\u062a\u0627\u0646 \u0639\u0644\u0648\u06cc", "name:en": "Alavi Hospital"}}, {"type": "node", "id": 4469787201, "lat": 25.1791736, "lon": 55.2473069, "tags": {"amenity": "hospital", "brand": "Medcare", "emergency": "yes", "healthcare": "hospital", "healthcare:speciality": "orthopaedics", "name": "Medcare Orthopaedics & Spine Hospital", "name:en": "Medcare Orthopaedics & Spine Hospital"}}, {"type": "node", "id": 4486811097, "lat": 26.2816384, "lon": 50.1973122, "tags": {"amenity": "hospital", "healthcare": "hospital", "name:en": "AlJazira"}}, {"type": "node", "id": 4489942392, "lat": 22.5787412, "lon": 58.6928487, "tags": {"amenity": "hospital", "name:en": "Qabil Health Center"}}, {"type": "node", "id": 4503871489, "lat": 23.6057192, "lon": 58.482791, "tags": {"addr:street": "Qur'm Heights Road", "amenity": "hospital", "name": "\u0645\u0633\u062a\u0634\u0641\u0649 \u0634\u0631\u0637\u0629 \u0639\u0645\u0627\u0646 \u0627\u0644\u0633\u0644\u0637\u0627\u0646\u064a\u0629", "name:ar": "\u0645\u0633\u062a\u0634\u0641\u0649 \u0634\u0631\u0637\u0629 \u0639\u0645\u0627\u0646 \u0627\u0644\u0633\u0644\u0637\u0627\u0646\u064a\u0629", "name:en": "Royal Oman Police Hospital", "opening_hours": "24/7"}}, {"type": "node", "id": 4512501589, "lat": 24.4474071, "lon": 54.3613204, "tags": {"amenity": "hospital", "internet_access": "wlan", "name": "Al Khaleej Healthcare Center", "name:ar": "Al Khaleej Healthcare Center \u0645\u0631\u0643\u0632 \u0627\u0644\u062e\u0644\u064a\u062c \u0627\u0644\u0635\u062d\u064a", "name:en": "Al Khaleej Healthcare Center", "opening_hours": "Su-Th 08:00-08:00"}}, {"type": "node", "id": 4521791446, "lat": 25.1982307, "lon": 55.2764648, "tags": {"amenity": "hospital", "healthcare": "hospital", "level": "2", "name": "Mediclinic", "name:en": "Mediclinic", "operator": "Mediclinic", "operator:wikidata": "Q1916123", "wheelchair": "yes"}}, {"type": "node", "id": 4545410190, "lat": 24.4695777, "lon": 54.3653169, "tags": {"amenity": "hospital", "name": "\u0645\u0633\u062a\u0634\u0641\u0649 \u062e\u0644\u064a\u0641\u0647", "name:ar": "\u0645\u0633\u062a\u0634\u0641\u0649 \u062e\u0644\u064a\u0641\u0647", "name:en": "khalifa city parking"}}, {"type": "node", "id": 4547239095, "lat": 26.4144351, "lon": 50.1147271, "tags": {"addr:street": "Ali Ibn Abi Taleb Street", "amenity": "hospital", "name": "\u0645\u0633\u062a\u0634\u0641\u0649 \u0627\u0644\u0645\u0627\u0646\u0639 \u0627\u0644\u0639\u0627\u0645 \u0628\u0627\u0644\u062f\u0645\u0627\u0645", "name:en": "Al Mana General hospital (11,205 patient )"}}, {"type": "node", "id": 4547254890, "lat": 26.2972597, "lon": 50.2150943, "tags": {"amenity": "hospital", "healthcare": "hospital", "name": "\u0645\u0633\u062a\u0634\u0641\u0649 \u0627\u0644\u0645\u0627\u0646\u0639", "name:en": "Al mana general hospital (14,224 patient )"}}, {"type": "node", "id": 4550860489, "lat": 25.1967679, "lon": 55.2372133, "tags": {"addr:street": "Jumeira Street", "amenity": "hospital", "healthcare": "hospital", "name": "Emirate Hospital", "name:en": "Emirate Hospital", "source": "Kaart Ground Survey 2017"}}, {"type": "node", "id": 4551752489, "lat": 25.3046499, "lon": 51.4869, "tags": {"addr:street": "Jasim Bin Hamad Street", "amenity": "hospital", "name": "\u0645\u0633\u062a\u0634\u0641\u0649 \u062a\u062c\u0646\u064a\u062f \u0627\u0644\u0634\u0631\u0637\u0629", "name:ar": "\u0645\u0633\u062a\u0634\u0641\u0649 \u062a\u062c\u0646\u064a\u062f \u0627\u0644\u0634\u0631\u0637\u0629", "name:en": "Hospital recruiting police"}}, {"type": "node", "id": 4563746394, "lat": 24.3467518, "lon": 54.5109096, "tags": {"addr:street": "16th Street", "amenity": "hospital", "name": "Fatima medical center fmc mussafa", "name:en": "Fatima medical center fmc mussafa", "source": "Kaart Ground Survey 2017"}}, {"type": "node", "id": 4565447666, "lat": 24.4524543, "lon": 54.3933056, "tags": {"amenity": "hospital", "healthcare": "hospital", "name": "Brightpoint Royal Women's Hospital", "name:ar": "\u0645\u0633\u062a\u0634\u0641\u0649 \u0627\u0644\u0645\u0631\u0623\u0647 \u0627\u0644\u0641\u062d\u0635 \u0627\u0644\u0637\u0628\u064a \u062c\u062f\u064a\u062f", "name:en": "Brightpoint Royal Women's Hospital"}}, {"type": "node", "id": 4566102395, "lat": 26.2856857, "lon": 50.1486751, "tags": {"amenity": "hospital"}}, {"type": "node", "id": 4567012889, "lat": 24.2967224, "lon": 54.6385307, "tags": {"amenity": "hospital", "name": "\u062f\u0643\u062a\u0648\u0631 \u0627\u0633\u0646\u0627\u0646", "name:ar": "\u062f\u0643\u062a\u0648\u0631 \u0627\u0633\u0646\u0627\u0646"}}, {"type": "node", "id": 4570957689, "lat": 25.2326378, "lon": 55.3208507, "tags": {"addr:housenumber": "57", "addr:street": "\u0634\u0627\u0631\u0639 \u0639\u0648\u062f \u0645\u064a\u062b\u0627\u0621", "amenity": "hospital", "healthcare": "hospital", "name": "\u0645\u0633\u062a\u0634\u0641\u0649 \u062f. \u0633\u0644\u064a\u0645\u0627\u0646 \u0627\u0644\u062d\u0628\u064a\u0628 \u0641\u064a \u062f\u0628\u064a", "name:ar": "\u0645\u0633\u062a\u0634\u0641\u0649 \u062f. \u0633\u0644\u064a\u0645\u0627\u0646 \u0627\u0644\u062d\u0628\u064a\u0628 \u0641\u064a \u062f\u0628\u064a", "name:en": "Dr Sulaiman AL Habib Dubai", "opening_hours": "24/7", "phone": "0097144297777", "website": "https://hmguae.com/"}}, {"type": "node", "id": 4586541890, "lat": 26.4480174, "lon": 50.1229586, "tags": {"amenity": "hospital", "name": "\u0645\u0633\u062a\u0634\u0641\u0649 \u062a\u062f\u0627\u0648\u064a \u0627\u0644\u0639\u0627\u0645", "name:ar": "\u0645\u0633\u062a\u0634\u0641\u0649 \u062a\u062f\u0627\u0648\u064a \u0627\u0644\u0639\u0627\u0645"}}, {"type": "node", "id": 4587005796, "lat": 24.4264147, "lon": 54.4060632, "tags": {"amenity": "hospital", "name": "\u0645\u0633\u062a\u0634\u0641\u064a \u0627\u0644\u0645\u063a\u0631\u0628\u064a", "name:ar": "\u0645\u0633\u062a\u0634\u0641\u064a \u0627\u0644\u0645\u063a\u0631\u0628\u064a", "name:en": "Magrebi Eye and Ear Hospital"}}, {"type": "node", "id": 4587370892, "lat": 26.38834, "lon": 50.1513083, "tags": {"amenity": "hospital", "healthcare": "hospital", "name": "SEC Hospital"}}, {"type": "node", "id": 4594375306, "lat": 24.2026331, "lon": 55.7481503, "tags": {"amenity": "hospital", "name": "nmc hospital", "name:en": "nmc hospital"}}, {"type": "node", "id": 4596876790, "lat": 25.4042107, "lon": 55.4412919, "tags": {"amenity": "hospital", "name": "Ibin Sina", "name:en": "Ibin Sina"}}, {"type": "node", "id": 4596876892, "lat": 25.5012039, "lon": 55.5992492, "tags": {"amenity": "hospital", "healthcare": "hospital", "internet_access": "wlan", "name": "\u0645\u0633\u062a\u0634\u0641\u0649 \u0627\u0644\u0634\u064a\u062e \u062e\u0644\u064a\u0641\u0629 \u0627\u0644\u0639\u0627\u0645", "name:ar": "\u0645\u0633\u062a\u0634\u0641\u0649 \u0627\u0644\u0634\u064a\u062e \u062e\u0644\u064a\u0641\u0629 \u0627\u0644\u0639\u0627\u0645", "name:en": "Sheikh Khalifa General Hospital", "opening_hours": "24/7"}}, {"type": "node", "id": 4596876893, "lat": 25.4078571, "lon": 55.4425217, "tags": {"amenity": "hospital", "name": "Kuwaiti Hospital", "name:en": "Kuwaiti Hospital"}}, {"type": "node", "id": 4596882290, "lat": 25.4029129, "lon": 55.4424832, "tags": {"amenity": "hospital", "name": "Amina Hospital", "name:en": "Amina Hospital"}}, {"type": "node", "id": 4609265091, "lat": 25.34253, "lon": 55.3857663, "tags": {"addr:street": "Corniche Street", "amenity": "hospital", "name": "NMC Medical Centre Sharjah", "name:en": "NMC Medical Centre Sharjah"}}, {"type": "node", "id": 4614348699, "lat": 23.4722662, "lon": 58.4835187, "tags": {"amenity": "hospital", "name": "\u0645\u0633\u062a\u0634\u0641\u0649 \u0646\u0647\u0636\u0629 \u0645\u062c\u0627\u0646", "name:ar": "\u0645\u0633\u062a\u0634\u0641\u0649 \u0646\u0647\u0636\u0629 \u0645\u062c\u0627\u0646"}}, {"type": "node", "id": 4619897390, "lat": 23.3955121, "lon": 56.9946439, "tags": {"amenity": "hospital", "name": "\u0645\u0631\u0643\u0632 \u0628\u0644\u0627\u062f \u0627\u0644\u0634\u0647\u0648\u0645 \u0627\u0644\u0635\u062d\u0649", "name:en": "Bilad Al Shohoom Health Centre (Primary care Centre)", "opening_hours": "Su-Th 07:00-21:00; Fr-Sa 08:00-15:00", "phone": "25629199"}}, {"type": "node", "id": 4621121994, "lat": 25.2728349, "lon": 51.5133434, "tags": {"amenity": "hospital", "name": "KKT \u0627\u0644\u062f\u0648\u062d\u0629", "name:ar": "KKT \u0627\u0644\u062f\u0648\u062d\u0629"}}, {"type": "node", "id": 4641304811, "lat": 24.2144671, "lon": 55.7057485, "tags": {"amenity": "hospital", "name": "Seih Bin Ammar Clinic", "name:en": "Seih Bin Ammar Clinic"}}, {"type": "node", "id": 4643884489, "lat": 24.4930193, "lon": 54.3600033, "tags": {"amenity": "hospital", "name": "Emirates French Hispital", "name:en": "Emirates French Hispital", "source": "Kaart Ground Survey 2017"}}, {"type": "node", "id": 4646383992, "lat": 24.2880728, "lon": 55.763839, "tags": {"amenity": "hospital", "name": "\u0645\u0631\u0643\u0632 \u0647\u064a\u0644\u064a \u0627\u0644\u0635\u062d\u064a", "name:ar": "\u0645\u0631\u0643\u0632 \u0647\u064a\u0644\u064a \u0627\u0644\u0635\u062d\u064a"}}, {"type": "node", "id": 4646406890, "lat": 24.4198736, "lon": 54.4304476, "tags": {"amenity": "hospital", "name": "\u0645\u0633\u062a\u0634\u0641\u064a \u0632\u0627\u064a\u062f \u0627\u0644\u0639\u0633\u0643\u0631\u064a", "name:ar": "\u0645\u0633\u062a\u0634\u0641\u064a \u0632\u0627\u064a\u062f \u0627\u0644\u0639\u0633\u0643\u0631\u064a"}}, {"type": "node", "id": 4659089398, "lat": 26.3501101, "lon": 50.1329103, "tags": {"amenity": "hospital", "healthcare": "hospital", "name": "\u0645\u062c\u0645\u0639 \u0631\u064a\u0627\u062f\u0629 \u0627\u0644\u0638\u0647\u0631\u0627\u0646 \u0627\u0644\u0637\u0628\u064a", "name:en": "Riyadat Alzahran clinics"}}, {"type": "node", "id": 4663108490, "lat": 26.2941421, "lon": 50.2183905, "tags": {"amenity": "hospital", "healthcare": "hospital", "name": "\u0645\u0633\u062a\u0634\u0641\u0649 \u0627\u0644\u0645\u0627\u0646\u0639", "name:ar": "\u0645\u0633\u062a\u0634\u0641\u0649 \u0627\u0644\u0645\u0627\u0646\u0639", "name:en": "Al Mana Hospital"}}, {"type": "node", "id": 4669431293, "lat": 24.4645335, "lon": 54.3647698, "tags": {"addr:street": "2nd Street", "amenity": "hospital", "name": "\u0645\u0633\u062a\u0634\u0641\u064a \u0646\u064a\u0634\u0646", "name:ar": "\u0645\u0633\u062a\u0634\u0641\u064a \u0646\u064a\u0634\u0646", "name:en": "Nation Hospital"}}, {"type": "node", "id": 4680852595, "lat": 26.4257739, "lon": 50.0362655, "tags": {"addr:postcode": "31441", "addr:street": "King Saud Street", "amenity": "hospital", "email": "tarekzakarya81@gmail.com", "internet_access": "wlan", "name": "\u0645\u062c\u0645\u0639 \u0627\u0644\u0639\u064a\u0627\u062f\u0627\u062a \u0627\u0644\u0627\u0631\u062f\u0646\u064a\u0629", "name:ar": "\u0645\u062c\u0645\u0639 \u0627\u0644\u0639\u064a\u0627\u062f\u0627\u062a \u0627\u0644\u0627\u0631\u062f\u0646\u064a\u0629", "name:en": "Jordinian clinic center", "opening_hours": "Sa-Th 09:00-23:00; Fr 16:00-21:00"}}, {"type": "node", "id": 4685205491, "lat": 24.4895228, "lon": 54.3700299, "tags": {"amenity": "hospital", "name": "Al Raha Hospital Abu Dhabi", "name:en": "Al Raha Hospital Abu Dhabi", "source": "Kaart Ground Survey 2017"}}, {"type": "node", "id": 4691923689, "lat": 25.5639556, "lon": 51.4532987, "tags": {"amenity": "hospital", "name": "Al Daayen Health Centre", "name:ar": "Al Daayen Health Centre", "name:en": "Al Daayen Health Centre"}}, {"type": "node", "id": 4706631790, "lat": 25.381029, "lon": 55.462351, "tags": {"addr:street": "Al Ittihad Street", "amenity": "hospital", "internet_access": "wlan", "name": "Thumbay Hospital ajman", "name:en": "Thumbay Hospital ajman", "website": "https://www.thumbayhospitals.com/"}}, {"type": "node", "id": 4709259089, "lat": 23.5475925, "lon": 58.2959619, "tags": {"amenity": "hospital", "name": "\u0645\u0633\u062a\u0634\u0641\u0649 \u0627\u0644\u0634\u0631\u0637\u0629 \u0627\u0644\u062c\u062f\u064a\u062f", "name:ar": "\u0645\u0633\u062a\u0634\u0641\u0649 \u0627\u0644\u0634\u0631\u0637\u0629 \u0627\u0644\u062c\u062f\u064a\u062f"}}, {"type": "node", "id": 4709497889, "lat": 25.241937, "lon": 51.4308378, "tags": {"amenity": "hospital", "name:en": "al Tahrir medical center"}}, {"type": "node", "id": 4712131390, "lat": 25.1672674, "lon": 55.2136658, "tags": {"addr:street": "Jumeira Street", "amenity": "hospital", "name": "Canada DCuan Medical center", "name:en": "Canada DCuan Medical center"}}, {"type": "node", "id": 4712230389, "lat": 25.2302989, "lon": 55.3240127, "tags": {"amenity": "hospital", "healthcare": "hospital", "name": "institute of Medical Aesthetic", "name:en": "institute of Medical Aesthetic"}}, {"type": "node", "id": 4723224429, "lat": 24.4655319, "lon": 54.385503, "tags": {"addr:street": "\u0634\u0627\u0631\u0639 \u063a\u0652\u0645\u064e\u064a\u0652\u0633\u064e\u0629", "amenity": "hospital", "healthcare": "hospital", "name": "Al Noor Hospital Family Care Centre", "name:en": "Al Noor Hospital Family Care Centre"}}, {"type": "node", "id": 4723981793, "lat": 25.3797632, "lon": 51.4622394, "tags": {"amenity": "hospital", "name": "\u0645\u0631\u0643\u0632 \u0644\u0639\u0628\u064a\u0628 \u0627\u0644\u0635\u062d\u064a", "name:ar": "\u0645\u0631\u0643\u0632 \u0644\u0639\u0628\u064a\u0628 \u0627\u0644\u0635\u062d\u064a", "name:en": "Leabaib health center", "opening_hours": "Sa-Th 07:00-22:00; Fr 14:00-22:00"}}, {"type": "node", "id": 4724768089, "lat": 26.2841774, "lon": 50.1979223, "tags": {"addr:street": "Prince Humud Street", "amenity": "hospital", "healthcare": "hospital", "internet_access": "wlan", "name": "\u0639\u064a\u0627\u062f\u0627\u062a \u0631\u0627\u0645 \u0644\u0637\u0628 \u0627\u0644\u0627\u0633\u0646\u0627\u0646", "name:ar": "\u0639\u064a\u0627\u062f\u0627\u062a \u0631\u0627\u0645 \u0644\u0637\u0628 \u0627\u0644\u0627\u0633\u0646\u0627\u0646", "name:en": "Ram dental care", "name:ru": "\u0420\u0430\u043c \u0441\u0442\u043e\u043c\u043e\u0430\u0442\u043e\u043b\u043e\u0433\u0438\u0447\u0435\u0441\u043a\u0430\u044f \u043a\u043b\u0438\u043d\u0438\u0441\u0430"}}, {"type": "node", "id": 4741454634, "lat": 25.2574151, "lon": 55.306581, "tags": {"addr:street": "Sheikh Khalifa Bin Zayed Street", "amenity": "hospital", "healthcare": "hospital", "internet_access": "wlan", "name": "Medeor 24x7 Hospital", "name:en": "Medeor 24x7 Hospital", "opening_hours": "24/7", "phone": "+97143500600", "website": "https://www.medeor247dubai.com/"}}, {"type": "node", "id": 4746324841, "lat": 24.2238929, "lon": 55.7587557, "tags": {"amenity": "hospital", "healthcare": "hospital", "name": "Burjeel Royal Hospital", "name:en": "Burjeel Royal Hospital", "source": "Kaart Ground Survey 2017"}}, {"type": "node", "id": 4747224734, "lat": 24.2229818, "lon": 55.7682321, "tags": {"amenity": "hospital", "name": "Al Noor Hospital", "name:en": "Al Noor Hospital", "source": "Kaart Ground Survey 2017"}}, {"type": "node", "id": 4758566423, "lat": 23.5968321, "lon": 58.5404292, "tags": {"amenity": "hospital", "name": "Al raffa polyclinic", "name:ar": "Al raffa polyclinic"}}, {"type": "node", "id": 4762200222, "lat": 25.4348966, "lon": 51.4103109, "tags": {"amenity": "hospital", "name": "\u0645\u0631\u0643\u0632 \u0635\u062d\u064a \u0623\u0645 \u0635\u0644\u0627\u0644 \u0645\u062d\u0645\u062f \u0627\u0644\u062c\u062f\u064a\u062f", "name:ar": "\u0645\u0631\u0643\u0632 \u0635\u062d\u064a \u0623\u0645 \u0635\u0644\u0627\u0644 \u0645\u062d\u0645\u062f \u0627\u0644\u062c\u062f\u064a\u062f"}}, {"type": "node", "id": 4762503251, "lat": 25.7719538, "lon": 55.9765925, "tags": {"amenity": "hospital", "name": "Mustashfa Sagar", "name:en": "Mustashfa Sagar"}}, {"type": "node", "id": 4770073611, "lat": 29.4496985, "lon": 55.6790904, "tags": {"amenity": "hospital", "name": "\u0628\u06cc\u0645\u0627\u0631\u0633\u062a\u0627\u0646 \u062f\u06a9\u062a\u0631 \u0635\u0627\u062f\u0642\u06cc"}}, {"type": "node", "id": 4770110110, "lat": 29.4450931, "lon": 55.6608361, "tags": {"addr:city": "\u0633\u06cc\u0631\u062c\u0627\u0646", "addr:street": "\u062e\u06cc\u0627\u0628\u0627\u0646 \u0627\u0628\u0646 \u0633\u06cc\u0646\u0627", "amenity": "hospital", "name": "\u0645\u062c\u062a\u0645\u0639 \u0622\u0645\u0648\u0632\u0634\u06cc \u062f\u0631\u0645\u0627\u0646\u06cc \u0627\u0645\u0627\u0645 \u0631\u0636\u0627"}}, {"type": "node", "id": 4770110113, "lat": 29.4530283, "lon": 55.6762144, "tags": {"amenity": "hospital", "name": "\u062f\u0631\u0645\u0627\u0646\u06af\u0627\u0647 \u0641\u0631\u0647\u0646\u06af\u06cc\u0627\u0646"}}, {"type": "node", "id": 4770110119, "lat": 29.4601378, "lon": 55.6901277, "tags": {"amenity": "hospital", "name": "\u062f\u0631\u0645\u0627\u0646\u06af\u0627\u0647 \u0628\u0647\u0628\u0648\u062f"}}, {"type": "node", "id": 4772099505, "lat": 29.4483643, "lon": 55.6809087, "tags": {"amenity": "hospital", "name": "\u0645\u0631\u06a9\u0632 \u067e\u0632\u0634\u06a9\u06cc \u062a\u062e\u0635\u0635\u06cc \u0628\u0632\u0631\u06af\u0645\u0647\u0631", "old_name": "\u0645\u062c\u062a\u0645\u0639 \u067e\u0632\u0634\u06a9\u0627\u0646 \u0631\u0627\u0632\u06cc"}}, {"type": "node", "id": 4772848623, "lat": 24.3390925, "lon": 54.5542797, "tags": {"amenity": "hospital", "healthcare": "hospital", "name": "\u0645\u0633\u062a\u0634\u0641\u0649 \u0628\u0627\u0631\u064a\u0646", "name:ar": "\u0645\u0633\u062a\u0634\u0641\u0649 \u0628\u0627\u0631\u064a\u0646", "name:en": "Bareen Hospital", "name:ur": "\u0628\u0627\u0631\u06cc\u0646 \u06c1\u0633\u067e\u062a\u0627\u0644"}}, {"type": "node", "id": 4787925432, "lat": 25.3427385, "lon": 55.3858964, "tags": {"addr:postcode": "25262", "addr:street": "Corniche Street", "amenity": "hospital", "email": "hospitalshj@nmc.ae", "name": "New Medical Center", "name:en": "New Medical Center", "phone": "065758000"}}, {"type": "node", "id": 4788910223, "lat": 25.2640625, "lon": 51.4184602, "tags": {"amenity": "hospital", "name": "Residential compound", "name:ar": "Residential compound"}}, {"type": "node", "id": 4790842242, "lat": 26.1727368, "lon": 50.5498538, "tags": {"amenity": "hospital", "name": "Yuissf Engineer", "name:en": "Yuissf Engineer", "source": "Kaart Ground Survey 2017"}}, {"type": "node", "id": 4791492123, "lat": 24.4805142, "lon": 54.3697403, "tags": {"amenity": "hospital", "healthcare": "hospital", "internet_access": "wlan", "name": "Medeor", "name:en": "Medeor"}}, {"type": "node", "id": 4791810022, "lat": 25.378306, "lon": 51.462085, "tags": {"amenity": "hospital", "name:en": "Hamed medical"}}, {"type": "node", "id": 4809030122, "lat": 24.4541783, "lon": 54.6135631, "tags": {"amenity": "hospital", "healthcare": "hospital", "name": "Medeor", "name:en": "Medeor"}}, {"type": "node", "id": 4810824327, "lat": 25.2070712, "lon": 51.5253657, "tags": {"amenity": "hospital", "healthcare": "hospital", "name:en": "Naufar", "name:ru": "\u041d\u0430\u0443\u0444\u0430\u0440", "website": "https://www.naufar.com/"}}, {"type": "node", "id": 4813869751, "lat": 26.2708741, "lon": 50.6554554, "tags": {"addr:street": "Galali Avenue", "amenity": "hospital", "name": "Dream Reem Medical Center", "name:en": "Dream Reem Medical Center", "source": "Kaart Ground Survey 2017."}}, {"type": "node", "id": 4818524921, "lat": 23.5735243, "lon": 58.3864034, "tags": {"amenity": "hospital", "healthcare": "hospital", "healthcare:speciality": "endocrinology", "name": "National Endocrine and Diabetic Center", "name:ar": "National Endocrine and Diabetic Center"}}, {"type": "node", "id": 4818525121, "lat": 23.5737768, "lon": 58.3854615, "tags": {"amenity": "hospital", "name:en": "National Genetics Center"}}, {"type": "node", "id": 4818525221, "lat": 23.577383, "lon": 58.3880008, "tags": {"amenity": "hospital", "name": "\u0627\u0644\u0645\u0631\u0643\u0632 \u0627\u0644\u0648\u0637\u0646\u064a \u0644\u0637\u0628 \u0648\u062c\u0631\u0627\u062d\u0629 \u0627\u0644\u0642\u0644\u0628", "name:en": "National Heart Center"}}, {"type": "node", "id": 4827756428, "lat": 28.6805068, "lon": 57.7442893, "tags": {"amenity": "hospital", "emergency": "yes", "name": "\u0628\u06cc\u0645\u0627\u0631\u0633\u062a\u0627\u0646 \u0642\u0627\u0626\u0645", "name:en": "Ghaem Hospital"}}, {"type": "node", "id": 4838241823, "lat": 26.4356409, "lon": 50.1183142, "tags": {"amenity": "hospital", "healthcare": "hospital", "name": "\u0645\u0633\u062a\u0634\u0641\u064a \u0627\u0644\u0631\u0648\u0636\u0629", "name:ar": "\u0645\u0633\u062a\u0634\u0641\u064a \u0627\u0644\u0631\u0648\u0636\u0629", "name:en": "Alrrowdha hospital"}}, {"type": "node", "id": 4838741421, "lat": 23.1471115, "lon": 53.8074803, "tags": {"amenity": "hospital", "internet_access": "wlan", "name": "\u0645\u0633\u062a\u0634\u0641\u0649 \u0644\u064a\u0648\u0627", "name:ar": "\u0645\u0633\u062a\u0634\u0641\u0649 \u0644\u064a\u0648\u0627", "name:en": "Liwa hospital"}}, {"type": "node", "id": 4874626521, "lat": 24.4022648, "lon": 54.5042097, "tags": {"amenity": "hospital", "fixme": "name, name:en mismatch.", "healthcare": "hospital", "name": "helth care", "name:ar": "\u0645\u0631\u0643\u0632 \u0627\u0644\u0645\u0642\u0637\u0639 \u0627\u0644\u0635\u062d\u064a", "name:en": "Almaqta Healthcare Center", "opening_hours": "Sa-Th 07:00-22:00; Fr 14:00-22:00", "phone": "80050", "website": "https://www.seha.ae/"}}, {"type": "node", "id": 4880123221, "lat": 23.5928547, "lon": 58.4229735, "tags": {"addr:street": "al khuwair south", "amenity": "hospital", "name:en": "sultan medicals"}}, {"type": "node", "id": 4895781122, "lat": 23.8993421, "lon": 52.8018261, "tags": {"amenity": "hospital", "name:en": "Ghayathi Community Hospital"}}, {"type": "node", "id": 4902430521, "lat": 24.4711335, "lon": 54.3712227, "tags": {"amenity": "hospital", "name": "All Wanda medical center", "name:en": "All Wanda medical center"}}, {"type": "node", "id": 4924693321, "lat": 24.360754, "lon": 54.5214287, "tags": {"amenity": "hospital"}}, {"type": "node", "id": 4937183907, "lat": 25.346097, "lon": 55.3909247, "tags": {"addr:street": "King Abdul Aziz Street", "amenity": "hospital", "name": "Sharjah International Holistic Health Center", "name:en": "Sharjah International Holistic Health Center", "source": "Kaart Ground Survey 2017"}}, {"type": "node", "id": 4937656207, "lat": 25.3376723, "lon": 55.3935312, "tags": {"addr:street": "Masoud Bin Rabee'ah Street", "amenity": "hospital", "name": "Al Minha Medical Centre", "name:en": "Al Minha Medical Centre", "source": "Kaart Ground Survey 2017"}}, {"type": "node", "id": 4957309011, "lat": 23.6074599, "lon": 58.5130059, "tags": {"amenity": "hospital", "name": "Gulf Specialized Hospital", "source": "Kaart Ground Survey 2017"}}, {"type": "node", "id": 4987004621, "lat": 26.4105553, "lon": 50.0473984, "tags": {"addr:housenumber": "212", "addr:postcode": "31411", "addr:street": "Al Imam Al Termathei St.", "amenity": "hospital", "internet_access": "wlan", "name": "\u0645\u0633\u062a\u0634\u0641\u0649 \u0627\u0644\u0645\u0648\u0627\u0633\u0627\u0629 \u0628\u0627\u0644\u062f\u0645\u0627\u0645", "name:en": "Almouwasat hospital", "phone": "013820000", "website": "https://mouwasat.com/"}}, {"type": "node", "id": 5005780321, "lat": 29.5882835, "lon": 52.5939306, "tags": {"amenity": "hospital", "name": "\u062f\u0631\u0645\u0627\u0646\u06af\u0627\u0647 \u062e\u06cc\u0627\u0645"}}, {"type": "node", "id": 5015141840, "lat": 24.4431987, "lon": 54.3981282, "tags": {"addr:city": "\u0623\u0628\u0648 \u0638\u0628\u064a", "amenity": "hospital", "healthcare": "hospital", "healthcare:speciality": "general;gynaecology;paediatrics;internal;dermatology;radiology;dentist", "name": "\u0648\u06cc\u0644\u0646\u06cc\u0633 \u0648\u0646 \u0688\u06d2 \u0633\u0631\u062c\u0631\u06cc \u0633\u0646\u0679\u0631", "name:en": "Wellness One Day Surgery Centre", "name:ur": "\u0648\u06cc\u0644\u0646\u06cc\u0633 \u0648\u0646 \u0688\u06d2 \u0633\u0631\u062c\u0631\u06cc \u0633\u0646\u0679\u0631", "operator:type": "private", "wheelchair": "yes"}}, {"type": "node", "id": 5031705231, "lat": 24.4827281, "lon": 54.361459, "tags": {"amenity": "hospital", "name": "\u0645\u0631\u0643\u0632 \u0641\u062d\u0635 \u0645\u062f\u064a\u0646\u0629 \u0632\u0627\u064a\u062f", "name:ar": "\u0645\u0631\u0643\u0632 \u0641\u062d\u0635 \u0645\u062f\u064a\u0646\u0629 \u0632\u0627\u064a\u062f", "name:en": "\u0645\u0631\u0643\u0632 \u0627\u0644\u0645\u062f\u064a\u0646\u0647 \u0644\u0644\u0635\u062d\u0647 \u0627\u0644\u0645\u0647\u0646\u064a\u0647"}}, {"type": "node", "id": 5069436521, "lat": 24.4645465, "lon": 54.3847475, "tags": {"amenity": "hospital", "healthcare": "hospital", "name": "Pioneer Medical Services LLC", "name:en": "Pioneer Medical Services LLC"}}, {"type": "node", "id": 5071951821, "lat": 23.974074, "lon": 57.0877423, "tags": {"amenity": "hospital", "name": "\u0645\u062c\u0645\u0639 \u0627\u0644\u0639\u0627\u0626\u0644\u0629 \u0627\u0644\u062e\u0627\u0635", "name:ar": "\u0645\u062c\u0645\u0639 \u0627\u0644\u0639\u0627\u0626\u0644\u0629 \u0627\u0644\u062e\u0627\u0635"}}, {"type": "node", "id": 5111165421, "lat": 24.3374451, "lon": 54.5321252, "tags": {"amenity": "hospital", "name": "New National Medical", "name:en": "New National Medical"}}, {"type": "node", "id": 5112984221, "lat": 24.2274178, "lon": 55.764393, "tags": {"amenity": "hospital", "name": "Tahya Home Health Care", "name:en": "Tahya Home Health Care"}}, {"type": "node", "id": 5141815624, "lat": 24.2205874, "lon": 55.7719568, "tags": {"amenity": "hospital", "healthcare": "hospital", "name": "Happy Life Home Health Care", "name:en": "Happy Life Home Health Care"}}, {"type": "node", "id": 5156435322, "lat": 24.4622087, "lon": 54.3560207, "tags": {"amenity": "hospital", "healthcare": "hospital"}}, {"type": "node", "id": 5170714659, "lat": 25.319359, "lon": 55.3800857, "tags": {"addr:city": "Al Majaz 2", "addr:street": "\u0634\u0627\u0631\u0639 \u0627\u0644\u0627\u0646\u062a\u0641\u0627\u0636\u0629", "amenity": "hospital", "email": "eliyamedicalcenter@gmail.com", "emergency": "no", "fax": "06 5512898", "healthcare": "hospital", "healthcare:speciality": "clinic;general", "name": "Eliya Medical Center", "name:ar": "\u0645\u0631\u0643\u0632 \u0625\u064a\u0644\u064a\u0627\u0621 \u0627\u0644\u0637\u0628\u064a", "name:en": "eliya Medical Center", "operator": "eliya Medical Center", "phone": "+971 6 551 2898"}}, {"type": "node", "id": 5189872422, "lat": 23.6145607, "lon": 58.5478768, "tags": {"amenity": "hospital", "name:en": "Free medical"}}, {"type": "node", "id": 5197396422, "lat": 23.8993434, "lon": 52.801847, "tags": {"addr:street": "Ghayathi-Al Ruwais Road", "amenity": "hospital", "internet_access": "wlan", "name": "SEHA-Al Dhafra Hospital", "name:en": "Ghayathi Hospital"}}, {"type": "node", "id": 5207195921, "lat": 29.0502632, "lon": 58.41152, "tags": {"amenity": "hospital", "name": "\u0645\u0631\u06a9\u0632 \u0628\u0647\u062f\u0627\u0634\u062a \u0628\u0631\u0648\u0627\u062a"}}, {"type": "node", "id": 5215492321, "lat": 24.1922707, "lon": 55.6467537, "tags": {"amenity": "hospital", "name": "Imperial College London Diabetes Center", "name:en": "Imperial College London Diabetes Center", "website": "https://www.icldc.ae/"}}, {"type": "node", "id": 5219621332, "lat": 25.6876691, "lon": 55.9659031, "tags": {"amenity": "hospital", "name": "Digdagah Hospital", "name:en": "Digdagah Hospital"}}, {"type": "node", "id": 5220332221, "lat": 25.4333885, "lon": 51.4106365, "tags": {"amenity": "hospital", "name": "Um Slal", "name:en": "Um Slal"}}, {"type": "node", "id": 5253352721, "lat": 24.3512451, "lon": 54.637609, "tags": {"amenity": "hospital", "name": "Cambridge Medical And Rehabilitation Centre", "name:en": "Cambridge Medical And Rehabilitation Centre", "opening_hours": "24/7"}}, {"type": "node", "id": 5265622121, "lat": 29.649294, "lon": 52.489228, "tags": {"addr:street": "\u0642\u0635\u0631\u062f\u0634\u062a", "amenity": "hospital", "healthcare": "hospital", "name": "\u0645\u0631\u06a9\u0632 \u062c\u0627\u0645\u0639 \u0698\u0646\u062a\u06cc\u06a9 \u067e\u0632\u0634\u06a9\u06cc (\u0634\u0647\u06cc\u062f \u0633\u0644\u0637\u0627\u0646\u06cc)", "name:en": "Genetic center ( Shahid soltani)"}}, {"type": "node", "id": 5274090421, "lat": 23.6373046, "lon": 55.5664763, "tags": {"amenity": "hospital", "name": "\u0645\u0633\u062a\u0634\u0641\u064a \u0627\u0644\u0648\u0642\u0646", "name:ar": "\u0645\u0633\u062a\u0634\u0641\u064a \u0627\u0644\u0648\u0642\u0646", "opening_hours": "24/7"}}, {"type": "node", "id": 5276842722, "lat": 24.1922776, "lon": 55.6469703, "tags": {"amenity": "hospital", "name": "Tawam Imperial College London Diabetes Center", "name:en": "Tawam Imperial College London Diabetes Center"}}, {"type": "node", "id": 5306841463, "lat": 26.2206272, "lon": 50.5242161, "tags": {"addr:street": "\u0634\u0627\u0631\u0639 \u0642\u0644\u0639\u0629 \u0627\u0644\u0628\u062d\u0631\u064a\u0646", "amenity": "hospital", "emergency": "yes", "healthcare": "hospital", "healthcare:speciality": "general", "name": "Emergency Stand", "name:en": "Emergency Stand", "operator": "International Hospital", "tourism": "attraction"}}, {"type": "node", "id": 5344534322, "lat": 25.4183616, "lon": 55.5017808, "tags": {"amenity": "hospital", "email": "farhad@thumbay.com", "name": "THUMBAY MEDI City", "name:en": "THUMBAY MEDI City", "opening_hours": "24/7", "phone": "0097167431333"}}, {"type": "node", "id": 5401030222, "lat": 24.2316982, "lon": 55.7320328, "tags": {"amenity": "hospital", "internet_access": "wlan", "name": "\u0645\u0628\u0646\u0649 \u0627\u0644\u0645\u0648\u0627\u0631\u062f \u0627\u0644\u0628\u0634\u0631\u064a\u0647 - \u0645\u0633\u062a\u0634\u0641\u0649 \u0627\u0644\u0639\u064a\u0646", "name:ar": "\u0645\u0628\u0646\u0649 \u0627\u0644\u0645\u0648\u0627\u0631\u062f \u0627\u0644\u0628\u0634\u0631\u064a\u0647 - \u0645\u0633\u062a\u0634\u0641\u0649 \u0627\u0644\u0639\u064a\u0646", "name:en": "HR building - Al Ain hospital", "opening_hours": "Su-Th 08:00-16:00"}}, {"type": "node", "id": 5401036322, "lat": 24.2315342, "lon": 55.7330242, "tags": {"amenity": "hospital", "internet_access": "wlan", "name": "\u0645\u0628\u0646\u0649 \u0627\u0633\u062a\u0642\u0628\u0627\u0644 \u0627\u0644\u0637\u0648\u0627\u0631\u0626 - \u0645\u0633\u062a\u0634\u0641\u0649 \u0627\u0644\u0639\u064a\u0646", "name:ar": "\u0645\u0628\u0646\u0649 \u0627\u0633\u062a\u0642\u0628\u0627\u0644 \u0627\u0644\u0637\u0648\u0627\u0631\u0626 - \u0645\u0633\u062a\u0634\u0641\u0649 \u0627\u0644\u0639\u064a\u0646", "name:en": "Emergency Department - Al Ain hospital", "opening_hours": "24/7"}}, {"type": "node", "id": 5427975121, "lat": 25.2321929, "lon": 55.3177517, "tags": {"addr:housenumber": "62", "addr:postcode": "505240", "addr:street": "\u0634\u0627\u0631\u0639 \u0639\u0648\u062f \u0645\u064a\u062b\u0627\u0621", "amenity": "hospital", "healthcare": "hospital", "name": "Emirates Speciality Hospital", "name:en": "Emirates Speciality Hospital", "opening_hours": "24/7", "phone": "042484500"}}, {"type": "node", "id": 5432744121, "lat": 23.3346993, "lon": 58.6016241, "tags": {"amenity": "hospital", "name": "\u0645\u0633\u062a\u0634\u0641\u0649 \u0627\u0644\u0645\u0633\u0631\u0629", "name:en": "AL Masarra Hospital"}}, {"type": "node", "id": 5471018822, "lat": 25.2891158, "lon": 55.3663467, "tags": {"amenity": "hospital", "healthcare": "hospital", "name": "Dr. Batra's", "name:en": "Dr. Batra's", "phone": "800228727"}}, {"type": "node", "id": 5486408223, "lat": 25.4186323, "lon": 50.7827308, "tags": {"amenity": "hospital", "name": "QP Dukhan Medical Hospital"}}, {"type": "node", "id": 5492422521, "lat": 24.3291541, "lon": 54.6130388, "tags": {"amenity": "hospital", "name": "\u0645\u0633\u062a\u0634\u0641\u064a \u0627\u0644\u0645\u0641\u0631\u0642"}}, {"type": "node", "id": 5500774223, "lat": 24.4596856, "lon": 54.3789422, "tags": {"amenity": "hospital", "name": "Universal Hospital", "name:en": "Universal Hospital"}}, {"type": "node", "id": 5501154026, "lat": 26.4129281, "lon": 50.1157147, "tags": {"amenity": "hospital", "healthcare": "hospital", "name": "\u0645\u0633\u062a\u0634\u0641\u0649 \u0627\u0644\u0645\u0627\u0646\u0639 \u0627\u0644\u0639\u0627\u0645 \u0628\u0627\u0644\u062f\u0645\u0627\u0645 \u062d\u064a \u0639\u0628\u062f\u0627\u0644\u0644\u0647 \u0641\u0624\u0627\u062f", "name:ar": "\u0645\u0633\u062a\u0634\u0641\u0649 \u0627\u0644\u0645\u0627\u0646\u0639 \u0627\u0644\u0639\u0627\u0645 \u0628\u0627\u0644\u062f\u0645\u0627\u0645 \u062d\u064a \u0639\u0628\u062f\u0627\u0644\u0644\u0647 \u0641\u0624\u0627\u062f"}}, {"type": "node", "id": 5512342121, "lat": 23.5733544, "lon": 58.3817013, "tags": {"addr:street": "\u0634\u0627\u0631\u0639 \u063a\u0644\u0627", "amenity": "hospital", "name": "Amazon Medical Complex LLC", "opening_hours": "Mo-Su 09:00-21:00"}}, {"type": "node", "id": 5694989972, "lat": 25.3198569, "lon": 55.3632982, "tags": {"amenity": "hospital", "name": "New Hope Hospital"}}, {"type": "node", "id": 5797715953, "lat": 24.2062864, "lon": 55.6624872, "tags": {"addr:street": "\u0634\u0627\u0631\u0639 17", "amenity": "hospital", "name": "\u0645\u0633\u062a\u0634\u0641\u0649 \u0645\u064a\u062f\u064a\u0648\u0631 \u0627\u0650\u0646\u062a\u0631\u0646\u0627\u0634\u0648\u0646\u0627\u0644\u0662\u0664*\u0667", "name:ar": "\u0645\u0633\u062a\u0634\u0641\u0649 \u0645\u064a\u062f\u064a\u0648\u0631 \u0627\u0650\u0646\u062a\u0631\u0646\u0627\u0634\u0648\u0646\u0627\u0644\u0662\u0664*\u0667", "name:en": "Medeor International Hospital 24X7", "opening_hours": "24/7", "phone": "800900600", "website": "http://medeorinternation.com"}}, {"type": "node", "id": 5891279785, "lat": 24.4791145, "lon": 54.3809541, "tags": {"amenity": "hospital", "healthcare": "hospital", "name": "Pergil.burjeel"}}, {"type": "node", "id": 5897112487, "lat": 25.2821664, "lon": 55.3884742, "tags": {"amenity": "hospital", "healthcare": "hospital", "name": "mediclinic qusais", "name:en": "mediclinic qusais", "operator": "Mediclinic", "operator:wikidata": "Q1916123"}}, {"type": "node", "id": 6033738890, "lat": 24.9376455, "lon": 50.9930089, "tags": {"amenity": "hospital", "name:en": "Ambulance Exchange Point"}}, {"type": "node", "id": 6064375612, "lat": 25.1483438, "lon": 55.2112593, "tags": {"addr:city": "\u062f\u0628\u064a", "addr:city:ar": "\u062f\u0628\u064a", "addr:city:en": "Dubai", "addr:city:ur": "\u062f\u0628\u0626\u06cc", "addr:housenumber": "Villa 969", "addr:postcode": "00000", "addr:street": "Al Wasl Road, Umm Suqeim 2", "amenity": "hospital", "emergency": "no", "healthcare": "hospital", "healthcare:speciality": "paediatrics;chiropractic;orthopaedics;osteopathy;clinic;physiotherapy", "name": "Osteopathy Health Centre", "phone": "04 348 73 66", "website": "https://osteopathydubai.com/"}}, {"type": "node", "id": 6142844888, "lat": 24.475498, "lon": 54.3742322, "tags": {"amenity": "hospital", "healthcare": "hospital"}}, {"type": "node", "id": 6163108275, "lat": 24.0856678, "lon": 52.6651871, "tags": {"amenity": "hospital", "healthcare": "hospital", "name": "RUWAIS HOSPITAL", "operator": "NMC - Brought by ADNOC"}}, {"type": "node", "id": 6175233585, "lat": 25.35866, "lon": 55.3896198, "tags": {"amenity": "hospital", "name": "al saha al shifa tatim"}}, {"type": "node", "id": 6175233586, "lat": 25.34576, "lon": 55.4067005, "tags": {"amenity": "hospital", "healthcare": "hospital", "name": "\u0637\u0628 \u0627\u0644\u0648\u0642\u0627\u0626\u064a"}}, {"type": "node", "id": 6199296700, "lat": 27.1924265, "lon": 57.4451654, "tags": {"addr:city": "\u0686\u0631\u0627\u063a\u0627\u0628\u0627\u062f", "addr:postcode": "79991", "amenity": "hospital", "healthcare": "hospital", "name": "\u062f\u0631\u0645\u0627\u0646\u06af\u0627\u0647"}}, {"type": "node", "id": 6236695829, "lat": 27.1334955, "lon": 57.4318361, "tags": {"amenity": "hospital", "healthcare": "hospital", "name": "\u062f\u0631\u0645\u0627\u0646\u06af\u0627\u0647 \u0634\u0628\u0627\u0646\u0647 \u0631\u0648\u0632\u06cc"}}, {"type": "node", "id": 6261521887, "lat": 28.4286164, "lon": 52.3435436, "tags": {"amenity": "hospital", "name:en": "Red crescent emergency service"}}, {"type": "node", "id": 6290660185, "lat": 26.2310093, "lon": 50.5495542, "tags": {"amenity": "hospital", "name": "Tulip medical centre"}}, {"type": "node", "id": 6314800550, "lat": 29.5456217, "lon": 52.5899451, "tags": {"addr:city": "\u0641\u0631\u0648\u062f\u06af\u0627\u0647 \u0634\u06cc\u0631\u0627\u0632", "addr:street": "\u062f\u06a9\u062a\u0631 \u0634\u0627\u0647\u0686\u0631\u0627\u063a\u06cc", "amenity": "hospital", "emergency": "yes", "healthcare": "hospital", "healthcare:speciality": "general", "name": "\u0627\u0648\u0631\u0698\u0627\u0646\u0633 \u0641\u0631\u0648\u062f\u06af\u0627\u0647 \u0634\u06cc\u0631\u0627\u0632", "name:en": "Shiraz Airport Emergency Hospital", "name:fa": "\u0627\u0648\u0631\u0698\u0627\u0646\u0633 \u0641\u0631\u0648\u062f\u06af\u0627\u0647 \u0634\u06cc\u0631\u0627\u0632", "source": "local knowledge", "wheelchair": "yes"}}, {"type": "node", "id": 6326726886, "lat": 24.470978, "lon": 54.3651207, "tags": {"amenity": "hospital", "name": "\u0627\u0644\u0634\u064a\u062e \u062e\u0644\u064a\u0641\u0629"}}, {"type": "node", "id": 6371743490, "lat": 24.3722485, "lon": 54.5081105, "tags": {"amenity": "hospital", "name": "M10.printers"}}, {"type": "node", "id": 6371743491, "lat": 24.4514825, "lon": 54.4046181, "tags": {"amenity": "hospital", "name": "Parking.accomodition"}}, {"type": "node", "id": 6371743492, "lat": 25.7846769, "lon": 55.9381152, "tags": {"amenity": "hospital", "name": "Adm.ras.alkhaima.muncipality"}}, {"type": "node", "id": 6371743493, "lat": 24.3610518, "lon": 54.5095967, "tags": {"amenity": "hospital", "name": "Alkhaled.car.samweel"}}, {"type": "node", "id": 6371769486, "lat": 24.4716262, "lon": 54.3427868, "tags": {"amenity": "hospital", "name": "Asd.saadiat"}}, {"type": "node", "id": 6371769487, "lat": 24.3723424, "lon": 54.5087024, "tags": {"amenity": "hospital", "healthcare": "hospital", "name": "M10.mossafah33333"}}, {"type": "node", "id": 6372413659, "lat": 29.5930319, "lon": 57.4364054, "tags": {"amenity": "hospital", "name": "\u062f\u0631\u0645\u0627\u0646\u06af\u0627\u0647"}}, {"type": "node", "id": 6404934385, "lat": 25.0029206, "lon": 55.1541134, "tags": {"amenity": "hospital", "name": "NMC dip"}}, {"type": "node", "id": 6493351085, "lat": 24.4213944, "lon": 54.4492787, "tags": {"amenity": "hospital", "internet_access": "wlan", "name:en": "Specialized Rehabilitation Hospital", "opening_hours": "24/7"}}, {"type": "node", "id": 6505593847, "lat": 28.9178937, "lon": 50.8430904, "tags": {"amenity": "hospital"}}, {"type": "node", "id": 6535364487, "lat": 26.1553023, "lon": 50.5677716, "tags": {"amenity": "hospital", "name": "aster clinic", "name:ar": "aster clinic"}}, {"type": "node", "id": 6535364488, "lat": 26.2260268, "lon": 50.5535577, "tags": {"amenity": "hospital", "name": "\u0639\u064a\u0627\u062f\u0629 \u0646\u0628\u064a\u0644 \u062a\u0645\u0627\u0645 \u0627\u0644\u0628\u062d\u0631\u064a\u0646", "name:ar": "\u0639\u064a\u0627\u062f\u0629 \u0646\u0628\u064a\u0644 \u062a\u0645\u0627\u0645 \u0627\u0644\u0628\u062d\u0631\u064a\u0646"}}, {"type": "node", "id": 6535378685, "lat": 26.4749364, "lon": 50.0440472, "tags": {"amenity": "hospital", "name": "\u0627\u0644\u0645\u062f\u0644\u0648\u062d \u0633\u064a\u0647\u0627\u062a", "name:ar": "\u0627\u0644\u0645\u062f\u0644\u0648\u062d \u0633\u064a\u0647\u0627\u062a"}}, {"type": "node", "id": 6535378686, "lat": 26.4690235, "lon": 50.0448509, "tags": {"amenity": "hospital", "name": "\u0627\u0644\u0631\u0628\u0627\u0646 \u0627\u0644\u0637\u0628\u064a", "name:ar": "\u0627\u0644\u0631\u0628\u0627\u0646 \u0627\u0644\u0637\u0628\u064a"}}, {"type": "node", "id": 6535378785, "lat": 26.4792778, "lon": 50.0438404, "tags": {"amenity": "hospital", "healthcare": "hospital", "name": "\u0645\u0633\u062a\u0634\u0641\u0649 \u0627\u0644\u0635\u0627\u062f\u0642 \u0633\u064a\u0647\u0627\u062a", "name:ar": "\u0645\u0633\u062a\u0634\u0641\u0649 \u0627\u0644\u0635\u0627\u062f\u0642 \u0633\u064a\u0647\u0627\u062a"}}, {"type": "node", "id": 6598257565, "lat": 25.7436646, "lon": 59.2115325, "tags": {"amenity": "hospital", "healthcare": "hospital", "name": "\u062e\u0627\u0646\u0647 \u0628\u0647\u062f\u0627\u0634\u062a"}}, {"type": "node", "id": 6712095386, "lat": 24.3608366, "lon": 54.5210047, "tags": {"amenity": "hospital", "name": "LIFE CARE HOSPITAL MUSAFFAH", "name:en": "LIFE CARE HOSPITAL MISAFFAH"}}, {"type": "node", "id": 6712111885, "lat": 24.3789185, "lon": 54.5160306, "tags": {"amenity": "hospital", "name": "LIFE LINE HOSPITAL MUSAFFAH", "name:en": "LIFE LINE HOSPITAL MISAFFAH"}}, {"type": "node", "id": 6817581316, "lat": 25.31169, "lon": 51.2365212, "tags": {"amenity": "hospital", "email": "mc.info@abmmc.edu.qa", "emergency": "yes", "healthcare": "hospital", "healthcare:speciality": "general;clinic", "name": "\u0645\u0631\u0643\u0632 \u0643\u0644\u064a\u0629 \u0623\u062d\u0645\u062f \u0628\u0646 \u0645\u062d\u0645\u062f \u0627\u0644\u0639\u0633\u0643\u0631\u064a\u0629 \u0627\u0644\u0637\u0628\u064a", "name:ar": "\u0645\u0631\u0643\u0632 \u0643\u0644\u064a\u0629 \u0623\u062d\u0645\u062f \u0628\u0646 \u0645\u062d\u0645\u062f \u0627\u0644\u0639\u0633\u0643\u0631\u064a\u0629 \u0627\u0644\u0637\u0628\u064a", "phone": "+97444619555"}}, {"type": "node", "id": 7005547940, "lat": 26.310671, "lon": 50.2122458, "tags": {"amenity": "hospital", "healthcare": "hospital", "name": "\u0645\u0633\u062a\u0634\u0641\u0649 \u062f. \u0633\u0644\u064a\u0645\u0627\u0646 \u0627\u0644\u062d\u0628\u064a\u0628", "name:ar": "\u0645\u0633\u062a\u0634\u0641\u0649 \u062f. \u0633\u0644\u064a\u0645\u0627\u0646 \u0627\u0644\u062d\u0628\u064a\u0628", "name:en": "Dr. Sulaiman Al Habib Hospital"}}, {"type": "node", "id": 7016951085, "lat": 25.2674603, "lon": 51.4293654, "tags": {"amenity": "hospital", "name": "\u0627\u0644\u0627\u0631\u0627\u0643", "name:ar": "\u0627\u0644\u0627\u0631\u0627\u0643", "name:en": "Arak Dental Clinic"}}, {"type": "node", "id": 7140911995, "lat": 29.5968799, "lon": 52.6011031, "tags": {"amenity": "hospital", "healthcare": "hospital", "name": "\u0628\u06cc\u0645\u0627\u0631\u0633\u062a\u0627\u0646 \u0631\u0633\u0648\u0644 \u0627\u0639\u0638\u0645"}}, {"type": "node", "id": 7141673388, "lat": 23.5974607, "lon": 58.3986756, "tags": {"amenity": "hospital", "name": "\u0645\u0631\u0643\u0632 \u0642\u0645\u0631 \u0644\u0644\u0627\u0645\u0631\u0627\u0636 \u0627\u0644\u062c\u0644\u062f\u064a\u0629 \u0648\u0632\u0631\u0627\u0639\u0629 \u0627\u0644\u0634\u0639\u0631"}}, {"type": "node", "id": 7142071785, "lat": 23.602444, "lon": 58.3672568, "tags": {"amenity": "hospital", "name": "\u0627\u0644\u0645\u0631\u0643\u0632 \u0627\u0644\u0637\u0628\u064a \u0627\u0644\u0625\u064a\u0631\u0627\u0646\u064a \u0623\u0645\u0631\u0627\u0636 \u062c\u0644\u062f\u064a\u0629"}}, {"type": "node", "id": 7247059485, "lat": 24.3550507, "lon": 54.5378701, "tags": {"amenity": "hospital", "internet_access": "wlan", "name:en": "Burjeel Medical City", "opening_hours": "24/7"}}, {"type": "node", "id": 7259046186, "lat": 23.7978909, "lon": 54.1628714, "tags": {"amenity": "hospital", "name": "\u0645\u0633\u062a\u0634\u0641\u0649", "name:en": "infinity"}}, {"type": "node", "id": 7259046187, "lat": 23.6581824, "lon": 53.7276116, "tags": {"amenity": "hospital", "name": "\u0645\u0633\u062a\u0634\u0641\u0649"}}, {"type": "node", "id": 7320853456, "lat": 26.2163662, "lon": 50.5770939, "tags": {"amenity": "hospital", "healthcare": "hospital", "name": "Middle East Hospital"}}, {"type": "node", "id": 7331761185, "lat": 25.2097152, "lon": 55.3206903, "tags": {"amenity": "hospital", "healthcare": "hospital", "name:en": "Barraquer Eye Hospital"}}, {"type": "node", "id": 7340170641, "lat": 25.2795792, "lon": 55.4056739, "tags": {"amenity": "hospital", "emergency": "no", "healthcare": "clinic", "name": "Aster Medical Clinic"}}, {"type": "node", "id": 7380314389, "lat": 24.4949058, "lon": 54.4086215, "tags": {"amenity": "hospital", "healthcare": "hospital", "healthcare:speciality": "general", "name": "Burjeel Day Surgery Center"}}, {"type": "node", "id": 7404885064, "lat": 25.0995266, "lon": 55.2004475, "tags": {"amenity": "hospital", "contact:email": "info@ahdubai.com", "contact:facebook": "https://facebook.com/ahdubaiae", "contact:instagram": "https://instagram.com/ahdubai", "contact:linkedin": "https://linkedin.com/company/american-hospital-dubai", "contact:phone": "+971 4 377 5500;+971 800 24392", "contact:twitter": "https://twitter.com/@ahdubai", "contact:website": "https://www.ahdubai.com/", "contact:youtube": "https://youtube.com/user/AmericanHospital2012", "healthcare": "clinic", "name": "American", "opening_hours": "Mo-Th, Sa-Su 09:00-21:00", "operator": "American Hospital", "shop": "medical_supply"}}, {"type": "node", "id": 7414566560, "lat": 25.099551, "lon": 55.200764, "tags": {"amenity": "hospital", "contact:facebook": "https://facebook.com/American.HospitalDubai1", "contact:instagram": "https://instagram.com/ahdubai", "contact:linkedin": "https://linkedin.com/company/american-hospital-dubai", "contact:phone": "+971 4 336 7777;+971 4 377 5500", "contact:twitter": "https://twitter.com/@ahdubai", "contact:website": "https://www.ahdubai.com/", "name": "American", "opening_hours": "Mo-Th,Sa-Su 09:00-21:00", "operator": "American"}}, {"type": "node", "id": 7488451289, "lat": 26.2313424, "lon": 50.5825579, "tags": {"amenity": "hospital", "healthcare": "hospital", "name": "American Mission Hospital"}}, {"type": "node", "id": 7488451295, "lat": 26.2338828, "lon": 50.5830788, "tags": {"amenity": "hospital", "healthcare": "hospital", "name": "Shifa Al Jazeera Hospital"}}, {"type": "node", "id": 7575521808, "lat": 28.8226232, "lon": 56.3466585, "tags": {"amenity": "hospital", "emergency": "yes", "healthcare": "hospital", "healthcare:speciality": "emergency", "name": "Emergency115"}}, {"type": "node", "id": 7706804985, "lat": 25.2828181, "lon": 51.4024833, "tags": {"amenity": "hospital", "name:en": "Wajba hospital"}}, {"type": "node", "id": 7760496209, "lat": 24.908941, "lon": 55.1185477, "tags": {"amenity": "hospital", "contact:email": "shifadubai@shifa.com.pk", "contact:facebook": "https://facebook.com/shifa.international.hospital", "contact:instagram": "https://instagram.com/shifainternationalhospital_", "contact:phone": "+971 4 887 9580;+971 50 748 5775;+971 56 403 2005", "contact:twitter": "https://twitter.com/@shifacares", "contact:website": "https://www.shifa.com.pk/", "contact:youtube": "https://youtube.com/channel/UCtrEsHEsbZd0k_Mfku6ZoIg", "healthcare": "hospital", "name": "Shifa International Hospitals DWC", "office": "company", "opening_hours": "Mo-Th,Su 09:00-17:00", "operator": "Shifa International Hospitals DWC LLC"}}, {"type": "node", "id": 7887321285, "lat": 23.5997953, "lon": 58.3789083, "tags": {"addr:housenumber": "325", "addr:street": "18 \u0646\u0648\u0641\u0645\u0628\u0631 \u0634\u0627\u0631\u0639", "amenity": "hospital", "name": "\u0627\u0644\u0645\u0631\u0643\u0632 \u0627\u0644\u062f\u0648\u0644\u064a \u0627\u0644\u062a\u062e\u0635\u0635\u064a \u0644\u0623\u0645\u0631\u0627\u0636 \u0627\u0644\u0642\u0644\u0628 \u0648 \u0627\u0644\u0623\u0648\u0639\u064a\u0629"}}, {"type": "node", "id": 8090540631, "lat": 27.2106348, "lon": 56.33419, "tags": {"amenity": "hospital", "healthcare": "hospital", "name": "\u0627\u0648\u0631\u0698\u0627\u0646\u0633 \u062e\u0644\u06cc\u062c \u0641\u0627\u0631\u0633"}}, {"type": "node", "id": 8090540632, "lat": 27.2092554, "lon": 56.333415, "tags": {"amenity": "hospital", "healthcare": "hospital", "name": "\u0628\u062e\u0634 \u0628\u0633\u062a\u0631\u06cc \u0628\u06cc\u0645\u0627\u0631\u0633\u062a\u0627\u0646 \u062e\u0644\u06cc\u062c \u0641\u0627\u0631\u0633"}}, {"type": "node", "id": 8090540633, "lat": 27.2084665, "lon": 56.3341919, "tags": {"amenity": "hospital", "healthcare": "hospital", "name": "\u062f\u0631\u0645\u0627\u0646\u06af\u0627\u0647 \u0628\u06cc\u0645\u0627\u0631\u0633\u062a\u0627\u0646 \u062e\u0644\u06cc\u062c \u0641\u0627\u0631\u0633"}}, {"type": "node", "id": 8104318489, "lat": 24.436245, "lon": 54.5883496, "tags": {"amenity": "hospital", "name": "Amana health care"}}, {"type": "node", "id": 8116942518, "lat": 25.2812383, "lon": 51.5064817, "tags": {"amenity": "hospital", "name:en": "Sadd hospital children"}}, {"type": "node", "id": 8116943817, "lat": 25.2502748, "lon": 51.483695, "tags": {"amenity": "hospital", "healthcare": "hospital", "name": "Hospital abdurkadir wholesale market"}}, {"type": "node", "id": 8153393792, "lat": 24.1944744, "lon": 54.8494452, "tags": {"amenity": "hospital", "name": "\u062a\u062c\u0645\u0639\u0627\u062a \u0645\u0633\u062a\u0634\u0641\u0649 \u0643\u0631\u0648\u0646\u0627 razeen 4"}}, {"type": "node", "id": 8330280628, "lat": 27.8260018, "lon": 52.3559918, "tags": {"amenity": "hospital", "healthcare": "hospital", "healthcare:speciality": "general", "name": "\u0645\u0631\u06a9\u0632 \u0628\u0647\u062f\u0627\u0634\u062a \u0628\u0647\u0627\u0631\u0633\u062a\u0627\u0646"}}, {"type": "node", "id": 8401380019, "lat": 25.2390718, "lon": 51.4297635, "tags": {"amenity": "hospital", "name:en": "Abu bakar siddiq hospital bu sidra"}}, {"type": "node", "id": 8429646517, "lat": 26.2183121, "lon": 50.5859059, "tags": {"amenity": "hospital", "name:en": "Al Hilal Hospital Manama"}}, {"type": "node", "id": 8578402496, "lat": 29.1842937, "lon": 54.2808429, "tags": {"amenity": "hospital", "healthcare": "hospital", "name": "\u0628\u06cc\u0645\u0627\u0631\u0633\u062a\u0627\u0646 \u06f1\u06f2\u06f0 \u062a\u062e\u062a \u062e\u0648\u0627\u0628\u06cc"}}, {"type": "node", "id": 8581379822, "lat": 23.8218338, "lon": 57.4304767, "tags": {"amenity": "hospital", "healthcare": "hospital", "name": "Badr Al Sama polyclinic", "name:ar": "\u0645\u062c\u0645\u0639 \u0628\u062f\u0631 \u0627\u0644\u0633\u0645\u0627\u0621 \u0627\u0644\u0637\u0628\u064a"}}, {"type": "node", "id": 8592285117, "lat": 26.4413, "lon": 50.1165768, "tags": {"amenity": "hospital", "healthcare": "hospital", "name:en": "Badr ar rabie"}}, {"type": "node", "id": 8609600407, "lat": 23.7884248, "lon": 57.5150739, "tags": {"amenity": "hospital", "healthcare": "hospital", "name": "\u0645\u062c\u0645\u0639 \u0635\u062d\u064a \u0627\u0644\u062b\u0631\u0645\u062f", "name:ar": "\u0645\u062c\u0645\u0639 \u0635\u062d\u064a \u0627\u0644\u062b\u0631\u0645\u062f", "name:en": "Tharmad health complex"}}, {"type": "node", "id": 8609608455, "lat": 23.7254173, "lon": 57.7338345, "tags": {"amenity": "hospital", "healthcare": "hospital", "name": "\u0645\u0631\u0643\u0632 \u0635\u062d\u064a \u0627\u0644\u0633\u0648\u0627\u062f\u064a", "name:ar": "\u0645\u0631\u0643\u0632 \u0635\u062d\u064a \u0627\u0644\u0633\u0648\u0627\u062f\u064a", "name:en": "A' Sawadi health Centre"}},