{"version": 0.6, "generator": "Overpass API 0.7.61.5 4133829e", "osm3s": {"timestamp_osm_base": "2023-10-31T20:56:44Z", "copyright": "The data included in this document is from www.openstreetmap.org. The data is made available under ODbL."}, "elements": [{"type": "node", "id": 279563546, "lat": 37.0399394, "lon": 27.4289622, "tags": {"amenity": "hospital", "healthcare": "hospital", "name": "Bodrum Amerikan Hastanesi"}}, {"type": "node", "id": 355174199, "lat": 36.6223089, "lon": 29.1150102, "tags": {"amenity": "hospital", "healthcare": "hospital"}}, {"type": "node", "id": 470433317, "lat": 36.755509, "lon": 22.5695948, "tags": {"addr:city": "\u0393\u03cd\u03b8\u03b5\u03b9\u03bf", "addr:postcode": "23200", "addr:street": "\u0393\u03cd\u03b8\u03b5\u03b9\u03bf - \u0391\u03c1\u03b5\u03cc\u03c0\u03bf\u03bb\u03b7", "amenity": "hospital", "healthcare": "hospital", "int_name": "Gythio health center", "name": "\u039a\u03ad\u03bd\u03c4\u03c1\u03bf \u03a5\u03b3\u03b5\u03af\u03b1\u03c2 \u0393\u03c5\u03b8\u03b5\u03af\u03bf\u03c5", "name:en": "Gythio health center", "phone": "+3027330 22001"}}, {"type": "node", "id": 483415901, "lat": 37.7275143, "lon": 20.8636188, "tags": {"addr:city": "Laganas", "addr:country": "GR", "addr:street": "Main Road", "amenity": "hospital", "healthcare": "hospital", "name": "Doctor Laura Burca's cabinet"}}, {"type": "node", "id": 515677453, "lat": 37.7149404, "lon": 24.0514, "tags": {"addr:city": "Lavrio", "addr:postcode": "34195", "addr:street": "\u0399\u03b1\u03ba\u03ce\u03b2\u03bf\u03c5 \u0394\u03b9\u03b1\u03bc\u03b1\u03bd\u03c4\u03bf\u03c0\u03bf\u03cd\u03bb\u03bf\u03c5", "amenity": "hospital", "healthcare": "hospital", "name": "\u039a\u03ad\u03bd\u03c4\u03c1\u03bf \u03a5\u03b3\u03b5\u03af\u03b1\u03c2 \u039b\u03b1\u03c5\u03c1\u03af\u03bf\u03c5", "name:en": "Lavrio Health Center", "phone": "+30 2292320300", "website": "https://www.hclavriou.gr/"}}, {"type": "node", "id": 595353701, "lat": 31.3492419, "lon": 27.2413592, "tags": {"alt_name": "\u0645\u0633\u062a\u0634\u0641\u0649 \u0645\u0637\u0631\u0648\u062d \u0627\u0644\u0639\u0627\u0645", "amenity": "hospital", "healthcare": "hospital", "name": "\u0645\u0633\u062a\u0634\u0641\u0649 \u0645\u0637\u0631\u0648\u062d \u0627\u0644\u0639\u0627\u0645", "name:ar": "\u0645\u0633\u062a\u0634\u0641\u0649 \u0645\u0637\u0631\u0648\u062d \u0627\u0644\u0639\u0627\u0645", "name:en": "Matrouh General Hospital"}}, {"type": "node", "id": 618030790, "lat": 37.9251747, "lon": 23.6997435, "tags": {"addr:city": "\u03a0\u03b1\u03bb\u03b1\u03b9\u03cc \u03a6\u03ac\u03bb\u03b7\u03c1\u03bf", "addr:country": "GR", "addr:housenumber": "36", "addr:postcode": "17562", "addr:street": "\u0386\u03c1\u03b5\u03c9\u03c2", "amenity": "hospital", "healthcare": "hospital", "name": "\u0399\u03b1\u03c4\u03c1\u03b9\u03ba\u03cc \u03a0\u03b1\u03bb\u03b1\u03b9\u03bf\u03cd \u03a6\u03b1\u03bb\u03ae\u03c1\u03bf\u03c5", "operator": "\u038c\u03bc\u03b9\u03bb\u03bf\u03c2 \u0399\u03b1\u03c4\u03c1\u03b9\u03ba\u03bf\u03cd \u0391\u03b8\u03b7\u03bd\u03ce\u03bd", "phone": "+30 21 09892100", "website": "http://www.iatrikofalirou.gr"}}, {"type": "node", "id": 725898974, "lat": 36.6530074, "lon": 29.1198463, "tags": {"amenity": "hospital", "check_date": "2023-09-05", "emergency": "yes", "healthcare": "hospital", "name": "Fethiye Devlet Hastanesi", "operator:type": "government", "website": "http://www.fethiyedh.saglik.gov.tr/", "wheelchair": "yes"}}, {"type": "node", "id": 747740417, "lat": 37.9947939, "lon": 23.765146, "tags": {"addr:city": "\u0391\u03b8\u03ae\u03bd\u03b1", "addr:housenumber": "15", "addr:postcode": "11524", "addr:street": "\u0393\u03b5\u03c1\u03bf\u03c5\u03bb\u03ac\u03bd\u03bf\u03c5 \u039c\u03b1\u03c1\u03af\u03bd\u03bf\u03c5", "amenity": "hospital", "healthcare": "hospital", "name": "\u0392\u03b9\u03bf\u03ba\u03bb\u03b9\u03bd\u03b9\u03ba\u03ae \u0391\u03b8\u03ae\u03bd\u03b1\u03c2", "phone": "2106962600", "website": "https://bioclinic.gr/bioclinic-athens/", "wheelchair": "yes"}}, {"type": "node", "id": 948332608, "lat": 36.2152014, "lon": 28.1178297, "tags": {"amenity": "hospital", "healthcare": "hospital", "name": "Doctors"}}, {"type": "node", "id": 1008013053, "lat": 38.0002412, "lon": 23.6626908, "tags": {"addr:city": "\u03a7\u03b1\u03ca\u03b4\u03ac\u03c1\u03b9", "addr:country": "GR", "addr:housenumber": "343", "addr:postcode": "12461", "addr:street": "\u0399\u03b5\u03c1\u03ac \u039f\u03b4\u03cc\u03c2", "amenity": "hospital", "fixme": "\u038c\u03c0\u03bf\u03b9\u03bf\u03c2 \u03b3\u03bd\u03c9\u03c1\u03af\u03b6\u03b5\u03b9, \u03b1\u03c2 \u03c0\u03c1\u03bf\u03c3\u03b8\u03ad\u03c3\u03b5\u03b9/\u03c3\u03c5\u03b3\u03ba\u03b5\u03ba\u03c1\u03b9\u03bc\u03b5\u03bd\u03bf\u03c0\u03bf\u03b9\u03b7\u03c3\u03b5\u03b9 \u03c4\u03b1 \u03cc\u03c1\u03b9\u03b1 \u03c4\u03bf\u03c5 \u03bd\u03bf\u03c3\u03bf\u03ba\u03bf\u03bc\u03b5\u03af\u03bf\u03c5 (hospital grounds)", "healthcare": "hospital", "healthcare:speciality": "psychiatry", "name": "\u0394\u03c1\u03bf\u03bc\u03bf\u03ba\u03b1\u0390\u03c4\u03b5\u03b9\u03bf", "phone": "+30213 2046000", "website": "https://www.dromokaiteio.gr/", "wikidata": "Q21626565", "wikipedia": "el:\u0394\u03c1\u03bf\u03bc\u03bf\u03ba\u03b1\u0390\u03c4\u03b5\u03b9\u03bf"}}, {"type": "node", "id": 1039907394, "lat": 37.1024747, "lon": 25.3806279, "tags": {"addr:postcode": "84300", "amenity": "hospital", "healthcare": "hospital", "healthcare:speciality": "general;paediatrics;orthopaedics;dentist;gynaecology;surgery;cardiology;microbiology", "name": "\u0393\u03b5\u03bd\u03b9\u03ba\u03cc \u039d\u03bf\u03c3\u03bf\u03ba\u03bf\u03bc\u03b5\u03af\u03bf \u039d\u03ac\u03be\u03bf\u03c5", "name:en": "Naxos Hospital", "phone": "+302285360500", "website": "http://www.naxoshospital.gr/"}}, {"type": "node", "id": 1157762615, "lat": 38.8320665, "lon": 20.7037298, "tags": {"addr:city": "\u039b\u03b5\u03c5\u03ba\u03ac\u03b4\u03b1", "addr:housenumber": "29", "addr:postcode": "31100", "addr:street": "\u0391\u03c1\u03b9\u03c3\u03c4\u03bf\u03c4\u03ad\u03bb\u03b7 \u0392\u03b1\u03bb\u03b1\u03c9\u03c1\u03af\u03c4\u03b7", "amenity": "hospital", "emergency": "yes", "healthcare": "hospital", "name": "\u03a0\u03b1\u03bb\u03b9\u03cc \u039d\u03bf\u03c3\u03bf\u03ba\u03bf\u03bc\u03b5\u03af\u03bf \u039b\u03b5\u03c5\u03ba\u03ac\u03b4\u03b1\u03c2", "name:en": "Lefkada Hospital", "phone": "+3026453 60200", "website": "http://www.lefkada-hospital.gr/"}}, {"type": "node", "id": 1179121562, "lat": 31.2636249, "lon": 29.9917679, "tags": {"amenity": "hospital", "name": "\u0645\u0633\u062a\u0634\u0641\u0649 \u0645\u0627\u0631\u064a \u0645\u0631\u0642\u0635", "name:ar": "\u0645\u0633\u062a\u0634\u0641\u0649 \u0645\u0627\u0631\u064a \u0645\u0631\u0642\u0635", "name:en": "Al-Qiddissin"}}, {"type": "node", "id": 1189272648, "lat": 32.162693, "lon": 23.7317804, "tags": {"amenity": "hospital", "name": "Hopital militaire de campagne"}}, {"type": "node", "id": 1189275264, "lat": 32.1644016, "lon": 23.6682018, "tags": {"amenity": "hospital", "name": "Hopital militaire de campagne"}}, {"type": "node", "id": 1247483503, "lat": 38.0543409, "lon": 23.8349783, "tags": {"addr:city": "\u039c\u03b5\u03bb\u03af\u03c3\u03c3\u03b9\u03b1", "addr:country": "GR", "addr:postcode": "15127", "addr:street": "25\u03b7\u03c2 \u039c\u03b1\u03c1\u03c4\u03af\u03bf\u03c5 14", "amenity": "hospital", "healthcare": "hospital", "name": "\u0391\u03bc\u03b1\u03bb\u03af\u03b1 \u03a6\u03bb\u03ad\u03bc\u03b9\u03bd\u03b3\u03ba", "name:en": "Residential roads alignment", "wikidata": "Q30254194"}}, {"type": "node", "id": 1309990748, "lat": 36.8993321, "lon": 25.9771257, "tags": {"amenity": "hospital", "healthcare": "hospital"}}, {"type": "node", "id": 1347915738, "lat": 37.0858073, "lon": 25.1514158, "tags": {"addr:city": "\u03a0\u03b1\u03c1\u03bf\u03b9\u03ba\u03b9\u03ac", "addr:postcode": "84400", "amenity": "hospital", "emergency": "yes", "healthcare": "hospital", "name": "\u039a\u03ad\u03bd\u03c4\u03c1\u03bf \u03a5\u03b3\u03b5\u03af\u03b1\u03c2 \u03a0\u03ac\u03c1\u03bf\u03c5", "name:en": "Paros Health Center", "phone": "+302284360000"}}, {"type": "node", "id": 1433984831, "lat": 39.5987213, "lon": 20.3147365, "tags": {"addr:city": "\u03a6\u03b9\u03bb\u03b9\u03ac\u03c4\u03b5\u03c2", "addr:housenumber": "10", "addr:postcode": "46300", "addr:street": "\u03a0\u03ad\u03c4\u03c1\u03bf\u03c5 \u039c\u03c0\u03ad\u03c0\u03b7", "amenity": "hospital", "healthcare": "hospital", "name": "\u039a\u03ad\u03bd\u03c4\u03c1\u03bf \u03a5\u03b3\u03b5\u03b9\u03b1\u03c2 \u03a6\u03b9\u03bb\u03b9\u03b1\u03c4\u03ce\u03bd", "phone": "+302664360222", "website": "http://www.gnfiliaton.gr/", "wikidata": "Q50036613"}}, {"type": "node", "id": 1504450541, "lat": 35.2078571, "lon": 25.3428113, "tags": {"amenity": "hospital", "healthcare": "hospital", "name": "\u039a\u0395\u039d\u03a4\u03a1\u039f \u03a5\u0393\u0395\u0399\u0391\u03a3 \u039a\u0391\u03a3\u03a4\u0395\u039b\u039b\u0399\u039f\u03a5 \u03a0\u0395\u0394\u0399\u0391\u0394\u039f\u03a3"}}, {"type": "node", "id": 1698478723, "lat": 31.2258268, "lon": 29.9408078, "tags": {"amenity": "hospital", "name": "Mostafa Kamel Hospital", "name:ar": "\u0645\u0633\u062a\u0634\u0641\u064a \u0645\u0635\u0637\u0641\u064a \u0643\u0627\u0645\u0644", "name:en": "Mostafa Kamel Hospital"}}, {"type": "node", "id": 1766770795, "lat": 38.2458639, "lon": 21.7369659, "tags": {"addr:city": "\u03a0\u03ac\u03c4\u03c1\u03b1", "addr:housenumber": "76", "addr:postcode": "26221", "addr:street": "\u0395\u03c1\u03bc\u03bf\u03cd", "amenity": "hospital", "healthcare": "hospital", "healthcare:speciality": "maternity;gynaecology", "name": "\u039c\u03b1\u03b9\u03b5\u03c5\u03c4\u03ae\u03c1\u03b9\u03bf \u0397\u03ce", "phone": "+302610624316"}}, {"type": "node", "id": 1815855415, "lat": 39.6297346, "lon": 22.3116913, "tags": {"addr:city": "\u039b\u03ac\u03c1\u03b9\u03c3\u03b1", "addr:country": "GR", "addr:street": "8\u03bf \u03c7\u03bb\u03bc. \u039b\u03ac\u03c1\u03b9\u03c3\u03b1\u03c2 \u2013 \u03a4\u03c1\u03b9\u03ba\u03ac\u03bb\u03c9\u03bd", "amenity": "hospital", "name": "\u039a\u03ad\u03bd\u03c4\u03c1\u03bf \u0391\u03c0\u03bf\u03ba\u03b1\u03c4\u03ac\u03c3\u03c4\u03b1\u03c3\u03b7\u03c2 & \u0391\u03c0\u03bf\u03b8\u03b5\u03c1\u03b1\u03c0\u03b5\u03af\u03b1\u03c2 ANIMUS", "name:en": "ANIMUS Recovery & Rehabilitation Centre"}}, {"type": "node", "id": 1831860110, "lat": 38.209192, "lon": 20.4377212, "tags": {"addr:city": "\u039b\u03b7\u03be\u03bf\u03cd\u03c1\u03b9", "addr:housenumber": "91", "addr:postcode": "28200", "addr:street": "\u03a4\u03c5\u03c0\u03b1\u03bb\u03b4\u03bf\u03c5 \u03a3\u03c4\u03c5\u03bb\u03b9\u03b1\u03bd\u03bf\u03cd", "amenity": "hospital", "emergency": "yes", "healthcare": "hospital", "name": "\u039c\u03b1\u03bd\u03c4\u03b6\u03b1\u03b2\u03b9\u03bd\u03ac\u03c4\u03b5\u03b9\u03bf \u0393\u03b5\u03bd\u03b9\u03ba\u03cc \u039d\u03bf\u03c3\u03bf\u03ba\u03bf\u03bc\u03b5\u03af\u03bf \u039b\u03b7\u03be\u03bf\u03c5\u03c1\u03af\u03bf\u03c5", "name:en": "\u039catzavinateio Hospital", "phone": "+30 2671092222"}}, {"type": "node", "id": 1844289361, "lat": 31.2052904, "lon": 29.9275717, "tags": {"amenity": "hospital", "emergency": "no", "name": "\u0645\u0639\u0647\u062f \u0627\u0644\u0628\u062d\u0648\u062b \u0627\u0644\u0637\u0628\u064a\u0647", "name:ar": "\u0645\u0639\u0647\u062f \u0627\u0644\u0628\u062d\u0648\u062b \u0627\u0644\u0637\u0628\u064a\u0647", "name:en": "Institute for Medical Research"}}, {"type": "node", "id": 1844290834, "lat": 31.2043914, "lon": 29.9286838, "tags": {"amenity": "hospital", "emergency": "yes", "name": "\u0645\u0633\u062a\u0634\u0641\u064a \u0627\u0644\u0645\u0648\u0627\u0633\u0627\u0647", "name:ar": "\u0645\u0633\u062a\u0634\u0641\u064a \u0627\u0644\u0645\u0648\u0627\u0633\u0627\u0647", "name:en": "Al-Muwasah Hospital"}}, {"type": "node", "id": 1868942971, "lat": 38.3702792, "lon": 27.1936396, "tags": {"amenity": "hospital", "emergency": "yes", "healthcare": "hospital", "name": "T\u0131naztepe Hastanesi"}}, {"type": "node", "id": 1955866888, "lat": 37.8600215, "lon": 27.2678679, "tags": {"amenity": "hospital", "emergency": "yes", "healthcare": "hospital", "name": "Ku\u015fadas\u0131 \u00d6zel Hastanesi"}}, {"type": "node", "id": 1996946293, "lat": 39.3686384, "lon": 26.1747433, "tags": {"amenity": "hospital", "emergency": "yes", "healthcare": "hospital", "name": "First Aid"}}, {"type": "node", "id": 1999194115, "lat": 39.6296398, "lon": 27.8803166, "tags": {"amenity": "hospital", "name": "Bal\u0131kesir G\u00f6\u011f\u00fcs Hastal\u0131klar\u0131 Hastanesi"}}, {"type": "node", "id": 2095660944, "lat": 32.7584621, "lon": 21.7476525, "tags": {"amenity": "hospital", "name": "\u0645\u0633\u062a\u0634\u0641\u0649 \u0627\u0644\u0628\u064a\u0636\u0627\u0621", "name:ar": "\u0645\u0633\u062a\u0634\u0641\u0649 \u0627\u0644\u0628\u064a\u0636\u0627\u0621", "name:en": "Al Bayda Hospital"}}, {"type": "node", "id": 2105744026, "lat": 35.4081301, "lon": 24.2030232, "tags": {"amenity": "hospital", "healthcare": "hospital", "name": "Health centre"}}, {"type": "node", "id": 2258850260, "lat": 39.2936558, "lon": 22.3890378, "tags": {"addr:city": "\u03a6\u03ac\u03c1\u03c3\u03b1\u03bb\u03b1", "addr:postcode": "40300", "addr:street": "\u03a3\u03c4\u03c1\u03b1\u03c4\u03b7\u03b3\u03bf\u03cd \u039d\u03b9\u03ba\u03bf\u03bb\u03ac\u03bf\u03c5 \u03a0\u03bb\u03b1\u03c3\u03c4\u03ae\u03c1\u03b1", "amenity": "hospital", "emergency": "yes", "healthcare": "hospital", "name": "\u039a\u03ad\u03bd\u03c4\u03c1\u03bf \u03a5\u03b3\u03b5\u03af\u03b1\u03c2 \u03a6\u03b1\u03c1\u03c3\u03ac\u03bb\u03c9\u03bd", "name:en": "Farsala Health center", "phone": "+30 2491350000"}}, {"type": "node", "id": 2317749668, "lat": 37.4466722, "lon": 25.3357877, "tags": {"amenity": "hospital", "healthcare": "hospital", "name:it": "Ospedale", "phone": "+30 22890 23994"}}, {"type": "node", "id": 2356181526, "lat": 32.0747354, "lon": 23.9310208, "tags": {"addr:city": "Tobruq city", "addr:postcode": "00218", "amenity": "hospital", "emergency": "yes", "name": "\u0645\u0631\u0643\u0632 \u0637\u0628\u0631\u0642 \u0627\u0644\u0637\u0628\u064a", "name:ar": "\u0645\u0631\u0643\u0632 \u0637\u0628\u0631\u0642 \u0627\u0644\u0637\u0628\u064a", "name:en": "Tobruk Medical Center", "note": "Cover the most medical branches", "source": "https://www.facebook.com/UnToUcHabLe.SouL"}}, {"type": "node", "id": 2367685360, "lat": 39.0919135, "lon": 26.5493107, "tags": {"amenity": "hospital", "emergency": "yes", "healthcare": "hospital", "name": "\u0395\u03a0\u0395\u0399\u0393\u039f\u039d\u03a4\u0391"}}, {"type": "node", "id": 2375550935, "lat": 38.9774569, "lon": 26.3759717, "tags": {"addr:city": "\u03a0\u03bb\u03c9\u03bc\u03ac\u03c1\u03b9", "addr:postcode": "81200", "amenity": "hospital", "healthcare": "hospital", "healthcare:speciality": "general;dentist;pediatrics", "name": "Covid Vaccination center", "phone": "+302252031111"}}, {"type": "node", "id": 2412381272, "lat": 35.5102558, "lon": 24.0329512, "tags": {"addr:city": "\u03a7\u03b1\u03bd\u03b9\u03ac", "addr:housenumber": "9", "addr:postcode": "73133", "addr:street": "\u03a0\u03b1\u03c0\u03b1\u03bd\u03b1\u03c3\u03c4\u03b1\u03c3\u03af\u03bf\u03c5", "amenity": "hospital", "emergency": "yes", "healthcare": "hospital", "name": "\u039a\u03b5\u03bd\u03c4\u03c1\u03b9\u03ba\u03ae \u039a\u03bb\u03b9\u03bd\u03b9\u03ba\u03ae \u03a4\u03c3\u03b5\u03c0\u03ad\u03c4\u03b7", "name:de": "Privatklinik Tsepeti", "name:en": "Private Hospital Tsepeti", "operator": "\u039a\u0395\u039d\u03a4\u03a1\u0399\u039a\u0397 \u039a\u039b\u0399\u039d\u0399\u039a\u0397 \u03a7\u0391\u039d\u0399\u03a9\u039d \u0391.\u0395.", "phone": "+30 28210 28828", "private": "yes", "website": "https://chaniaclinic.com/", "wheelchair": "yes"}}, {"type": "node", "id": 2479591670, "lat": 37.99124, "lon": 23.6767057, "tags": {"addr:city": "\u0391\u03b9\u03b3\u03ac\u03bb\u03b5\u03c9", "addr:country": "GR", "addr:postcode": "12244", "addr:street": "\u0391\u03b3. \u039b\u03b1\u03cd\u03c1\u03b1\u03c2 16", "amenity": "hospital", "designation": "\u039a\u039b\u0399\u039d\u0399\u039a\u0397", "healthcare": "hospital", "name": "\u039a\u03bb\u03b9\u03bd\u03b9\u03ba\u03ae \u0391\u03b3\u03af\u03b1 \u0395\u03b9\u03c1\u03ae\u03bd\u03b7", "name:en": "West Clinic Egaleo"}}, {"type": "node", "id": 2479591822, "lat": 37.9899235, "lon": 23.6750905, "tags": {"addr:city": "\u0391\u03b9\u03b3\u03ac\u03bb\u03b5\u03c9", "addr:country": "GR", "addr:housenumber": "18", "addr:postcode": "12244", "addr:street": "\u03a0\u03b1\u03c0\u03bf\u03cd\u03bb\u03b1", "amenity": "hospital", "designation": "\u039a\u039b\u0399\u039d\u0399\u039a\u0397", "healthcare": "hospital", "name": "\u039a\u039b\u0399\u039d\u0399\u039a\u0397 \u03a4\u0399\u039c\u0399\u039f\u03a3 \u03a3\u03a4\u0391\u03a5\u03a1\u039f\u03a3", "phone": "2105695541"}}, {"type": "node", "id": 2520909162, "lat": 37.928017, "lon": 28.9283968, "tags": {"amenity": "hospital", "emergency": "yes", "healthcare": "hospital", "name": "Sarayk\u00f6y Devlet Hastanesi"}}, {"type": "node", "id": 2575675107, "lat": 38.006145, "lon": 23.798663, "tags": {"addr:city": "\u03a7\u03bf\u03bb\u03b1\u03c1\u03b3\u03cc\u03c2", "addr:country": "GR", "addr:housename": "\u0393\u03b5\u03bd\u03b9\u03ba\u03ae \u039a\u03bb\u03b9\u03bd\u03b9\u03ba\u03ae \u0399\u0391\u03a3\u03a9 General", "addr:housenumber": "264", "addr:postcode": "15562", "addr:street": "\u039b\u03b5\u03c9\u03c6\u03cc\u03c1\u03bf\u03c2 \u039c\u03b5\u03c3\u03bf\u03b3\u03b5\u03af\u03c9\u03bd", "amenity": "hospital", "contact:email": "myclub@iaso.gr", "contact:phone": "+30 2106502000", "contact:website": "http://www.iaso.gr/", "emergency": "yes", "healthcare": "hospital", "name": "\u0393\u03b5\u03bd\u03b9\u03ba\u03ae \u039a\u03bb\u03b9\u03bd\u03b9\u03ba\u03ae \u0399\u0391\u03a3\u03a9 General", "wheelchair": "yes", "wikidata": "Q21626582"}}, {"type": "node", "id": 2620914961, "lat": 37.9965231, "lon": 23.7696641, "tags": {"addr:city": "\u0391\u03b8\u03ae\u03bd\u03b1", "addr:country": "GR", "addr:housenumber": "1", "addr:postcode": "11525", "addr:street": "\u0386\u03bd\u03c4\u03b5\u03c1\u03c3\u03b5\u03bd", "amenity": "hospital", "healthcare": "hospital", "name": "\u0399\u03b1\u03c4\u03c1\u03b9\u03ba\u03cc \u0391\u03b8\u03b7\u03bd\u03ce\u03bd \u039a\u03bb\u03b9\u03bd\u03b9\u03ba\u03ae \u03a8\u03c5\u03c7\u03b9\u03ba\u03bf\u03cd", "name:en": "Hospital of Psychiko"}}, {"type": "node", "id": 2620920475, "lat": 38.0873509, "lon": 23.8100874, "tags": {"addr:city": "\u039a\u03b7\u03c6\u03b9\u03c3\u03b9\u03ac", "addr:country": "GR", "addr:housenumber": "157", "addr:postcode": "14564", "addr:street": "\u03a7\u03b1\u03c1\u03b9\u03bb\u03ac\u03bf\u03c5 \u03a4\u03c1\u03b9\u03ba\u03bf\u03cd\u03c0\u03b7", "amenity": "hospital", "emergency": "no", "healthcare": "hospital", "name": "\u039a\u03bb\u03b9\u03bd\u03b9\u03ba\u03ae \u03a3\u03b9\u03bd\u03bf\u03cd\u03c1\u03b7", "website": "https://www.sinouri.gr/"}}, {"type": "node", "id": 2622423562, "lat": 38.6377723, "lon": 22.5923159, "tags": {"addr:city": "\u0391\u03bc\u03c6\u03af\u03ba\u03bb\u03b5\u03b9\u03b1", "addr:postcode": "35002", "amenity": "hospital", "healthcare": "hospital", "name": "\u039a\u03ad\u03bd\u03c4\u03c1\u03bf \u03a5\u03b3\u03b5\u03af\u03b1\u03c2 \u0391\u03bc\u03c6\u03af\u03ba\u03bb\u03b5\u03b9\u03b1\u03c2", "name:en": "Amfikleia health center", "phone": "+302234350000"}}, {"type": "node", "id": 2686352710, "lat": 38.9549628, "lon": 23.1434819, "tags": {"addr:city": "\u0399\u03c3\u03c4\u03b9\u03b1\u03af\u03b1", "addr:postcode": "34200", "addr:street": "\u03a7\u03b1\u03bb\u03ba\u03af\u03b4\u03b1 - \u039b\u03bf\u03c5\u03c4\u03c1\u03ac \u0391\u03b9\u03b4\u03b7\u03c8\u03bf\u03cd", "amenity": "hospital", "emergency": "yes", "healthcare": "hospital", "name": "\u039a\u03ad\u03bd\u03c4\u03c1\u03bf \u03a5\u03b3\u03b5\u03af\u03b1\u03c2 \u0399\u03c3\u03c4\u03b9\u03b1\u03af\u03b1\u03c2", "operator": "\u0395.\u03a3.\u03a5.", "phone": "+302226350100"}}, {"type": "node", "id": 2689118828, "lat": 37.3542553, "lon": 27.2682281, "tags": {"amenity": "hospital", "healthcare": "hospital", "name": "Hastane"}}, {"type": "node", "id": 2724288826, "lat": 38.0631713, "lon": 23.7744508, "tags": {"addr:city": "\u0397\u03c1\u03ac\u03ba\u03bb\u03b5\u03b9\u03bf", "addr:country": "GR", "addr:housenumber": "519", "addr:postcode": "14122", "addr:street": "\u0397\u03c1\u03b1\u03ba\u03bb\u03b5\u03af\u03bf\u03c5", "amenity": "hospital", "healthcare": "hospital", "name": "\u039d\u03b5\u03c5\u03c1\u03bf\u03c8\u03c5\u03c7\u03b9\u03b1\u03c4\u03c1\u03b9\u03ba\u03ae \u039a\u03bb\u03b9\u03bd\u03b9\u03ba\u03ae \"\u03a0\u03b1\u03bd\u03b1\u03b3\u03b9\u03ac \u03b7 \u0393\u03c1\u03b7\u03b3\u03bf\u03c1\u03bf\u03cd\u03c3\u03b1\""}}, {"type": "node", "id": 2824451871, "lat": 38.432016, "lon": 27.1473523, "tags": {"amenity": "hospital", "emergency": "yes", "healthcare": "hospital", "name": "Ka\u015fkalo\u011flu G\u00f6z Hastanesi"}}, {"type": "node", "id": 2824741455, "lat": 39.2446588, "lon": 21.1598526, "tags": {"addr:city": "\u0386\u03bd\u03c9 \u039a\u03b1\u03bb\u03b5\u03bd\u03c4\u03af\u03bd\u03b7", "addr:postcode": "47044", "amenity": "hospital", "healthcare": "hospital", "name": "\u039a\u03ad\u03bd\u03c4\u03c1\u03bf \u03a5\u03b3\u03b5\u03af\u03b1\u03c2 \u0386\u03bd\u03c9 \u039a\u03b1\u03bb\u03b5\u03bd\u03c4\u03af\u03bd\u03b7\u03c2", "phone": "+30 2681360600"}}, {"type": "node", "id": 2913949272, "lat": 36.8259697, "lon": 22.2822029, "tags": {"addr:city": "\u0386\u03b3\u03b9\u03bf\u03c2 \u039d\u03b9\u03ba\u03cc\u03bb\u03b1\u03bf\u03c2", "addr:postcode": "24024", "amenity": "hospital", "healthcare": "hospital", "name": "\u039a\u03ad\u03bd\u03c4\u03c1\u03bf \u03c5\u03b3\u03b5\u03af\u03b1\u03c2 \u0391\u03b3\u03af\u03bf\u03c5 \u039d\u03b9\u03ba\u03bf\u03bb\u03ac\u03bf\u03c5", "name:en": "Agios Nikolaos health center", "phone": "+302721360300", "wheelchair": "yes"}}, {"type": "node", "id": 3033585327, "lat": 37.3488267, "lon": 23.4653483, "tags": {"addr:city": "\u038e\u03b4\u03c1\u03b1", "addr:postcode": "18040", "amenity": "hospital", "emergency": "yes", "healthcare": "hospital", "healthcare:speciality": "pathology;general;pediatrics;ear_nose_throat;dermatology", "name": "\u039a\u03bf\u03c5\u03bb\u03bf\u03cd\u03c1\u03b5\u03b9\u03bf \u039d\u03bf\u03c3\u03bf\u03ba\u03bf\u03bc\u03b5\u03af\u03bf \u038e\u03b4\u03c1\u03b1\u03c2 \u03a0\u03b1\u03bd\u03b1\u03b3\u03af\u03b1 \u03b7 \u03a6\u03b1\u03bd\u03b5\u03c1\u03c9\u03bc\u03ad\u03bd\u03b7 - Hospital", "phone": "+3022980 53150", "source": "survey"}}, {"type": "node", "id": 3039360978, "lat": 39.0870446, "lon": 26.3697076, "tags": {"addr:city": "\u0391\u03b3\u03b9\u03ac\u03c3\u03bf\u03c2", "addr:postcode": "81101", "amenity": "hospital", "description": "\u039a\u03ad\u03bd\u03c4\u03c1\u03bf \u039a\u03bf\u03b9\u03bd\u03c9\u03bd\u03b9\u03ba\u03ae\u03c2 \u03a0\u03c1\u03cc\u03bd\u03bf\u03b9\u03b1\u03c2\n\u03a0\u03b5\u03c1\u03b9\u03c6\u03ad\u03c1\u03b5\u03b9\u03b1\u03c2 \u0392\u03bf\u03c1\u03b5\u03af\u03bf\u03c5 \u0391\u03b9\u03b3\u03b1\u03af\u03bf\u03c5. \u03a4\u03bf \u039a\u03ad\u03bd\u03c4\u03c1\u03bf \u039a\u03bf\u03b9\u03bd\u03c9\u03bd\u03b9\u03ba\u03ae\u03c2 \u03a0\u03c1\u03bf\u03bd\u03bf\u03af\u03b1\u03c2 \u03a0\u03b5\u03c1\u03b9\u03c6\u03ad\u03c1\u03b5\u03b9\u03b1\u03c2 \u0392\u03bf\u03c1\u03b5\u03af\u03bf\u03c5 \u0391\u03b9\u03b3\u03b1\u03af\u03bf\u03c5 \u03c3\u03c4\u03b7\u03bd \u0391\u03b3\u03b9\u03ac\u03c3\u03bf \u03c4\u03b7\u03c2 \u039b\u03ad\u03c3\u03b2\u03bf\u03c5 \u03b5\u03af\u03bd\u03b1\u03b9 \u03bf \u03bc\u03b5\u03b3\u03b1\u03bb\u03cd\u03c4\u03b5\u03c1\u03bf\u03c2 \u03b4\u03b7\u03bc\u03cc\u03c3\u03b9\u03bf\u03c2 \u03c6\u03bf\u03c1\u03ad\u03b1\u03c2 \u03ba\u03bf\u03b9\u03bd\u03c9\u03bd\u03b9\u03ba\u03ae\u03c2 \u03c6\u03c1\u03bf\u03bd\u03c4\u03af\u03b4\u03b1\u03c2 \u03b3\u03b9\u03b1 \u03ac\u03c4\u03bf\u03bc\u03b1 \u03bc\u03b5 \u03b1\u03bd\u03b1\u03c0\u03b7\u03c1\u03af\u03b5\u03c2 \u03c3\u03c4\u03b7\u03bd \u03a0\u03b5\u03c1\u03b9\u03c6\u03ad\u03c1\u03b5\u03b9\u03b1 \u03c4\u03bf\u03c5 \u0392\u03bf\u03c1\u03b5\u03af\u03bf\u03c5 \u0391\u03b9\u03b3\u03b1\u03af\u03bf\u03c5.", "healthcare": "hospital", "name": "\u038a\u03b4\u03c1\u03c5\u03bc\u03b1 \u0398\u03b5\u03bf\u03bc\u03ae\u03c4\u03c9\u03c1", "name:en": "Theomitor Foundation", "phone": "+3022520 22234", "website": "http://www.kkppva.gr/"}}, {"type": "node", "id": 3080015732, "lat": 35.3350957, "lon": 25.1206422, "tags": {"amenity": "hospital", "healthcare": "hospital", "name": "Creta InterClinic", "phone": "+302810373800", "website": "https://cic.gr/", "wheelchair": "yes"}}, {"type": "node", "id": 3107735314, "lat": 38.0053594, "lon": 23.7009839, "tags": {"addr:city": "\u03a0\u03b5\u03c1\u03b9\u03c3\u03c4\u03ad\u03c1\u03b9", "addr:country": "GR", "addr:housenumber": "60", "addr:postcode": "12132", "addr:street": "\u0395\u03b8\u03bd\u03ac\u03c1\u03c7\u03bf\u03c5 \u039c\u03b1\u03ba\u03b1\u03c1\u03af\u03bf\u03c5", "amenity": "hospital", "healthcare": "centre", "name": "\u0399\u03b1\u03c4\u03c1\u03b9\u03ba\u03cc \u0391\u03b8\u03b7\u03bd\u03ce\u03bd \u039a\u03bb\u03b9\u03bd\u03b9\u03ba\u03ae \u03a0\u03b5\u03c1\u03b9\u03c3\u03c4\u03b5\u03c1\u03af\u03bf\u03c5", "name:en": "General Hospital of Peristeri"}}, {"type": "node", "id": 3125637413, "lat": 37.446861, "lon": 25.3383808, "tags": {"amenity": "hospital", "healthcare": "hospital"}}, {"type": "node", "id": 3200978893, "lat": 39.6411922, "lon": 27.8825996, "tags": {"amenity": "hospital", "name": "Atat\u00fcrk Devlet Hastanesi Ek Hizmet Binas\u0131"}}, {"type": "node", "id": 3385766443, "lat": 38.4640228, "lon": 27.0932624, "tags": {"addr:city": "Karsiyaka", "addr:postcode": "35540", "amenity": "hospital", "emergency": "yes", "healthcare": "hospital", "name": "Ba\u015fkent \u00dcniversitesi Z\u00fcbeyde Han\u0131m Uygulama Merkezi", "name:en": "Ba\u015fkent \u00dcniversitesi Z\u00fcbeyde Han\u0131m Uygulama Merkezi", "name:tr": "Ba\u015fkent \u00dcniversitesi Z\u00fcbeyde Han\u0131m Uygulama Merkezi"}}, {"type": "node", "id": 3458193051, "lat": 31.2620088, "lon": 29.9923347, "tags": {"amenity": "hospital", "emergency": "yes", "name": "\u0645\u0633\u062a\u0634\u0641\u0649 \u0634\u0631\u0642 \u0627\u0644\u0645\u062f\u064a\u0646\u0629", "name:ar": "\u0645\u0633\u062a\u0634\u0641\u0649 \u0634\u0631\u0642 \u0627\u0644\u0645\u062f\u064a\u0646\u0629"}}, {"type": "node", "id": 3466422734, "lat": 38.3029581, "lon": 20.5974712, "tags": {"amenity": "hospital"}}, {"type": "node", "id": 3708682985, "lat": 37.5806854, "lon": 29.0615031, "tags": {"amenity": "hospital", "name": "Tavas Ya\u015fl\u0131 Bak\u0131mevi"}}, {"type": "node", "id": 3733510918, "lat": 37.7404059, "lon": 29.1067181, "tags": {"amenity": "hospital", "healthcare": "hospital", "name": "PA\u00dc T\u0131p Fak\u00fcltesi Acil Servis"}}, {"type": "node", "id": 3762309202, "lat": 38.1209555, "lon": 23.859149, "tags": {"addr:city": "\u03a3\u03c4\u03b1\u03bc\u03ac\u03c4\u03b1", "addr:country": "GR", "addr:housenumber": "5\u0391", "addr:postcode": "14575", "addr:street": "\u039b\u03b5\u03c9\u03c6\u03cc\u03c1\u03bf\u03c2 \u0394\u03c1\u03bf\u03c3\u03b9\u03ac\u03c2-\u03a3\u03c4\u03b1\u03bc\u03ac\u03c4\u03b1\u03c2", "amenity": "hospital", "healthcare": "hospital", "name": "\u0393\u03b5\u03ce\u03c1\u03b3\u03b9\u03bf\u03c2 \u03a7\u03c1\u03c5\u03c3\u03bf\u03c7\u03bf\u03ca\u03b4\u03b7\u03c2"}}, {"type": "node", "id": 3893917394, "lat": 31.2376371, "lon": 29.9580884, "tags": {"amenity": "hospital", "healthcare": "hospital", "name": "\u0645\u0633\u062a\u0634\u0641\u0649 \u0625\u0628\u0631\u0627\u0647\u064a\u0645 \u0639\u0628\u064a\u062f \u0627\u0644\u062a\u062e\u0635\u0635\u064a", "name:ar": "\u0645\u0633\u062a\u0634\u0641\u0649 \u0625\u0628\u0631\u0627\u0647\u064a\u0645 \u0639\u0628\u064a\u062f \u0627\u0644\u062a\u062e\u0635\u0635\u064a"}}, {"type": "node", "id": 3907737342, "lat": 31.2093808, "lon": 29.9113881, "tags": {"amenity": "hospital", "name": "\u0645\u0633\u062a\u0634\u0641\u0649 \u0627\u0644\u0634\u0627\u0637\u0628\u064a", "name:ar": "\u0645\u0633\u062a\u0634\u0641\u0649 \u0627\u0644\u0634\u0627\u0637\u0628\u064a"}}, {"type": "node", "id": 3954316816, "lat": 38.4613584, "lon": 27.1160003, "tags": {"amenity": "hospital", "healthcare": "hospital", "name": "Z\u00fcbeyde Han\u0131m T\u0131p Merkezi"}}, {"type": "node", "id": 4038838050, "lat": 38.0224126, "lon": 23.7914824, "tags": {"addr:city": "\u03a7\u03b1\u03bb\u03ac\u03bd\u03b4\u03c1\u03b9", "addr:housenumber": "14", "addr:street": "\u03a0\u03b1\u03c0\u03b1\u03bd\u03b9\u03ba\u03bf\u03bb\u03ae", "amenity": "hospital", "healthcare": "hospital", "name": "\u0393\u03ad\u03bd\u03b5\u03c3\u03b9\u03c2 \u0391\u03b8\u03b7\u03bd\u03ce\u03bd"}}, {"type": "node", "id": 4142446089, "lat": 38.4499935, "lon": 27.2036447, "tags": {"addr:housenumber": "36/A", "addr:street": "364/1. Sokak", "amenity": "hospital", "email": "info@entokbb.com", "healthcare": "hospital", "healthcare:speciality": "surgery", "internet_access": "wlan", "name": "\u00d6zel EntoKBB Cerrahi T\u0131p Merkezi", "opening_hours": "Mo-Sa 09:00-23:00", "phone": "+902324003686", "website": "https://www.entokbb.com/"}}, {"type": "node", "id": 4285931304, "lat": 37.9504384, "lon": 22.99947, "tags": {"addr:city": "Loutraki", "addr:street": "Thesi Katounistra", "amenity": "hospital", "healthcare": "hospital", "name": "Mediterranean Center for Rehabilitation", "operator": "Mediterranean Center for Rehabilitationm"}}, {"type": "node", "id": 4294584806, "lat": 37.5654454, "lon": 29.0746554, "tags": {"amenity": "hospital", "emergency": "yes", "healthcare": "hospital", "name": "Yeni Tavas Devlet Hastanesi", "name:en": "Tavas City Hospital"}}, {"type": "node", "id": 4306919596, "lat": 31.6682329, "lon": 20.2457777, "tags": {"addr:street": "\u0634\u0639\u0628\u064a\u0629 \u0627\u0644\u0645\u0644\u0643 \u0627\u062f\u0631\u064a\u0633", "amenity": "hospital", "name": "\u0627\u0644\u0645\u0631\u0643\u0632 \u0627\u0644\u0635\u062d\u064a- \u0633\u0644\u0648\u0642.", "name:ar": "\u0627\u0644\u0645\u0631\u0643\u0632 \u0627\u0644\u0635\u062d\u064a- \u0633\u0644\u0648\u0642.", "name:en": "Healthcare Sulug"}}, {"type": "node", "id": 4317799792, "lat": 39.7705453, "lon": 21.1769513, "tags": {"addr:city": "\u039c\u03b5\u03c4\u03c3\u03cc\u03b2\u03bf\u03c5", "addr:country": "GR", "addr:postcode": "44200", "amenity": "hospital", "healthcare": "hospital", "name": "\u039a\u03ad\u03bd\u03c4\u03c1\u03bf \u03c5\u03b3\u03b5\u03af\u03b1\u03c2 \u039c\u03b5\u03c4\u03c3\u03cc\u03b2\u03bf\u03c5", "name:el": "\u039a\u03ad\u03bd\u03c4\u03c1\u03bf \u03c5\u03b3\u03b5\u03af\u03b1\u03c2 \u039c\u03b5\u03c4\u03c3\u03cc\u03b2\u03bf\u03c5", "name:en": "Health Center of Metsovo", "name:fr": "Centre M\u00e9dical de Metsovo", "phone": "2656041111"}}, {"type": "node", "id": 4375407772, "lat": 39.874496, "lon": 20.000612, "tags": {"amenity": "hospital", "emergency": "yes", "healthcare": "hospital", "name": "Urgjenc\u00eb", "name:en": "Emergency Room"}}, {"type": "node", "id": 4375407773, "lat": 39.874238, "lon": 20.000698, "tags": {"amenity": "hospital", "emergency": "no", "healthcare": "hospital", "name": "Rrethi i Sarand\u00ebs", "name:en": "Sarand\u00eb Hospital"}}, {"type": "node", "id": 4388651689, "lat": 31.2168739, "lon": 29.9422849, "tags": {"addr:housenumber": "24", "addr:street": "\u0634\u0627\u0631\u0639 \u0628\u0647\u0627\u0621 \u0627\u0644\u062f\u064a\u0646 \u0627\u0644\u063a\u062a\u0648\u0631\u064a", "amenity": "hospital", "name": "\u0645\u0633\u062a\u0634\u0641\u0649 \u0645\u0631\u0643\u0632 \u0627\u0644\u0642\u0644\u0628 \u0627\u0644\u062f\u0648\u0644\u064a icc", "name:ar": "\u0645\u0633\u062a\u0634\u0641\u0649 \u0645\u0631\u0643\u0632 \u0627\u0644\u0642\u0644\u0628 \u0627\u0644\u062f\u0648\u0644\u064a icc"}}, {"type": "node", "id": 4394408389, "lat": 36.8922438, "lon": 27.2914935, "tags": {"addr:postcode": "85300", "addr:street": "\u0395\u03bb\u03b5\u03c5\u03b8\u03b5\u03c1\u03af\u03bf\u03c5 \u0392\u03b5\u03bd\u03b9\u03b6\u03ad\u03bb\u03bf\u03c5", "amenity": "hospital", "healthcare": "hospital", "name": "HIPPOCRATES KOS HOSPITAL", "name:el": "\u0399\u03a0\u03a0\u039f\u039a\u03a1\u0391\u03a4\u0397\u03a3 \u039d\u039f\u03a3\u039f\u039a\u039f\u039c\u0395\u0399\u039f \u039a\u03a9\u03a3", "phone": "0030 2242 360321"}}, {"type": "node", "id": 4411704689, "lat": 38.4240191, "lon": 27.1674181, "tags": {"amenity": "hospital", "healthcare": "hospital", "name": "\u00d6zel Ege \u015eehir Hastanesi", "name:tr": "\u00d6zel Ege \u015eehir Hastanesi"}}, {"type": "node", "id": 4436431489, "lat": 30.7670592, "lon": 20.2392999, "tags": {"amenity": "hospital", "name": "\u0639\u064a\u0627\u062f\u0629 \u0627\u0644\u0628\u0633\u0627\u062a\u064a\u0646", "name:ar": "\u0639\u064a\u0627\u062f\u0629 \u0627\u0644\u0628\u0633\u0627\u062a\u064a\u0646"}}, {"type": "node", "id": 4454822889, "lat": 38.4242763, "lon": 27.1682518, "tags": {"amenity": "hospital", "healthcare": "hospital", "name": "\u00d6zel Ege \u015eehir Hastanesi", "name:tr": "\u00d6zel Ege \u015eehir Hastanesi"}}, {"type": "node", "id": 4455074190, "lat": 38.4248293, "lon": 27.168444, "tags": {"amenity": "hospital", "healthcare": "hospital", "name": "\u00d6zel G\u00f6zde \u0130zmir Hastanesi", "name:tr": "\u00d6zel G\u00f6zde \u0130zmir Hastanesi"}}, {"type": "node", "id": 4458842099, "lat": 32.4897124, "lon": 20.8137295, "tags": {"amenity": "hospital", "name": "\u0645\u0631\u0643\u0632 \u062a\u0623\u0647\u064a\u0644 \u0627\u0644\u0645\u0639\u0627\u0642\u064a\u0646", "name:ar": "\u0645\u0631\u0643\u0632 \u062a\u0623\u0647\u064a\u0644 \u0627\u0644\u0645\u0639\u0627\u0642\u064a\u0646", "name:en": "Center for Rehabilitation"}}, {"type": "node", "id": 4458859692, "lat": 32.4911677, "lon": 20.8351584, "tags": {"amenity": "hospital", "name": "\u0645\u0633\u062a\u0634\u0641\u0649 \u0627\u0644\u0645\u0631\u062c", "name:ar": "\u0645\u0633\u062a\u0634\u0641\u0649 \u0627\u0644\u0645\u0631\u062c", "name:en": "Al Marj Hospital"}}, {"type": "node", "id": 4464612064, "lat": 37.9810314, "lon": 23.7562692, "tags": {"addr:city": "\u0391\u03b8\u03ae\u03bd\u03b1", "addr:housenumber": "6", "addr:postcode": "11528", "addr:street": "\u039b\u03ac\u03bc\u03c8\u03b1\u03ba\u03bf\u03c5", "amenity": "hospital", "healthcare": "hospital", "name": "\u0393\u03b5\u03bd. \u039d\u03bf\u03c3. \"\u0391\u03bb\u03b5\u03be\u03ac\u03bd\u03b4\u03c1\u03b1\" (\u0395\u03be\u03c9\u03c4\u03b5\u03c1\u03b9\u03ba\u03ac \u0399\u03b1\u03c4\u03c1\u03b5\u03af\u03b1)", "opening_hours": "Mo-Tu, Th-Sa 09:00-17:00", "phone": "2132162185", "website": "https://hosp-alexandra.gr/"}}, {"type": "node", "id": 4466232989, "lat": 38.0815895, "lon": 29.3924911, "tags": {"amenity": "hospital", "name": "\u00c7al Devlet Hastanesi", "name:tr": "\u00c7al Devlet Hastanesi"}}, {"type": "node", "id": 4563330892, "lat": 31.2109273, "lon": 29.9265176, "tags": {"amenity": "hospital", "name": "\u0645\u0633\u062a\u0634\u0641\u0649 \u0627\u0644\u0627\u0646\u0628\u0627 \u062a\u0643\u0644\u0627 \u0627\u0644\u062a\u062e\u0635\u0635\u0649", "name:ar": "\u0645\u0633\u062a\u0634\u0641\u0649 \u0627\u0644\u0627\u0646\u0628\u0627 \u062a\u0643\u0644\u0627 \u0627\u0644\u062a\u062e\u0635\u0635\u0649", "name:en": "Sant Takla Speciality Hospitalia", "opening_hours": "24/7", "phone": "035921288"}}, {"type": "node", "id": 4567788194, "lat": 32.0852833, "lon": 23.968293, "tags": {"addr:description": "\u0633\u0648\u0642 \u0627\u0644\u0646\u0633\u0631", "addr:description:ar": "\u0633\u0648\u0642 \u0627\u0644\u0646\u0633\u0631", "amenity": "hospital", "healthcare": "hospital", "language:ar": "main", "name": "\u0639\u064a\u0627\u062f\u0629 \u0623\u062d\u0645\u062f \u062d\u0633\u064a\u0646 \u0627\u0644\u0637\u0628\u064a\u0629", "name:ar": "\u0639\u064a\u0627\u062f\u0629 \u0623\u062d\u0645\u062f \u062d\u0633\u064a\u0646 \u0627\u0644\u0637\u0628\u064a\u0629", "name:en": "Ahmed Hussein Medical Clinic", "opening_hours": "24/7"}}, {"type": "node", "id": 4569230990, "lat": 31.1949882, "lon": 29.9168071, "tags": {"addr:street": "\u0627\u0644\u0631\u0635\u0627\u0641\u0629", "amenity": "hospital", "name": "\u0645\u0633\u062a\u0634\u0641\u0649 \u0627\u0644\u0646\u0632\u0647\u0629 \u0644\u0644\u0642\u0644\u0628 \u0648\u0627\u0644\u0639\u0646\u0627\u064a\u0629 \u0627\u0644\u0645\u0631\u0643\u0632\u0629", "name:ar": "\u0645\u0633\u062a\u0634\u0641\u0649 \u0627\u0644\u0646\u0632\u0647\u0629 \u0644\u0644\u0642\u0644\u0628 \u0648\u0627\u0644\u0639\u0646\u0627\u064a\u0629 \u0627\u0644\u0645\u0631\u0643\u0632\u0629"}}, {"type": "node", "id": 4629577889, "lat": 32.1443509, "lon": 20.1260414, "tags": {"amenity": "hospital", "name": "\u0639\u064a\u0627\u062f\u0629 \u0634\u0628\u0646\u0629", "name:ar": "\u0639\u064a\u0627\u062f\u0629 \u0634\u0628\u0646\u0629", "name:en": "Shebna Clinic"}}, {"type": "node", "id": 4683208396, "lat": 31.2103065, "lon": 29.9385546, "tags": {"amenity": "hospital", "name": "\u0645\u0633\u062a\u0634\u0641\u0649 \u0627\u0644\u0645\u062f\u064a\u0646\u0629 \u0644\u0644\u0645\u0631\u0623\u0629", "name:ar": "\u0645\u0633\u062a\u0634\u0641\u0649 \u0627\u0644\u0645\u062f\u064a\u0646\u0629 \u0644\u0644\u0645\u0631\u0623\u0629", "name:en": "Madina women's Hospital"}}, {"type": "node", "id": 4689076589, "lat": 30.7587759, "lon": 20.2237377, "tags": {"amenity": "hospital", "name": "\u0639\u064a\u0627\u062f\u0629 \u0627\u0644\u0647\u0644\u0627\u0644 \u0627\u0644\u0627\u062d\u0645\u0631 \ud83c\udf19", "name:ar": "\u0639\u064a\u0627\u062f\u0629 \u0627\u0644\u0647\u0644\u0627\u0644 \u0627\u0644\u0627\u062d\u0645\u0631", "name:en": "Red Crescent Clinic"}}, {"type": "node", "id": 4745917821, "lat": 31.2123904, "lon": 29.9406952, "tags": {"addr:street": "\u0645\u062d\u0645\u062f \u0641\u0648\u0632\u0649 \u0645\u0639\u0627\u0630", "amenity": "hospital", "name": "\u0645\u0631\u0643\u0632 \u0627\u0644\u0635\u0641\u0648\u0629 \u0644\u0644\u0639\u064a\u0648\u0646", "name:ar": "\u0645\u0631\u0643\u0632 \u0627\u0644\u0635\u0641\u0648\u0629 \u0644\u0644\u0639\u064a\u0648\u0646"}}, {"type": "node", "id": 4745917822, "lat": 31.2337129, "lon": 29.9520648, "tags": {"amenity": "hospital", "healthcare": "hospital", "name": "\u0627\u0644\u0647\u064a\u0626\u0629 \u0627\u0644\u0639\u0627\u0645\u0629 \u0644\u0644\u062a\u0623\u0645\u064a\u0646 \u0627\u0644\u0635\u062d\u064a", "name:ar": "\u0627\u0644\u0647\u064a\u0626\u0629 \u0627\u0644\u0639\u0627\u0645\u0629 \u0644\u0644\u062a\u0623\u0645\u064a\u0646 \u0627\u0644\u0635\u062d\u064a"}}, {"type": "node", "id": 4759348722, "lat": 31.2083488, "lon": 29.8815197, "tags": {"amenity": "hospital", "healthcare": "hospital", "name": "\u0645\u0633\u062a\u0634\u0641\u0649 \u0627\u0644\u0646\u0642\u0631\u0627\u0634\u064a", "name:ar": "\u0645\u0633\u062a\u0634\u0641\u0649 \u0627\u0644\u0646\u0642\u0631\u0627\u0634\u064a", "name:en": "Al-Nukrashi Hospital"}}, {"type": "node", "id": 4781406721, "lat": 31.2168583, "lon": 29.941556, "tags": {"amenity": "hospital", "name": "\u0645\u0633\u062a\u0634\u0641\u0649 \u0628\u062f\u0631\u0627\u0648\u0649", "name:ar": "\u0645\u0633\u062a\u0634\u0641\u0649 \u0628\u062f\u0631\u0627\u0648\u0649"}}, {"type": "node", "id": 4818810332, "lat": 38.4718448, "lon": 27.0862049, "tags": {"amenity": "hospital", "healthcare": "hospital", "name": "Ba\u015fkent \u00dc. Hastanesi, Z\u00fcbeyde H. Poliklini\u011fi", "phone": "+902322411000"}}, {"type": "node", "id": 4824590719, "lat": 39.1008691, "lon": 21.5112214, "tags": {"amenity": "hospital", "name": "\u039a\u03ad\u03bd\u03c4\u03c1\u03bf \u03a5\u03b3\u03b5\u03af\u03b1\u03c2 \u0393\u03c1\u03b1\u03bd\u03af\u03c4\u03c3\u03b1\u03c2"}}, {"type": "node", "id": 4856192084, "lat": 38.6674514, "lon": 29.4024808, "tags": {"amenity": "hospital", "healthcare": "hospital", "name": "U\u015fak Devlet Hastanesi Ek Hizmet Binas\u0131"}}, {"type": "node", "id": 4860734963, "lat": 38.6796494, "lon": 29.403284, "tags": {"amenity": "hospital", "healthcare": "hospital", "name": "Verem Sava\u015f Dispanseri"}}, {"type": "node", "id": 4910434327, "lat": 39.5495545, "lon": 28.0003554, "tags": {"addr:city": "Bal\u0131kesir", "addr:postcode": "10145", "amenity": "hospital", "emergency": "yes", "healthcare:speciality": "general;acupuncture;cardiology;neurology;internal;surgery;dermatology;emergency;psychiatry;radiology", "name": "Bal\u0131kesir \u00dcniversitesi Sa\u011fl\u0131k Uygulama ve Ara\u015ft\u0131rma Hastanesi", "operator": "Bal\u0131kesir \u00dcniversitesi", "phone": "+90 266 612 10 10", "website": "http://hastane.balikesir.edu.tr/"}}, {"type": "node", "id": 4938264720, "lat": 31.257719, "lon": 29.9879757, "tags": {"amenity": "hospital"}}, {"type": "node", "id": 4979964822, "lat": 35.0536511, "lon": 24.8779725, "tags": {"addr:city": "\u039c\u03bf\u03af\u03c1\u03b5\u03c2", "addr:postcode": "704 00", "amenity": "hospital", "healthcare": "hospital", "name": "\u039a\u0395\u039d\u03a4\u03a1\u039f \u03a5\u0393\u0395\u0399\u0391\u03a3 \u039c\u03bf\u03af\u03c1\u03b5\u03c2", "name:en": "HEALTH CENTER in Mires", "name:it": "Ospedale di Mires", "phone": "+30 289 234 0100", "phone:de": "+30 28920 24495", "phone:en": "+30 28920 24564", "website": "https://www.lentas-online.com/en/information/health.html"}}, {"type": "node", "id": 4984323321, "lat": 38.4470057, "lon": 27.2068324, "tags": {"addr:postcode": "35100", "addr:street": "Kazim Dirik mh. 364/1 sk No 36/A", "amenity": "hospital", "email": "info@entokbb.com", "healthcare": "hospital", "internet_access": "wlan", "name": "Ozel Ento KBB Cerrahi T\u0131p Merkezi", "name:en": "Private Ento KBB Medical Center", "opening_hours": "Mo-Sa 09:00-23:00", "phone": "+902324003686", "website": "http://www.entokbb.con"}}, {"type": "node", "id": 4990337798, "lat": 37.935238, "lon": 23.7479747, "tags": {"amenity": "hospital", "healthcare": "hospital"}}, {"type": "node", "id": 4990364507, "lat": 37.930915, "lon": 23.7528229, "tags": {"amenity": "hospital", "healthcare": "hospital"}}, {"type": "node", "id": 5059551521, "lat": 31.1743125, "lon": 29.9300207, "tags": {"amenity": "hospital", "name": "\u0645\u0633\u062a\u0634\u0641\u0649 \u0627\u0644\u0634\u0631\u0637\u0647", "name:ar": "\u0645\u0633\u062a\u0634\u0641\u0649 \u0627\u0644\u0634\u0631\u0637\u0647"}}, {"type": "node", "id": 5108956740, "lat": 39.1175952, "lon": 23.7275613, "tags": {"addr:city": "\u03a3\u03ba\u03cc\u03c0\u03b5\u03bb\u03bf\u03c2", "addr:postcode": "37003", "addr:street": "\u03a0\u03b5\u03c1\u03b9\u03c6\u03b5\u03c1\u03b9\u03b1\u03ba\u03ae \u039f\u03b4\u03cc\u03c2", "amenity": "hospital", "healthcare": "hospital", "healthcare:speciality": "general;cardiology;paediatrics;vaccination;biology", "name": "\u039a\u03ad\u03bd\u03c4\u03c1\u03bf\u03bd \u03a5\u03b3\u03b5\u03af\u03b1\u03c2 \u03a3\u03ba\u03bf\u03c0\u03ad\u03bb\u03bf\u03c5", "name:en": "Skopelos Health Center", "operator": "\u0391\u03c7\u03b9\u03bb\u03bb\u03bf\u03c0\u03bf\u03cd\u03bb\u03b5\u03b9\u03bf\u03bd \u039d\u03bf\u03c3\u03bf\u03ba\u03bf\u03bc\u03b5\u03af\u03bf\u03bd \u0392\u03cc\u03bb\u03bf\u03c5"}}, {"type": "node", "id": 5130887755, "lat": 39.6450003, "lon": 27.8753345, "tags": {"addr:city": "Bal\u0131kesir", "addr:district": "Karesi", "addr:neighbourhood": "Dink\u00e7iler Mahallesi", "addr:postcode": "10010", "addr:street": "Ali Hikmet Pa\u015fa Caddesi", "amenity": "hospital", "name": "Bal\u0131kesir Devlet Hastanesi Turgut Solak Hizmet Binas\u0131"}}, {"type": "node", "id": 5170748421, "lat": 31.2630983, "lon": 29.9951977, "tags": {"amenity": "hospital", "name": "\u0645\u0633\u062a\u0634\u0641\u0649 \u0627\u0644\u0645\u062f\u064a\u0646\u0629 \u0627\u0644\u0645\u0646\u0648\u0631\u0629", "name:ar": "\u0645\u0633\u062a\u0634\u0641\u0649 \u0627\u0644\u0645\u062f\u064a\u0646\u0629 \u0627\u0644\u0645\u0646\u0648\u0631\u0629", "phone": "+203 5561999"}}, {"type": "node", "id": 5172926924, "lat": 32.0982758, "lon": 20.0808963, "tags": {"amenity": "hospital", "name": "\u0645\u062c\u0645\u0639 \u0627\u0644\u0628\u0631\u0643\u0629 \u0627\u0644\u0637\u0628\u064a _\u0627\u0644\u0647\u0644\u0627\u0644 \u0627\u0644\u0623\u062d\u0645\u0631", "name:ar": "\u0645\u062c\u0645\u0639 \u0627\u0644\u0628\u0631\u0643\u0629 \u0627\u0644\u0637\u0628\u064a _\u0627\u0644\u0647\u0644\u0627\u0644 \u0627\u0644\u0623\u062d\u0645\u0631", "name:en": "Red Crescent -Benghazi"}}, {"type": "node", "id": 5173767321, "lat": 32.1092743, "lon": 20.0918183, "tags": {"amenity": "hospital", "name": "\u0645\u062e\u062a\u0628\u0631 \u0627\u0644\u0631\u0627\u0632\u064a \u0627\u0644\u0637\u0628\u064a", "name:ar": "\u0645\u062e\u062a\u0628\u0631 \u0627\u0644\u0631\u0627\u0632\u064a \u0627\u0644\u0637\u0628\u064a", "name:en": "Al-Razi Medical Laboratory"}}, {"type": "node", "id": 5175486423, "lat": 32.7619483, "lon": 21.7393878, "tags": {"amenity": "hospital", "name": "\u0639\u064a\u0627\u062f\u0629 \u0627\u0644\u0645\u0633\u062a\u0642\u0628\u0644", "name:ar": "\u0639\u064a\u0627\u062f\u0629 \u0627\u0644\u0645\u0633\u062a\u0642\u0628\u0644", "name:en": "Future Clinic"}}, {"type": "node", "id": 5200295222, "lat": 31.2017726, "lon": 29.9041544, "tags": {"amenity": "hospital", "name": "ASM E.2", "name:en": "\u0627\u0644\u0645\u064a\u0631\u064a \u0645\u062f\u062e\u0644 \u0662"}}, {"type": "node", "id": 5214096325, "lat": 36.9764115, "lon": 24.7248313, "tags": {"amenity": "hospital", "healthcare": "hospital", "name": "\u0399\u03b1\u03c4\u03c1\u03b5\u03af\u03bf \u03a3\u03af\u03c6\u03bd\u03bf\u03c5"}}, {"type": "node", "id": 5287381414, "lat": 38.4404593, "lon": 27.1432668, "tags": {"addr:housenumber": "hospital", "addr:street": "1479. Sokak", "amenity": "hospital", "healthcare": "hospital", "name": "ozel kent"}}, {"type": "node", "id": 5315862132, "lat": 31.1484562, "lon": 29.955702, "tags": {"addr:city": "\u0627\u0644\u0627\u0633\u0643\u0646\u062f\u0631\u064a\u0647", "addr:postcode": "23615", "addr:street": "\u0627\u0628\u064a\u0633 7", "amenity": "hospital", "healthcare": "hospital", "name": "\u0627\u0644\u0648\u062d\u062f\u0629 \u0627\u0644\u0635\u062d\u064a\u0629 \u0623\u0628\u064a\u0633 7", "name:ar": "\u0627\u0644\u0648\u062d\u062f\u0629 \u0627\u0644\u0635\u062d\u064a\u0629 \u0623\u0628\u064a\u0633 7"}}, {"type": "node", "id": 5374946813, "lat": 38.5728216, "lon": 23.6414723, "tags": {"amenity": "hospital", "healthcare": "hospital", "name": "\u039a\u03ad\u03bd\u03c4\u03c1\u03bf \u03a5\u03b3\u03b5\u03af\u03b1\u03c2 \u03a8\u03b1\u03c7\u03bd\u03ce\u03bd"}}, {"type": "node", "id": 5386834675, "lat": 36.720974, "lon": 25.2829694, "tags": {"amenity": "hospital", "healthcare": "hospital"}}, {"type": "node", "id": 5430865441, "lat": 39.3325618, "lon": 22.1003619, "tags": {"amenity": "hospital", "emergency": "yes", "healthcare": "hospital", "name": "\u039a\u03ad\u03bd\u03c4\u03c1\u03bf \u03a5\u03b3\u03b5\u03af\u03b1\u03c2 \u03a3\u03bf\u03c6\u03ac\u03b4\u03c9\u03bd", "operator": "\u0395.\u03a3.\u03a5."}}, {"type": "node", "id": 5513789030, "lat": 39.6414673, "lon": 27.8829032, "tags": {"amenity": "hospital", "healthcare": "hospital", "name": "Atat\u00fcrk Devlet Hastanesi Hemodiyaliz \u00dcnitesi"}}, {"type": "node", "id": 5568092683, "lat": 37.316453, "lon": 26.5426218, "tags": {"amenity": "hospital", "healthcare": "hospital", "name": "\u03bd\u03bf\u03c3\u03bf\u03ba\u03bf\u03bc\u03b5\u03b9\u03bf \u03c0\u03b1\u03c4\u03bc\u03bf\u03c5"}}, {"type": "node", "id": 5766071062, "lat": 39.1217962, "lon": 26.4656682, "tags": {"amenity": "hospital", "healthcare": "hospital", "name": "Unisef"}}, {"type": "node", "id": 5783798458, "lat": 32.249346, "lon": 20.193632, "tags": {"amenity": "hospital", "healthcare": "hospital", "name": "\u0627\u0644\u0639\u064a\u0627\u062f\u0629 \u0627\u0644\u0639\u0627\u0645\u0629 \u0633\u062f\u064a \u062e\u0644\u064a\u0641\u0629", "name:ar": "\u0627\u0644\u0639\u064a\u0627\u062f\u0629 \u0627\u0644\u0639\u0627\u0645\u0629 \u0633\u062f\u064a \u062e\u0644\u064a\u0641\u0629", "name:en": "Outpatient clinics", "opening_hours": "Mo-Su 08:00-14:00"}}, {"type": "node", "id": 5795074253, "lat": 37.0265318, "lon": 27.4454132, "tags": {"amenity": "hospital", "name": "Mete", "name:tr": "Mete"}}, {"type": "node", "id": 5860551769, "lat": 39.4416928, "lon": 23.1032006, "tags": {"amenity": "hospital", "healthcare": "hospital"}}, {"type": "node", "id": 5867328034, "lat": 31.2397069, "lon": 29.9933271, "tags": {"amenity": "hospital", "healthcare": "hospital", "name": "\u0627\u0644\u062c\u0645\u0639\u064a\u0629 \u0627\u0644\u0634\u0631\u0639\u064a\u0629", "name:ar": "\u0627\u0644\u062c\u0645\u0639\u064a\u0629 \u0627\u0644\u0634\u0631\u0639\u064a\u0629", "phone": "033315380"}}, {"type": "node", "id": 5878275107, "lat": 39.5765377, "lon": 27.0430473, "tags": {"addr:city": "Bal\u0131kesir", "addr:district": "Edremit", "addr:housenumber": "1", "addr:neighbourhood": "Cenne tAya\u011f\u0131 Mahallesi", "amenity": "hospital", "email": "balikesirdhs7@saglik.gov.tr", "emergency": "yes", "fax": "+90 266 373 40 04", "healthcare": "hospital", "healthcare:speciality": "general;emergency;surgery;neurology;cardiology;internal;pediatrics", "name": "Edremit Devlet Hastanesi", "opening_hours": "24/7", "operator": "Sa\u011fl\u0131k Bakanl\u0131\u011f\u0131", "operator:wikidata": "Q4294365", "phone": "+90 266 373 13 13", "website": "https://edremitdh.saglik.gov.tr/"}}, {"type": "node", "id": 5905296140, "lat": 38.4531069, "lon": 27.1881035, "tags": {"addr:city": "\u0130zmir", "addr:district": "Bayrakl\u0131", "addr:housenumber": "No: 7", "addr:neighbourhood": "Mansuro\u011flu Mah.", "addr:postcode": "35535", "addr:street": "283/10. Sokak", "amenity": "hospital", "healthcare": "hospital", "name": "\u00d6zel Kent Bayrakl\u0131 T\u0131p Merkezi", "operator": "Kent Sa\u011fl\u0131k Grubu", "phone": "+90 850 222 5368", "website": "https://www.kentsaglikgrubu.com"}}, {"type": "node", "id": 5906891093, "lat": 32.0906926, "lon": 20.1054213, "tags": {"amenity": "hospital", "name": "\u0639\u064a\u0627\u062f\u0629 \u0627\u0644\u0645\u0633\u062a\u0642\u0628\u0644", "name:ar": "\u0639\u064a\u0627\u062f\u0629 \u0627\u0644\u0645\u0633\u062a\u0642\u0628\u0644", "name:en": "Future Clinic"}}, {"type": "node", "id": 5906891094, "lat": 32.0702883, "lon": 20.0691637, "tags": {"amenity": "hospital", "name": "\u0645\u0633\u062a\u0634\u0641\u0649 \u0627\u0644\u0627\u0645\u0631\u0627\u0636 \u0627\u0644\u0633\u0627\u0631\u064a\u0629", "name:ar": "\u0645\u0633\u062a\u0634\u0641\u0649 \u0627\u0644\u0627\u0645\u0631\u0627\u0636 \u0627\u0644\u0633\u0627\u0631\u064a\u0629"}}, {"type": "node", "id": 5906925286, "lat": 30.7734603, "lon": 20.224078, "tags": {"amenity": "hospital", "name": "\u0645\u0633\u062a\u0634\u0641\u0649 \u0627\u0644\u0645\u0642\u0631\u064a\u0641", "name:ar": "\u0645\u0633\u062a\u0634\u0641\u0649 \u0627\u0644\u0645\u0642\u0631\u064a\u0641"}}, {"type": "node", "id": 5906927387, "lat": 32.0777013, "lon": 20.097475, "tags": {"amenity": "hospital", "healthcare": "hospital", "name": "\u0645\u0631\u0643\u0632 \u0628\u0646\u063a\u0627\u0632\u064a \u0627\u0644\u0637\u0628\u064a", "name:ar": "\u0645\u0631\u0643\u0632 \u0628\u0646\u063a\u0627\u0632\u064a \u0627\u0644\u0637\u0628\u064a", "name:en": "Benghazi Medical Center"}}, {"type": "node", "id": 5906928685, "lat": 32.1107697, "lon": 20.1247461, "tags": {"amenity": "hospital", "name": "\u0645\u0635\u062d\u0629 \u0627\u0644\u0647\u0631\u0645", "name:ar": "\u0645\u0635\u062d\u0629 \u0627\u0644\u0647\u0631\u0645", "name:en": "Al Haram Clinic"}}, {"type": "node", "id": 5948124620, "lat": 31.2343075, "lon": 29.9639451, "tags": {"amenity": "hospital", "healthcare": "hospital", "name": "\u0645\u0633\u062a\u0634\u0641\u0649 \u0627\u0644\u0641\u062a\u062d", "name:ar": "\u0645\u0633\u062a\u0634\u0641\u0649 \u0627\u0644\u0641\u062a\u062d"}}, {"type": "node", "id": 5948127094, "lat": 31.2345278, "lon": 29.9626566, "tags": {"amenity": "hospital", "healthcare": "hospital", "name": "\u0645\u0633\u062a\u0634\u0641\u0649 \u0627\u0644\u0628\u062a\u0631\u0648\u0644", "name:ar": "\u0645\u0633\u062a\u0634\u0641\u0649 \u0627\u0644\u0628\u062a\u0631\u0648\u0644 \u0628\u0627\u0644\u0625\u0633\u0643\u0646\u062f\u0631\u064a\u0629", "name:en": "Petroleum Hospital in Alexandria"}}, {"type": "node", "id": 5951284831, "lat": 38.3951225, "lon": 27.034139, "tags": {"amenity": "hospital", "healthcare": "hospital", "name": "Dokuz Eyl\u00fcl \u00dcniversitesi Hastanesi"}}, {"type": "node", "id": 6080046486, "lat": 31.2553539, "lon": 29.9850196, "tags": {"amenity": "hospital", "name": "\u0645\u0633\u062a\u0634\u0641\u0649 \u0627\u0644\u0628\u062f\u0631\u0627\u0648\u064a \u0662", "name:ar": "\u0645\u0633\u062a\u0634\u0641\u0649 \u0627\u0644\u0645\u0644\u0627\u062d - \u0645\u0633\u062a\u0634\u0641\u0649 \u0627\u0644\u0628\u062f\u0631\u0627\u0648\u064a \u0662", "name:en": "Al Mallah Hospital"}}, {"type": "node", "id": 6093260385, "lat": 31.2439359, "lon": 29.9821849, "tags": {"amenity": "hospital", "name": "\u0645\u0633\u062a\u0634\u0641\u0649 \u0641\u0643\u062a\u0648\u0631\u064a\u0627", "name:ar": "\u0645\u0633\u062a\u0634\u0641\u0649 \u0641\u0643\u062a\u0648\u0631\u064a\u0627", "name:en": "Victoria Hospital"}}, {"type": "node", "id": 6093262085, "lat": 31.2442273, "lon": 29.9867739, "tags": {"amenity": "hospital", "name": "\u0645\u0633\u062a\u0634\u0641\u0649 \u0644\u0648\u0627\u0621 \u0627\u0644\u0625\u0633\u0644\u0627\u0645", "name:ar": "\u0645\u0633\u062a\u0634\u0641\u0649 \u0644\u0648\u0627\u0621 \u0627\u0644\u0625\u0633\u0644\u0627\u0645", "opening_hours": "24/7"}}, {"type": "node", "id": 6110860686, "lat": 31.2028128, "lon": 29.9199829, "tags": {"amenity": "hospital", "name": "\u0645\u0633\u062a\u0634\u0641\u0649 \u0637\u0644\u0628\u0629 \u062c\u0627\u0645\u0639\u0629 \u0627\u0644\u0625\u0633\u0643\u0646\u062f\u0631\u064a\u0629", "name:ar": "\u0645\u0633\u062a\u0634\u0641\u0649 \u0637\u0644\u0628\u0629 \u062c\u0627\u0645\u0639\u0629 \u0627\u0644\u0625\u0633\u0643\u0646\u062f\u0631\u064a\u0629"}}, {"type": "node", "id": 6115961588, "lat": 31.219401, "lon": 29.9414862, "tags": {"amenity": "hospital", "name": "\u0645\u0633\u062a\u0634\u0641\u0649 \u0633\u064a\u062f\u064a \u062c\u0627\u0628\u0631 \u0627\u0644\u062a\u062e\u0635\u0635\u064a", "name:ar": "\u0645\u0633\u062a\u0634\u0641\u0649 \u0633\u064a\u062f\u064a \u062c\u0627\u0628\u0631 \u0627\u0644\u062a\u062e\u0635\u0635\u064a"}}, {"type": "node", "id": 6120260044, "lat": 36.1504802, "lon": 29.5927778, "tags": {"amenity": "hospital", "healthcare": "hospital", "name": "\u03a0\u03bf\u03bb\u03c5\u03b4\u03cd\u03bd\u03b1\u03bc\u03bf \u03a0\u03b5\u03c1\u03b9\u03c6\u03b5\u03c1\u03b5\u03b9\u03b1\u03ba\u03cc \u0399\u03b1\u03c4\u03c1\u03b5\u03af\u03bf \u039c\u03b5\u03b3\u03af\u03c3\u03c4\u03b7\u03c2", "name:en": "Megisti Medical Center", "name:es": "Centro M\u00e9dico de Megisti", "phone": "2246049267"}}, {"type": "node", "id": 6149871174, "lat": 31.1911004, "lon": 29.9029881, "tags": {"amenity": "hospital", "healthcare": "hospital", "name": "Ahmed Maher Hospital", "name:en": "Ahmed Maher Hospital"}}, {"type": "node", "id": 6196637257, "lat": 38.1153851, "lon": 23.8647321, "tags": {"addr:street": "\u0393\u03bf\u03c1\u03b3\u03bf\u03c0\u03bf\u03c4\u03b1\u03bc\u03bf\u03c5", "amenity": "hospital", "healthcare": "hospital"}}, {"type": "node", "id": 6214856085, "lat": 38.3923436, "lon": 27.0872484, "tags": {"amenity": "hospital", "healthcare": "hospital", "name": "HIFSIZSIHHA ENST\u0130T\u00dcS\u00dc"}}, {"type": "node", "id": 6350975423, "lat": 37.4825005, "lon": 21.9015127, "tags": {"addr:city": "\u0391\u03bd\u03b4\u03c1\u03af\u03c4\u03c3\u03b1\u03b9\u03bd\u03b1", "addr:postcode": "27061", "amenity": "hospital", "healthcare": "hospital", "name": "\u039a\u03ad\u03bd\u03c4\u03c1\u03bf \u03a5\u03b3\u03b5\u03af\u03b1\u03c2 \u0391\u03bd\u03b4\u03c1\u03af\u03c4\u03c3\u03b1\u03b9\u03bd\u03b1\u03c2", "name:el": "\u039a\u03ad\u03bd\u03c4\u03c1\u03bf \u03a5\u03b3\u03b5\u03af\u03b1\u03c2 \u0391\u03bd\u03b4\u03c1\u03af\u03c4\u03c3\u03b1\u03b9\u03bd\u03b1\u03c2", "name:en": "Health Center of Andritsaina", "phone": "+30 2626 360011"}}, {"type": "node", "id": 6353594288, "lat": 36.6850995, "lon": 28.0590814, "tags": {"amenity": "hospital", "name": "Bozburun sa\u011fl\u0131k oca\u011f\u0131"}}, {"type": "node", "id": 6371119888, "lat": 31.2320812, "lon": 29.9703691, "tags": {"amenity": "hospital", "name": "\u0627\u0644\u0647\u0644\u0627\u0644 \u0627\u0644\u0623\u062d\u0645\u0631 \u0627\u0644\u0645\u0635\u0631\u064a - \u0641\u0631\u0639 \u0627\u0644\u0625\u0633\u0643\u0646\u062f\u0631\u064a\u0629 - \u0628\u0627\u0643\u0648\u0633", "name:ar": "\u0627\u0644\u0647\u0644\u0627\u0644 \u0627\u0644\u0623\u062d\u0645\u0631 \u0627\u0644\u0645\u0635\u0631\u064a - \u0641\u0631\u0639 \u0627\u0644\u0625\u0633\u0643\u0646\u062f\u0631\u064a\u0629 - \u0628\u0627\u0643\u0648\u0633"}}, {"type": "node", "id": 6372854086, "lat": 31.2478922, "lon": 29.9736309, "tags": {"amenity": "hospital", "healthcare": "hospital", "name": "\u0645\u0633\u062a\u0634\u0641\u0649 \u0644\u0648\u0631\u0627\u0646", "name:ar": "\u0645\u0633\u062a\u0634\u0641\u0649 \u0644\u0648\u0631\u0627\u0646", "name:en": "Louran Hospital"}}, {"type": "node", "id": 6402260575, "lat": 38.3979654, "lon": 27.1258623, "tags": {"amenity": "hospital", "healthcare": "hospital", "name": "BOZYAKA EAH"}}, {"type": "node", "id": 6443281834, "lat": 31.2083152, "lon": 29.9348175, "tags": {"amenity": "hospital", "name": "\u0645\u0633\u062a\u0634\u0641\u0649 \u0633\u0645\u0648\u062d\u0629 \u0627\u0644\u062f\u0648\u0644\u064a", "name:ar": "\u0645\u0633\u062a\u0634\u0641\u0649 \u0633\u0645\u0648\u062d\u0629 \u0627\u0644\u062f\u0648\u0644\u064a"}}, {"type": "node", "id": 6478018419, "lat": 32.0534921, "lon": 20.1092935, "tags": {"amenity": "hospital", "name": "\u0627\u0644\u0645\u0631\u0643\u0632 \u0627\u0644\u0648\u0637\u0646\u064a \u0644\u0639\u0644\u0627\u062c \u0627\u0644\u0623\u0648\u0631\u0627\u0645", "name:ar": "\u0627\u0644\u0645\u0631\u0643\u0632 \u0627\u0644\u0648\u0637\u0646\u064a \u0644\u0639\u0644\u0627\u062c \u0627\u0644\u0623\u0648\u0631\u0627\u0645", "name:en": "National Cancer Center"}}, {"type": "node", "id": 6478018420, "lat": 32.0509528, "lon": 20.1107579, "tags": {"amenity": "hospital", "name": "\u0645\u0631\u0643\u0632 \u0637\u0628 \u0648\u062c\u0631\u0627\u062d\u0629 \u0627\u0644\u0642\u0644\u0628", "name:ar": "\u0645\u0631\u0643\u0632 \u0637\u0628 \u0648\u062c\u0631\u0627\u062d\u0629 \u0627\u0644\u0642\u0644\u0628", "name:en": "Benghazi Cardiac Center"}}, {"type": "node", "id": 6503541805, "lat": 37.9678497, "lon": 23.4790821, "tags": {"addr:postcode": "18900", "addr:street": "\u03a6\u03b1\u03bd\u03b5\u03c1\u03c9\u03bc\u03ad\u03bd\u03b7\u03c2", "amenity": "hospital", "emergency": "yes", "healthcare": "hospital", "healthcare:speciality": "general", "int_name": "Health Center of Salamina", "name": "\u039a\u03ad\u03bd\u03c4\u03c1\u03bf \u03a5\u03b3\u03b5\u03af\u03b1\u03c2 \u03a3\u03b1\u03bb\u03b1\u03bc\u03af\u03bd\u03b1\u03c2", "name:el": "\u039a\u03ad\u03bd\u03c4\u03c1\u03bf \u03a5\u03b3\u03b5\u03af\u03b1\u03c2 \u03a3\u03b1\u03bb\u03b1\u03bc\u03af\u03bd\u03b1\u03c2", "operator": "\u0395.\u03a3.\u03a5.", "phone": "+30 21 3200 8534", "website": "https://www.nikaia-hosp.gr/864A2A4A.el.aspx"}}, {"type": "node", "id": 6509448487, "lat": 31.251513, "lon": 29.9753775, "tags": {"amenity": "hospital", "healthcare": "hospital", "name": "\u0645\u0633\u062a\u0634\u0641\u0649 \u0627\u0644\u0625\u0642\u0628\u0627\u0644", "name:ar": "\u0645\u0633\u062a\u0634\u0641\u0649 \u0627\u0644\u0625\u0642\u0628\u0627\u0644"}}, {"type": "node", "id": 6572089485, "lat": 31.1952169, "lon": 29.9125867, "tags": {"amenity": "hospital", "healthcare": "hospital", "name": "\u0645\u0633\u062a\u0634\u0641\u0649 \u0632\u0645\u0632\u0645", "name:ar": "\u0645\u0633\u062a\u0634\u0641\u0649 \u0632\u0645\u0632\u0645"}}, {"type": "node", "id": 6605425817, "lat": 38.3160806, "lon": 23.3204007, "tags": {"addr:city": "\u0398\u03ae\u03b2\u03b1", "amenity": "hospital", "emergency": "no", "healthcare": "hospital", "healthcare:speciality": "\u0393\u03b5\u03bd\u03b9\u03ba\u03ae\u03c2_\u0399\u03b1\u03c4\u03c1\u03b9\u03ba\u03ae\u03c2;\u03a0\u03b1\u03b8\u03bf\u03bb\u03bf\u03b3\u03af\u03b1\u03c2", "name": "(\u03a4\u039f\u039c\u03a5) \u03a4\u03bf\u03c0\u03b9\u03ba\u03ae \u039f\u03bc\u03ac\u03b4\u03b1 \u03a5\u03b3\u03b5\u03af\u03b1\u03c2 \u0398\u03ae\u03b2\u03b1\u03c2"}}, {"type": "node", "id": 6665447291, "lat": 32.4862387, "lon": 20.8331963, "tags": {"amenity": "hospital", "healthcare": "hospital", "name": "\u0645\u0633\u062a\u0634\u0641\u064a \u0627\u0644\u0631\u064a\u0627\u062f\u0629", "name:ar": "\u0645\u0633\u062a\u0634\u0641\u064a \u0627\u0644\u0631\u064a\u0627\u062f\u0629", "name:en": "Al Riyadah Hospital"}}, {"type": "node", "id": 6732755153, "lat": 38.2305137, "lon": 28.2183954, "tags": {"amenity": "hospital", "emergency": "yes", "healthcare": "hospital", "name": "Kiraz Devlet Hastanesi"}}, {"type": "node", "id": 6784633286, "lat": 31.3512468, "lon": 27.2430948, "tags": {"amenity": "hospital", "healthcare": "hospital", "name": "\u0645\u0633\u062a\u0634\u0641\u0649 \u0639\u0631\u0627\u0628\u064a \u0627\u0644\u062a\u062e\u0635\u0635\u064a", "name:ar": "\u0645\u0633\u062a\u0634\u0641\u0649 \u0639\u0631\u0627\u0628\u064a \u0627\u0644\u062a\u062e\u0635\u0635\u064a", "name:en": "Orabi Specialist Hospital"}}, {"type": "node", "id": 6796349005, "lat": 31.1910639, "lon": 29.9085547, "tags": {"amenity": "hospital", "name": "\u0645\u0633\u062a\u0634\u0641\u0649 \u0633\u0647\u0644\u0627 \u0627\u0644\u062c\u062f\u064a\u062f\u0629", "name:ar": "\u0645\u0633\u062a\u0634\u0641\u0649 \u0633\u0647\u0644\u0627 \u0627\u0644\u062c\u062f\u064a\u062f\u0629"}}, {"type": "node", "id": 6796863691, "lat": 32.7495896, "lon": 22.3880192, "tags": {"amenity": "hospital", "name": "\u0645\u0633\u062a\u0634\u0641\u064a \u0639\u064a\u0646 \u0645\u0627\u0631\u0629 \u0627\u0644\u0642\u0631\u0648\u064a", "name:ar": "\u0645\u0633\u062a\u0634\u0641\u064a \u0639\u064a\u0646 \u0645\u0627\u0631\u0629 \u0627\u0644\u0642\u0631\u0648\u064a", "name:en": "AIN MARA Village Hospital"}}, {"type": "node", "id": 6814336785, "lat": 32.8971556, "lon": 21.9710127, "tags": {"addr:street": "\u062f\u0631\u0646\u0647-\u0633\u0648\u0633\u0647 Darnah-Susah", "amenity": "hospital", "name": "\u0645\u0633\u062a\u0634\u0641\u064a \u0633\u0648\u0633\u0629", "name:ar": "\u0645\u0633\u062a\u0634\u0641\u064a \u0633\u0648\u0633\u0629", "name:en": "Susah Hospital"}}, {"type": "node", "id": 6814944085, "lat": 32.501808, "lon": 20.7020553, "tags": {"amenity": "hospital", "healthcare": "hospital", "name": "\u0645\u0633\u062a\u0634\u0641\u064a \u0641\u0631\u0632\u0648\u063a\u0629", "name:ar": "\u0645\u0633\u062a\u0634\u0641\u064a \u0641\u0631\u0632\u0648\u063a\u0629", "name:en": "Farzuogha Hospital", "operator:type": "government"}}, {"type": "node", "id": 6816098887, "lat": 39.6321871, "lon": 29.397682, "tags": {"amenity": "hospital", "name": "Halk Hastanesi"}}, {"type": "node", "id": 6822109354, "lat": 38.477477, "lon": 27.0967466, "tags": {"amenity": "hospital", "healthcare": "hospital", "name": "\u00d6zel Metropol T\u0131p Merkezi"}}, {"type": "node", "id": 6881139985, "lat": 32.1173762, "lon": 20.0711637, "tags": {"amenity": "hospital", "healthcare": "hospital", "name": "\u0645\u0633\u062a\u0634\u0641\u064a \u0627\u0644\u0639\u064a\u0648\u0646", "name:ar": "\u0645\u0633\u062a\u0634\u0641\u064a \u0627\u0644\u0639\u064a\u0648\u0646", "name:en": "Ophthalmic hospital"}}, {"type": "node", "id": 6882721543, "lat": 38.0942552, "lon": 23.8029209, "tags": {"addr:city": "\u039a\u03b7\u03c6\u03b9\u03c3\u03b9\u03ac", "addr:country": "GR", "addr:housenumber": "28", "addr:postcode": "14564", "addr:street": "\u039a\u03b7\u03c6\u03b9\u03c3\u03bf\u03cd", "amenity": "hospital", "emergency": "yes", "healthcare": "hospital", "healthcare:speciality": "\u03bd\u03b5\u03c5\u03c1\u03bf\u03c7\u03b5\u03b9\u03c1\u03bf\u03c5\u03c1\u03b3\u03cc\u03c2;neyrosurgeon", "name": "\u0394\u03b1\u03b2\u03b1\u03bd\u03ad\u03bb\u03bf\u03c2 \u039a\u03c9\u03bd\u03c3\u03c4\u03b1\u03bd\u03c4\u03af\u03bd\u03bf\u03c2", "operator": "\u0394\u03b1\u03b2\u03b1\u03bd\u03ad\u03bb\u03bf\u03c2 \u039a\u03c9\u03bd\u03c3\u03c4\u03b1\u03bd\u03c4\u03af\u03bd\u03bf\u03c2", "operator:type": "public", "phone": "+302108071407", "website": "http://davaneloskonstantinos.blogspot.com/"}}, {"type": "node", "id": 6897668885, "lat": 32.7526484, "lon": 21.6340328, "tags": {"amenity": "hospital", "name": "\u0645\u0633\u062a\u0634\u0641\u064a \u0645\u0633\u0629 \u0627\u0644\u0642\u0631\u0648\u064a", "name:ar": "\u0645\u0633\u062a\u0634\u0641\u064a \u0645\u0633\u0629 \u0627\u0644\u0642\u0631\u0648\u064a", "name:en": "Messah Rural Hospital"}}, {"type": "node", "id": 6915266127, "lat": 38.4546696, "lon": 27.2142261, "tags": {"amenity": "hospital", "healthcare": "hospital", "name": "\u00c7ocuk Hastanesi Acil"}}, {"type": "node", "id": 6948109927, "lat": 31.2072614, "lon": 29.9531454, "tags": {"addr:country": "EG", "addr:district": "\u0633\u064a\u062f\u0649 \u062c\u0627\u0628\u0631", "addr:district:en": "Sidi Gaber", "addr:housenumber": "94", "addr:neighbourhood": "\u0645\u0633\u0627\u0643\u0646 \u062a\u0639\u0627\u0648\u0646\u064a\u0627\u062a \u0633\u0645\u0648\u062d\u0647", "addr:neighbourhood:en": "Taawoneyat Semouha Housing", "addr:postcode": "21554", "addr:province": "\u0627\u0644\u0627\u0633\u0643\u0646\u062f\u0631\u064a\u0629", "addr:province:en": "Alexandria", "addr:street": "\u0634\u0627\u0631\u0639 \u0627\u0644\u0631\u0648\u0636\u0629 1", "addr:street:en": "Al Rouda 1 Street", "addr:subdistrict": "\u0639\u0632\u0628\u0629 \u0633\u0639\u062f", "addr:subdistrict:en": "Ezbet Saad", "amenity": "hospital", "healthcare": "hospital", "healthcare:speciality": "paediatrics;general;clinic", "name": "\u062f\u0643\u062a\u0648\u0631 \u0645\u0645\u062f\u0648\u062d \u062d\u0633\u064a\u0646 \u0644\u0637\u0628 \u0627\u0644\u0627\u0637\u0641\u0627\u0644", "name:ar": "\u062f\u0643\u062a\u0648\u0631 \u0645\u0645\u062f\u0648\u062d \u062d\u0633\u064a\u0646 \u0644\u0637\u0628 \u0627\u0644\u0627\u0637\u0641\u0627\u0644"}}, {"type": "node", "id": 6948853990, "lat": 31.2158369, "lon": 29.941974, "tags": {"amenity": "hospital", "name": "\u0645\u0633\u062a\u0634\u0641\u064a \u0627\u0633\u0643\u0646\u062f\u0631\u064a\u0629 \u0627\u0644\u062f\u0648\u0644\u064a", "name:ar": "\u0645\u0633\u062a\u0634\u0641\u064a \u0627\u0633\u0643\u0646\u062f\u0631\u064a\u0629 \u0627\u0644\u062f\u0648\u0644\u064a"}}, {"type": "node", "id": 6982945486, "lat": 31.1698343, "lon": 29.8708821, "tags": {"amenity": "hospital", "name": "\u0627\u0644\u0646\u0635\u0631 \u0627\u0644\u0634\u0627\u0645\u0644\u0629", "name:ar": "\u0627\u0644\u0646\u0635\u0631 \u0627\u0644\u0634\u0627\u0645\u0644\u0629", "name:en": "El Shamla hospital"}}, {"type": "node", "id": 7465333386, "lat": 31.6740105, "lon": 20.2583989, "tags": {"amenity": "hospital", "name": "\u0627\u0643\u0644\u064a\u0644 \u0627\u0644\u0639\u0627\u0641\u064a\u0629", "name:ar": "\u0627\u0643\u0644\u064a\u0644 \u0627\u0644\u0639\u0627\u0641\u064a\u0629", "name:en": "Aklil Afiya Clinic"}}, {"type": "node", "id": 7500524504, "lat": 38.9752052, "lon": 21.3238153, "tags": {"amenity": "hospital", "healthcare": "hospital", "name": "\u039a\u0395\u039d\u03a4\u03a1\u039f \u03a5\u0393\u0395\u0399\u0391\u03a3 \u03a7\u0391\u039b\u039a\u0399\u039f\u03a0\u039f\u03a5\u039b\u039f\u03a5"}}, {"type": "node", "id": 7551662859, "lat": 38.2422892, "lon": 22.0731366, "tags": {"amenity": "hospital", "healthcare": "hospital", "name": "\u0395\u03be\u03c9\u03c4\u03b5\u03c1\u03b9\u03ba\u03ac \u0399\u03b1\u03c4\u03c1\u03b5\u03af\u03b1/\u0395\u03c0\u03b5\u03af\u03b3\u03bf\u03bd\u03c4\u03b1 \u03a0\u03b5\u03c1\u03b9\u03c3\u03c4\u03b1\u03c4\u03b9\u03ba\u03ac"}}, {"type": "node", "id": 7572976787, "lat": 39.8745989, "lon": 20.0006499, "tags": {"amenity": "hospital", "healthcare": "hospital", "name:en": "Maternity center"}}, {"type": "node", "id": 7594983622, "lat": 39.3212816, "lon": 26.7074125, "tags": {"amenity": "hospital", "healthcare": "hospital", "name": "Ayval\u0131k Devlet Hastanesi"}}, {"type": "node", "id": 7599926649, "lat": 37.5113919, "lon": 22.3639279, "tags": {"amenity": "hospital", "healthcare": "hospital", "healthcare:speciality": "psychiatry", "name": "\u03a8\u03c5\u03c7\u03b9\u03b1\u03c4\u03c1\u03b9\u03ba\u03cc \u039d\u03bf\u03c3\u03bf\u03ba\u03bf\u03bc\u03b5\u03af\u03bf \u03a4\u03c1\u03af\u03c0\u03bf\u03bb\u03b7\u03c2"}}, {"type": "node", "id": 7616571017, "lat": 38.440739, "lon": 27.1727482, "tags": {"addr:housenumber": "14", "addr:street": "Anadolu Caddesi", "amenity": "hospital", "healthcare": "hospital", "name": "\u00c7\u0131narl\u0131 Kad\u0131n Do\u011fum Hastanesi"}}, {"type": "node", "id": 7627611545, "lat": 31.6771009, "lon": 20.2539948, "tags": {"amenity": "hospital", "healthcare": "hospital", "name": "\u062c\u0647\u0627\u0632 \u0627\u0644\u0627\u0633\u0639\u0627\u0641", "name:ar": "\u062c\u0647\u0627\u0632 \u0627\u0644\u0627\u0633\u0639\u0627\u0641", "name:en": "An ambulance"}}, {"type": "node", "id": 7627633498, "lat": 31.6771009, "lon": 20.2539948, "tags": {"amenity": "hospital", "healthcare": "hospital", "name": "\u062c\u0647\u0627\u0632 \u0627\u0644\u0627\u0633\u0639\u0627\u0641", "name:ar": "\u062c\u0647\u0627\u0632 \u0627\u0644\u0627\u0633\u0639\u0627\u0641", "name:en": "An ambulance"}}, {"type": "node", "id": 7633159206, "lat": 37.934533, "lon": 23.6480004, "tags": {"amenity": "hospital", "healthcare": "hospital", "name": "\u039d\u03b1\u03c5\u03c4\u03b9\u03ba\u03cc \u039d\u03bf\u03c3\u03bf\u03ba\u03bf\u03bc\u03b5\u03af\u03bf \u03a0\u03b5\u03b9\u03c1\u03b1\u03b9\u03ac", "wikidata": "Q21626588"}}, {"type": "node", "id": 7710474796, "lat": 38.4312418, "lon": 27.1501019, "tags": {"addr:city": "\u0130zmir", "addr:district": "konak", "addr:housenumber": "no:81", "addr:neighbourhood": "Mimar Sinan Cad. 1420 Sok Alibey Apartman\u0131 no:81 daire:6", "addr:postcode": "35559", "addr:street": "1420. Sokak", "amenity": "hospital", "healthcare": "hospital", "healthcare:speciality": "psychiatry", "name": "Uzman Klinik Psikolog Z\u00fcmr\u00fct \u00c7etin", "operator": "\u0130zmiripm Psikoloji Merkezi", "operator:type": "public"}}, {"type": "node", "id": 7787163750, "lat": 39.7400627, "lon": 22.2760301, "tags": {"addr:city": "\u03a4\u03cd\u03c1\u03bd\u03b1\u03b2\u03bf\u03c2", "addr:housenumber": "35", "addr:postcode": "40100", "addr:street": "\u03a0\u03c1\u03bf\u03ad\u03b4\u03c1\u03bf\u03c5 \u03a7\u03b1\u03c3\u03b9\u03ce\u03c4\u03bf\u03c5", "amenity": "hospital", "healthcare": "hospital", "name": "\u039a\u03ad\u03bd\u03c4\u03c1\u03bf \u03a5\u03b3\u03b5\u03af\u03b1\u03c2 \u03a4\u03c5\u03c1\u03bd\u03ac\u03b2\u03bf\u03c5"}}, {"type": "node", "id": 7791537131, "lat": 37.9858264, "lon": 23.769913, "tags": {"amenity": "hospital", "healthcare": "hospital", "name": "\u039f\u03b3\u03ba\u03bf\u03bb\u03bf\u03b3\u03b9\u03ba\u03ae \u039c\u03bf\u03bd\u03ac\u03b4\u03b1 \u03a0\u03b1\u03af\u03b4\u03c9\u03bd \u00ab\u0395\u039b\u03a0\u0399\u0394\u0391\u00bb"}}, {"type": "node", "id": 7793859185, "lat": 35.3697201, "lon": 24.6936948, "tags": {"amenity": "hospital", "healthcare": "hospital", "name:en": "Health Center Perama"}}, {"type": "node", "id": 7829688285, "lat": 31.3060277, "lon": 20.3993142, "tags": {"amenity": "hospital"}}, {"type": "node", "id": 7836789764, "lat": 35.5348087, "lon": 24.1579461, "tags": {"amenity": "hospital", "healthcare": "hospital", "healthcare:speciality": "family_medicine", "name": "Branch Health Clinic Souda Bay", "phone": "266-1590", "website": "https://www.cnic.navy.mil/regions/cnreurafcent/installations/nsa_souda_bay/about/installation_guide/facilities_and_resources/health_clinic.html"}}, {"type": "node", "id": 7865769885, "lat": 32.113849, "lon": 20.0617888, "tags": {"amenity": "hospital", "healthcare": "hospital", "name": "\u0645\u0633\u062a\u0634\u0641\u0649 7 \u0623\u0643\u062a\u0648\u0628\u0631", "name:ar": "\u0645\u0633\u062a\u0634\u0641\u0649 7 \u0623\u0643\u062a\u0648\u0628\u0631", "operator": "\u0645\u0633\u062a\u0634\u0641\u0649 \u0639\u0627\u0645", "operator:type": "\u062d\u0643\u0648\u0645\u064a"}}, {"type": "node", "id": 7874877229, "lat": 39.6108307, "lon": 22.4298445, "tags": {"addr:city": "\u039b\u03ac\u03c1\u03b9\u03c3\u03b1", "addr:housenumber": "6", "addr:postcode": "41335", "addr:street": "\u0395\u03c0\u03b9\u03c3\u03ba\u03bf\u03c0\u03ae\u03c2", "amenity": "hospital", "email": "skrimpasstergios@gmail.com", "emergency": "yes", "healthcare": "hospital", "healthcare:speciality": "internal", "name": "\u03a0\u03b1\u03b8\u03bf\u03bb\u03bf\u03b3\u03b9\u03ba\u03cc \u03b9\u03b1\u03c4\u03c1\u03b5\u03af\u03bf", "operator": "\u0399\u03b1\u03c4\u03c1\u03cc\u03c2 \u03a3\u03ba\u03c1\u03af\u03bc\u03c0\u03b1\u03c2 \u03a3\u03c4\u03ad\u03c1\u03b3\u03b9\u03bf\u03c2", "operator:type": "private", "phone": "+302410663075"}}, {"type": "node", "id": 8119006758, "lat": 38.0364714, "lon": 23.6938746, "tags": {"addr:city": "\u038a\u03bb\u03b9\u03bf\u03bd", "addr:country": "GR", "addr:housenumber": "92", "addr:postcode": "13123", "addr:street": "\u03a0\u03b5\u03c4\u03c1\u03bf\u03c5\u03c0\u03cc\u03bb\u03b5\u03c9\u03c2", "amenity": "hospital", "description": "\u0394\u03b5\u03c1\u03bc\u03b1\u03c4\u03bf\u03bb\u03bf\u03b3\u03b9\u03ba\u03cc \u0399\u03b1\u03c4\u03c1\u03b5\u03af\u03bf", "email": "info@skintopia.gr", "healthcare": "doctor", "healthcare:speciality": "dermatology", "name": "Skintopia Dermatology Center - \u039a\u03c1\u03b9\u03c4\u03c3\u03c9\u03c4\u03ac\u03ba\u03b7 \u0395\u03bb\u03b5\u03c5\u03b8\u03b5\u03c1\u03af\u03b1", "operator": "\u039a\u03c1\u03b9\u03c4\u03c3\u03c9\u03c4\u03ac\u03ba\u03b7 \u0395\u03bb\u03b5\u03c5\u03b8\u03b5\u03c1\u03af\u03b1", "operator:type": "business", "website": "https://www.skintopia.gr"}}, {"type": "node", "id": 8315708200, "lat": 31.9350242, "lon": 24.9819496, "tags": {"amenity": "hospital", "healthcare": "hospital", "name": "\u0627\u0644\u0645\u0631\u0643\u0632 \u0627\u0644\u0635\u062d\u064a \u0631\u0623\u0633 \u0639\u0632\u0627\u0632", "name:en": "Ras Azaz Health Care"}}, {"type": "node", "id": 8338446373, "lat": 38.6917199, "lon": 22.41795, "tags": {"amenity": "hospital", "healthcare": "hospital", "healthcare:speciality": "general", "name": "\u0391\u03b3\u03c1\u03bf\u03c4\u03b9\u03ba\u03cc \u03b9\u03b1\u03c4\u03c1\u03b5\u03af\u03bf", "operator": "\u0393\u03b5\u03bd. \u039d\u03bf\u03c3. \u0386\u03bc\u03c6\u03b9\u03c3\u03c3\u03b1\u03c2", "operator:type": "government"}}, {"type": "node", "id": 8463667226, "lat": 39.1569074, "lon": 20.9805519, "tags": {"amenity": "hospital", "healthcare": "hospital", "name": "\u039a\u0395\u039d\u03a4\u03a1\u039f \u03a5\u0393\u0395\u0399\u0391\u03a3 \u0391\u03a1\u03a4\u0391\u03a3", "operator": "6\u03b7 \u03a5\u03a0\u0395", "operator:type": "government"}}, {"type": "node", "id": 8506020090, "lat": 39.0919678, "lon": 26.5489342, "tags": {"amenity": "hospital", "healthcare": "hospital", "note": "COVID Vaccination center (closed)"}}, {"type": "node", "id": 8506035119, "lat": 39.2338496, "lon": 26.2101636, "tags": {"amenity": "hospital", "healthcare": "hospital", "name": "COVID Vaccination center"}}, {"type": "node", "id": 8563050517, "lat": 31.6541546, "lon": 20.023517, "tags": {"amenity": "hospital", "name": "\u0645\u0633\u062a\u0634\u0641\u064a \u0627\u0644\u0639\u0644\u0627\u062c \u0627\u0644\u0637\u0628\u064a\u0639\u064a  \u0642\u0645\u064a\u0646\u0633", "name:en": "Physiotherapy Hospital"}}, {"type": "node", "id": 8573033618, "lat": 32.3457526, "lon": 20.3090183, "tags": {"amenity": "hospital", "name": "\u0645\u0633\u062a\u0634\u0641\u064a \u062f\u0631\u064a\u0627\u0646\u0629 \u0627\u0644\u0642\u0631\u0648\u064a", "name:en": "Deriana Village Hospital"}}, {"type": "node", "id": 8577025717, "lat": 31.8771055, "lon": 23.9229756, "tags": {"amenity": "hospital", "name": "\u0645\u0633\u062a\u0634\u0641\u064a \u0639\u0645\u0631 \u0627\u0644\u0645\u062e\u062a\u0627\u0631 \u0627\u0644\u0642\u0631\u0648\u064a", "name:en": "Omar Al Mukhtar Village Hospital"}}, {"type": "node", "id": 8640269417, "lat": 37.7779559, "lon": 29.0567611, "tags": {"addr:housenumber": "102", "addr:postcode": "20010", "addr:street": "29 Ekim Bulvar\u0131", "amenity": "hospital", "name": "Denipol Hastanesi", "name:en": "\u201cDenipol\u201d Hospital", "phone": "+902582636969", "website": "http://denipolhastanesi.com/"}}, {"type": "node", "id": 8679556020, "lat": 31.2370413, "lon": 29.9576749, "tags": {"addr:street": "\u0634\u0627\u0631\u0639 \u0639\u0628\u062f \u0627\u0644\u0633\u0644\u0627\u0645 \u0639\u0627\u0631\u0641", "amenity": "hospital", "name": "\u0627\u0644\u0645\u0633\u062a\u0634\u0641\u0649 \u0627\u0644\u0623\u0644\u0645\u0627\u0646\u064a  \u0645\u0631\u0643\u0632 \u0627\u0644\u0642\u0644\u0628 \u0627\u0644\u0623\u0644\u0645\u0627\u0646\u064a", "name:en": "German Hospital and Cardiac Center", "opening_hours": "24/7", "phone": "2035858808"}}, {"type": "node", "id": 8686266073, "lat": 39.1118624, "lon": 26.5565155, "tags": {"amenity": "hospital", "healthcare": "hospital", "name": "COVID Vaccination center"}}, {"type": "node", "id": 8700189600, "lat": 39.0775073, "lon": 26.1877711, "tags": {"amenity": "hospital", "healthcare": "hospital", "name": "Covid Vaccination center"}}, {"type": "node", "id": 8748003017, "lat": 31.4254151, "lon": 20.0295087, "tags": {"amenity": "hospital", "healthcare": "hospital", "name": "\u0645\u0633\u062a\u0634\u0641\u064a \u0643\u0631\u0643\u0648\u0631\u0629", "name:en": "Karkura  Hospital"}}, {"type": "node", "id": 8806891016, "lat": 38.6670443, "lon": 20.9456535, "tags": {"amenity": "hospital", "healthcare": "hospital", "name": "\u039a\u03ad\u03bd\u03c4\u03c1\u03bf \u03a5\u03b3\u03b5\u03af\u03b1\u03c2 \u039c\u03cd\u03c4\u03b9\u03ba\u03b1"}}, {"type": "node", "id": 8968577939, "lat": 30.8831696, "lon": 29.5737539, "tags": {"addr:city": "\u0645\u062f\u064a\u0646\u0647 \u0628\u0631\u062c \u0627\u0644\u0639\u0631\u0628 \u0627\u0644\u062c\u062f\u064a\u062f\u0647", "amenity": "hospital", "emergency": "yes", "healthcare": "hospital", "healthcare:speciality": "general;internal;covid19;surgery", "name": "\u0645\u0633\u062a\u0634\u0641\u064a \u0628\u0631\u062c \u0627\u0644\u0639\u0631\u0628 \u0627\u0644\u0639\u0627\u0645"}}, {"type": "node", "id": 8986952094, "lat": 39.6282828, "lon": 26.9856043, "tags": {"amenity": "hospital", "name": "Ortaoba K\u00f6y\u00fc Sa\u011fl\u0131k Evi"}}, {"type": "node", "id": 9006511017, "lat": 31.2392452, "lon": 29.96397, "tags": {"amenity": "hospital", "name": "\u0627\u0644\u0645\u0633\u0634\u062a\u0641\u0649 \u0627\u0644\u062a\u062e\u0635\u0635\u064a \u0644\u0627\u0645\u0631\u0627\u0636 \u0627\u0644\u062c\u0647\u0627\u0632 \u0627\u0644\u0647\u0636\u0645\u064a \u0648\u0627\u0644\u0643\u0628\u062f"}}, {"type": "node", "id": 9006726585, "lat": 36.550823, "lon": 26.3528784, "tags": {"amenity": "hospital", "healthcare": "hospital"}}, {"type": "node", "id": 9015771991, "lat": 39.5775418, "lon": 26.6780777, "tags": {"amenity": "hospital", "name": "Edremit Narl\u0131 Sa\u011fl\u0131k Evi"}}, {"type": "node", "id": 9018784156, "lat": 37.033254, "lon": 27.4395875, "tags": {"addr:city": "Mu\u011fla", "addr:district": "Bodrum", "addr:neighbourhood": "Umur\u00e7a", "addr:street": "Dr. M\u00fcmtaz Ataman Caddesi", "amenity": "hospital", "emergency": "no", "healthcare": "hospital", "name": "Bodrum T\u0131p", "operator:type": "public"}}, {"type": "node", "id": 9043833417, "lat": 35.319295, "lon": 25.3869939, "tags": {"amenity": "hospital", "healthcare": "hospital", "internet_access": "wlan", "name:ru": "\u041c\u0435\u0434\u0438\u0446\u0438\u043d\u0441\u043a\u0438\u0439 \u0446\u0435\u043d\u0442\u0440"}}, {"type": "node", "id": 9054473606, "lat": 36.3987, "lon": 25.4506297, "tags": {"amenity": "hospital", "email": "info@santorinimedlifeclinic.gr", "healthcare": "hospital", "name": "Santorini Medlife Clinic", "opening_hours": "Mo-Su 09:00-20:00", "phone": "+30 22860 30403", "website": "https://www.santorinimedlifeclinic.gr/"}}, {"type": "node", "id": 9122784217, "lat": 35.3368398, "lon": 25.1360638, "tags": {"addr:housenumber": "45", "addr:street": "\u03a0\u03bb\u03b1\u03c4\u03b5\u03af\u03b1 \u0395\u03bb\u03b5\u03c5\u03b8\u03b5\u03c1\u03af\u03b1\u03c2", "amenity": "hospital", "email": "heraklion@affidea.com", "healthcare": "hospital", "internet_access": "wlan", "name": "Affidea \u0397\u03c1\u03b1\u03ba\u03bb\u03b5\u03af\u03bf\u03c5 \u039a\u03c1\u03ae\u03c4\u03b7\u03c2", "name:en": "Affidea Medical Center", "opening_hours": "Mo-Fr 07:00-21:00; Sa 07:00-14:00", "phone": "+302810342500", "website": "https://affidea.gr/diagnostiko-kentro/affidea-heraklion/"}}, {"type": "node", "id": 9252409024, "lat": 37.3665258, "lon": 29.5534727, "tags": {"addr:city": "Denizli", "addr:district": "Ac\u0131payam", "addr:housenumber": "15", "addr:neighbourhood": "Yaz\u0131r Mah", "addr:postcode": "20800", "addr:street": "31", "amenity": "hospital", "healthcare": "hospital", "healthcare:speciality": "general", "name": "Yaz\u0131r Aile Sa\u011fl\u0131\u011f\u0131 Merkezi"}}, {"type": "node", "id": 9307129835, "lat": 38.3748538, "lon": 27.1633175, "tags": {"addr:city": "Yenig\u00fcn Mahallesi", "addr:country": "TR", "addr:district": "Buca", "addr:housenumber": "64/A", "addr:street": "Naz\u0131m Hikmet Caddesi", "amenity": "hospital", "emergency": "no", "healthcare": "hospital", "healthcare:speciality": "dentist", "name": "Dent Mega A\u011f\u0131z ve Di\u015f Sa\u011fl\u0131\u011f\u0131 Poliklini\u011fi", "operator": "Dent Mega A\u011f\u0131z ve Di\u015f Sa\u011fl\u0131\u011f\u0131 Poliklini\u011fi", "operator:type": "public", "source": "Buca Di\u015f"}}, {"type": "node", "id": 9349213302, "lat": 31.2018205, "lon": 29.9101858, "tags": {"amenity": "hospital", "healthcare": "hospital", "name": "Alsalama Hospital"}}, {"type": "node", "id": 9365050242, "lat": 39.5578913, "lon": 21.760851, "tags": {"amenity": "hospital", "healthcare": "hospital", "healthcare:speciality": "gynaecology", "name": "\u039c\u03b1\u03b9\u03b5\u03c5\u03c4\u03ae\u03c1\u03b9\u03bf \u03a4\u03c1\u03b9\u03ba\u03ac\u03bb\u03c9\u03bd", "name:en": "Maternity Hospital of Trikala"}}, {"type": "node", "id": 9432992967, "lat": 39.9884417, "lon": 23.613566, "tags": {"addr:city": "\u03a0\u03b5\u03c5\u03ba\u03bf\u03c7\u03ce\u03c1\u03b9 \u039a\u03b1\u03c3\u03c3\u03ac\u03bd\u03b4\u03c1\u03b1\u03c2 \u03a7\u03b1\u03bb\u03ba\u03b9\u03b4\u03b9\u03ba\u03ae\u03c2", "addr:postcode": "63085", "amenity": "hospital", "healthcare": "yes", "healthcare:speciality": "general", "name": "AED POINT"}}, {"type": "node", "id": 9521598796, "lat": 32.1567673, "lon": 23.7496847, "tags": {"amenity": "hospital", "healthcare": "hospital", "name": "\u0627\u0644\u0628\u0644\u0646\u0633\u064a\u0646\u0647 camps de refugies"}}, {"type": "node", "id": 9549274784, "lat": 37.8518859, "lon": 23.7457428, "tags": {"amenity": "hospital", "healthcare": "hospital", "name": "\u03a0\u0399\u039a\u03a0\u0391 \u0392\u03bf\u03cd\u03bb\u03b1\u03c2"}}, {"type": "node", "id": 9592434653, "lat": 32.1100685, "lon": 20.0905298, "tags": {"amenity": "hospital", "healthcare": "hospital"}}, {"type": "node", "id": 9648152027, "lat": 31.2025983, "lon": 29.9059535, "tags": {"amenity": "hospital", "healthcare": "hospital", "name": "Department for Internal Medicine"}}, {"type": "node", "id": 9892221717, "lat": 38.6302696, "lon": 20.6080899, "tags": {"addr:postcode": "310 82", "addr:street": "\u0386\u03b3\u03b9\u03bf\u03c2 \u03a0\u03ad\u03c4\u03c1\u03bf\u03c2 - \u0392\u03b1\u03c3\u03b9\u03bb\u03b9\u03ba\u03ae", "amenity": "hospital", "healthcare": "clinic", "name": "\u039a\u03ad\u03bd\u03c4\u03c1\u03bf \u03a5\u03b3\u03b5\u03af\u03b1\u03c2", "name:en": "Health Center", "opening_hours": "Mo-Su 09:00-14:00", "phone": "+30 2645 360900"}}, {"type": "node", "id": 9964999521, "lat": 37.850559, "lon": 21.7627355, "tags": {"amenity": "hospital", "healthcare": "doctor", "name": "\u0399\u03b1\u03c4\u03c1\u03b5\u03af\u03bf \u0391\u03b3\u03af\u03b1\u03c2 \u039a\u03c5\u03c1\u03b9\u03b1\u03ba\u03ae\u03c2"}}, {"type": "node", "id": 10010093963, "lat": 37.6749731, "lon": 28.3174292, "tags": {"amenity": "hospital", "healthcare": "hospital", "name": "Rasim Mente\u015fe Bozdo\u011fan \u0130l\u00e7e Devlet Hastanesi"}}, {"type": "node", "id": 10010093964, "lat": 37.6751819, "lon": 28.3179269, "tags": {"amenity": "hospital", "healthcare": "hospital", "name": "Bozdo\u011fan \u0130l\u00e7e Sa\u011fl\u0131k M\u00fcd\u00fcrl\u00fc\u011f\u00fc"}}, {"type": "node", "id": 10222968799, "lat": 31.2033913, "lon": 29.9097886, "tags": {"amenity": "hospital", "healthcare": "hospital"}}, {"type": "node", "id": 10311370226, "lat": 38.745602, "lon": 26.8303647, "tags": {"amenity": "hospital", "emergency": "yes", "healthcare": "hospital", "healthcare:speciality": "internal", "name": "Ambulans \u0130stasyonu", "operator": "Fo\u00e7a Ambulans \u0130stasyonu", "operator:type": "government"}}, {"type": "node", "id": 10566930110, "lat": 37.8497511, "lon": 27.8373463, "tags": {"amenity": "hospital", "name": "Fizik"}}, {"type": "node", "id": 10730448247, "lat": 39.3108537, "lon": 26.220184, "tags": {"amenity": "hospital", "healthcare": "hospital", "name": "\u0391\u03b3\u03c1\u03bf\u03c4\u03b9\u03ba\u03cc \u0399\u03b1\u03c4\u03c1\u03b5\u03af\u03bf \u03a3\u03c4\u03cd\u03c8\u03b7\u03c2"}}, {"type": "node", "id": 10745093205, "lat": 38.4498481, "lon": 27.1822648, "tags": {"addr:housenumber": "2", "addr:street": "293/1", "amenity": "hospital", "name": "\u0130zmir Bornova A\u011f\u0131z Ve Di\u015f Sa\u011fl\u0131\u011f\u0131 Merkezi Bayrakl\u0131 Di\u015f Ek Hizmet Binas\u0131", "name:en": "Izmir Bornova Oral and Dental Health Clinics Bayrakl\u0131 Annex", "opening_hours": "Mo-Fr 09:00-16:30", "phone": "444 35 42", "website": "http://www.bornovaagizdis.gov.tr/"}}, {"type": "node", "id": 10816227235, "lat": 38.803162, "lon": 26.9700783, "tags": {"amenity": "hospital", "healthcare": "hospital", "name": "T.C. Sa\u011fl\u0131k Bakanl\u0131\u011f\u0131 Alia\u011fa 1 Nolu Merkez Aile Sa\u011fl\u0131\u011f\u0131 Merkezi"}}, {"type": "node", "id": 10847002905, "lat": 39.1181943, "lon": 27.1752312, "tags": {"addr:postcode": "35725", "addr:street": "23. Sokak", "amenity": "hospital", "name": "Medig\u00fcn", "name:en": "Bergama Medig\u00fcn Medical Center", "name:tr": "Bergama Medig\u00fcn T\u0131p Merkezi", "phone": "08502601222"}}, {"type": "node", "id": 10914275739, "lat": 38.4349213, "lon": 27.1923771, "tags": {"addr:city": "Gazi Osman Pa\u015fa Mahallesi", "addr:district": "bornova", "addr:housenumber": "23/3", "addr:neighbourhood": "Gaziosmanpa\u015fa Mah, 5454. Sk. 23/3, 35090 Bornova/\u0130zmir", "addr:postcode": "35090", "addr:street": "5454. Sokak", "amenity": "hospital", "emergency": "yes", "healthcare": "hospital", "healthcare:speciality": "physiotherapy;orthopaedics;neurology;biology;physiatry;dermatology;cardiology;radiology;urology;internal;gynaecology;ophthalmology;psychiatry;paediatrics;diabetology;otolaryngology;podiatry;body;humanistic;blood_check;allergology;dermatovenereology", "image": "https://yediguntipcamdibi.com/2022/09/06/camdibi-tip-merkezi/", "name": "Yedig\u00fcn T\u0131p Merkezi \u00c7amdibi \u015eubesi", "operator": "Yedig\u00fcn T\u0131p Merkezi", "operator:type": "medical_center", "source": "https://yediguntipcamdibi.com/contact-us/", "website": "https://yediguntipcamdibi.com/category/guncel/"}}, {"type": "node", "id": 10921180605, "lat": 32.0198589, "lon": 20.0610564, "tags": {"addr:street": "\u0627\u0644\u0642\u0648\u0627\u0631\u0634\u0629", "amenity": "hospital", "healthcare": "hospital", "internet_access": "wlan", "name": "\u0645\u0635\u062d\u0629 \u0627\u0644\u0627\u0645\u0644 \u0644\u0644\u0637\u0628 \u0627\u0644\u0646\u0641\u0633\u064a", "name:en": "Alamal", "phone": "00 218 92 532 2955"}}, {"type": "node", "id": 10921180606, "lat": 32.0178212, "lon": 20.0603697, "tags": {"amenity": "hospital", "healthcare": "hospital", "internet_access": "wlan", "name": "\u0645\u0635\u062d\u0629 \u0627\u0644\u0627\u0645\u0644", "phone": "00 218 92 532 2955"}}, {"type": "node", "id": 11032840186, "lat": 38.4723339, "lon": 27.084632, "tags": {"amenity": "hospital", "name": "Kar\u015f\u0131yaka G\u00f6z Hastanesi"}}, {"type": "node", "id": 11174528927, "lat": 38.3854215, "lon": 27.1242946, "tags": {"amenity": "hospital", "name": "Karaba\u011flar 5 nolu Mehmet Akif Aile Sa\u011fl\u0131\u011f\u0131 Merkezi", "operator": "T.C. Sa\u011fl\u0131k Bakanl\u0131\u011f\u0131"}}, {"type": "node", "id": 11244320366, "lat": 39.0981526, "lon": 26.5483317, "tags": {"amenity": "hospital", "healthcare": "hospital", "name": "\u0395\u039a\u0391\u0392"}}, {"type": "node", "id": 11282071342, "lat": 38.9183875, "lon": 27.8084863, "tags": {"amenity": "hospital", "healthcare": "hospital", "name": "Akhisar M.Kirazo\u011flu Devlet Hastahanesi Eski Bina"}}, {"type": "node", "id": 11282071343, "lat": 38.9176826, "lon": 27.8080393, "tags": {"amenity": "hospital", "healthcare": "hospital", "name": "ATSO Akhisar A\u011f\u0131z ve Di\u015f Sa\u011fl\u0131\u011f\u0131 Merkezi"}}, {"type": "node", "id": 11283666962, "lat": 38.9126193, "lon": 27.8264963, "tags": {"amenity": "hospital", "emergency": "yes", "healthcare": "hospital", "name": "\u00d6zel Akhisar Do\u011fu\u015f Hastanesi"}}, {"type": "way", "id": 23180353, "center": {"lat": 37.9426134, "lon": 23.6974335}, "nodes": [250661561, 7401622820, 7401622825, 7401622822, 7401622824, 250661567, 7401622823, 7401622821, 7401622826, 7401622828, 7401622827, 7401622831, 7401622830, 250661586, 7401622829, 250661560, 250661561], "tags": {"addr:city": "\u039a\u03b1\u03bb\u03bb\u03b9\u03b8\u03ad\u03b1", "addr:street": "\u0391\u03bd\u03b4\u03c1\u03ad\u03b1 \u03a3\u03c5\u03b3\u03b3\u03c1\u03bf\u03cd", "amenity": "hospital", "healthcare": "hospital", "int_name": "Onassis Cardiac Surgery Center", "name": "\u03a9\u03bd\u03ac\u03c3\u03b5\u03b9\u03bf \u039a\u03b1\u03c1\u03b4\u03b9\u03bf\u03c7\u03b5\u03b9\u03c1\u03bf\u03c5\u03c1\u03b3\u03b9\u03ba\u03cc \u039a\u03ad\u03bd\u03c4\u03c1\u03bf", "name:el": "\u03a9\u03bd\u03ac\u03c3\u03b5\u03b9\u03bf \u039a\u03b1\u03c1\u03b4\u03b9\u03bf\u03c7\u03b5\u03b9\u03c1\u03bf\u03c5\u03c1\u03b3\u03b9\u03ba\u03cc \u039a\u03ad\u03bd\u03c4\u03c1\u03bf", "name:en": "Onassis Cardiac Surgery Center", "toilets:wheelchair": "yes", "wheelchair": "yes", "wikidata": "Q28821562"}}, {"type": "way", "id": 28826260, "center": {"lat": 31.2091737, "lon": 29.9113405}, "nodes": [316917028, 7192527373, 6082003509, 587757900, 6082003510, 316926668, 7192527372, 7192527371, 7192527370, 7192527369, 316926669, 316917031, 6082126191, 316917028], "tags": {"amenity": "hospital", "name": "\u0645\u0633\u062a\u0634\u0641\u0649 \u0627\u0644\u0634\u0627\u0637\u0628\u064a \u0627\u0644\u062c\u0627\u0645\u0639\u064a", "name:ar": "\u0645\u0633\u062a\u0634\u0641\u0649 \u0627\u0644\u0634\u0627\u0637\u0628\u064a \u0627\u0644\u062c\u0627\u0645\u0639\u064a", "name:en": "Al-Shatby Hospital"}}, {"type": "way", "id": 31658943, "center": {"lat": 39.6119489, "lon": 22.3865784}, "nodes": [4440406586, 8626182242, 8626182241, 4440406588, 4440407289, 354281238, 1660186578, 4440406582, 1660186584, 4440406583, 8626182249, 4440406581, 354281239, 8626194125, 354281241, 4440426438, 4440426437, 5228617115, 8626194127, 8626194126, 5228617118, 8626194111, 5598481570, 5228617117, 5579318144, 5228617114, 5228617120, 354281243, 5694482206, 354281244, 354281233, 8626194211, 4440407293, 4440407294, 354281234, 8626194391, 4929269830, 4929269829, 8626194390, 4440406586], "tags": {"amenity": "hospital", "barrier": "fence", "emergency": "yes", "fence_type": "metal", "healthcare": "hospital", "height": "3", "name": "\u03a0\u03b1\u03bd\u03b5\u03c0\u03b9\u03c3\u03c4\u03b7\u03bc\u03b9\u03b1\u03ba\u03cc \u0393\u03b5\u03bd\u03b9\u03ba\u03cc \u039d\u03bf\u03c3\u03bf\u03ba\u03bf\u03bc\u03b5\u03af\u03bf \u039b\u03ac\u03c1\u03b9\u03c3\u03b1\u03c2", "name:el": "\u03a0\u03b1\u03bd\u03b5\u03c0\u03b9\u03c3\u03c4\u03b7\u03bc\u03b9\u03b1\u03ba\u03cc \u0393\u03b5\u03bd\u03b9\u03ba\u03cc \u039d\u03bf\u03c3\u03bf\u03ba\u03bf\u03bc\u03b5\u03af\u03bf \u039b\u03ac\u03c1\u03b9\u03c3\u03b1\u03c2", "name:en": "General University Hospital of Larissa", "url": "http://www.uhl.gr/"}}, {"type": "way", "id": 32297119, "center": {"lat": 37.9794725, "lon": 23.7513507}, "nodes": [363404628, 363404629, 363404630, 363404631, 1458966507, 363404634, 363404635, 1459106690, 1459106689, 363404642, 11259457363, 363404643, 363404644, 363404645, 363404646, 363404628], "tags": {"addr:city": "\u0391\u03b8\u03ae\u03bd\u03b1", "addr:country": "GR", "addr:housenumber": "10-12", "addr:postcode": "11521", "addr:street": "\u039c\u03bf\u03bd\u03ae\u03c2 \u03a0\u03b5\u03c4\u03c1\u03ac\u03ba\u03b7", "alt_name": "\u039d\u0399\u039c\u03a4\u03a3", "amenity": "hospital", "contact:phone": "+30 210 7288001", "contact:website": "http://www.nimts.gr/", "healthcare": "hospital", "name": "\u039d\u0399\u039c\u03a4\u03a3 - \u039d\u03bf\u03c3\u03b7\u03bb\u03b5\u03c5\u03c4\u03b9\u03ba\u03cc \u038a\u03b4\u03c1\u03c5\u03bc\u03b1 \u039c\u03b5\u03c4\u03bf\u03c7\u03b9\u03ba\u03bf\u03cd \u03a4\u03b1\u03bc\u03b5\u03af\u03bf\u03c5 \u03a3\u03c4\u03c1\u03b1\u03c4\u03bf\u03cd 417", "name:el": "\u039d\u0399\u039c\u03a4\u03a3 - \u039d\u03bf\u03c3\u03b7\u03bb\u03b5\u03c5\u03c4\u03b9\u03ba\u03cc \u038a\u03b4\u03c1\u03c5\u03bc\u03b1 \u039c\u03b5\u03c4\u03bf\u03c7\u03b9\u03ba\u03bf\u03cd \u03a4\u03b1\u03bc\u03b5\u03af\u03bf\u03c5 \u03a3\u03c4\u03c1\u03b1\u03c4\u03bf\u03cd 417", "name:en": "NIMTS - 417 Army Equity Fund Hospital", "short_name": "\u039d.\u0399.\u039c.\u03a4.\u03a3.", "toilets:wheelchair": "yes", "wheelchair": "yes", "wikidata": "Q21626589"}}, {"type": "way", "id": 32304991, "center": {"lat": 38.2949866, "lon": 21.794835}, "nodes": [1651075136, 363631212, 363631214, 363631216, 363631218, 363631220, 1758869289, 7643829260, 1758869284, 1758869336, 7089936952, 363631228, 1659076203, 7089927601, 1758865082, 1758865032, 363631235, 363631238, 363631242, 363631245, 363631247, 1758865035, 7089927605, 4223643982, 7089927604, 4223643983, 4223643984, 1651075123, 1651075107, 1651075074, 1651075136], "tags": {"amenity": "hospital", "emergency": "yes", "healthcare": "hospital", "healthcare:speciality": "general;emergency;dermatology;cardiology;orthopaedics;surgery;oncology", "name": "\u03a0\u03b1\u03bd\u03b5\u03c0\u03b9\u03c3\u03c4\u03b7\u03bc\u03b9\u03b1\u03ba\u03cc \u0393\u03b5\u03bd\u03b9\u03ba\u03cc \u039d\u03bf\u03c3\u03bf\u03ba\u03bf\u03bc\u03b5\u03af\u03bf \u03a0\u03b1\u03c4\u03c1\u03ce\u03bd \"\u03a0\u03b1\u03bd\u03b1\u03b3\u03af\u03b1 \u03b7 \u0392\u03bf\u03ae\u03b8\u03b5\u03b9\u03b1\"", "name:el": "\u03a0\u03b1\u03bd\u03b5\u03c0\u03b9\u03c3\u03c4\u03b7\u03bc\u03b9\u03b1\u03ba\u03cc \u0393\u03b5\u03bd\u03b9\u03ba\u03cc \u039d\u03bf\u03c3\u03bf\u03ba\u03bf\u03bc\u03b5\u03af\u03bf \u03a0\u03b1\u03c4\u03c1\u03ce\u03bd \"\u03a0\u03b1\u03bd\u03b1\u03b3\u03af\u03b1 \u03b7 \u0392\u03bf\u03ae\u03b8\u03b5\u03b9\u03b1\"", "name:en": "Patras General University Hospital", "phone": "+302613 603000", "wikidata": "Q1524794"}}, {"type": "way", "id": 32378857, "center": {"lat": 38.2375587, "lon": 21.7563353}, "nodes": [364342942, 7924488382, 9281764658, 364342946, 5015269449, 5015269445, 5015269448, 5015269447, 5015269446, 364342948, 7159610113, 364342942], "tags": {"amenity": "hospital", "healthcare": "hospital", "name": "409 \u0393.\u03a3. \u039d\u03bf\u03c3\u03bf\u03ba\u03bf\u03bc\u03b5\u03af\u03bf"}}, {"type": "way", "id": 32520056, "center": {"lat": 38.0151016, "lon": 23.6411861}, "nodes": [365685303, 4641466669, 365683829, 365685305, 7119822796, 7119822794, 365685307, 365685308, 7119822787, 7119822786, 365685310, 7119822785, 7119819284, 566433000, 365685313, 365685314, 365684327, 365685317, 9229542353, 365685318, 9229542429, 9229542428, 9229542426, 9229542430, 365685320, 365684328, 7119819282, 2225424409, 365685322, 365685323, 7119819281, 365681431, 365685325, 7119822802, 7119822804, 7119822803, 365685326, 365685327, 365685330, 365685331, 365685303], "tags": {"addr:city": "\u03a7\u03b1\u03ca\u03b4\u03ac\u03c1\u03b9", "addr:housenumber": "374", "addr:street": "\u039b\u03b5\u03c9\u03c6\u03cc\u03c1\u03bf\u03c2 \u0391\u03b8\u03b7\u03bd\u03ce\u03bd", "amenity": "hospital", "emergency": "no", "healthcare": "hospital", "name": "\u03a8\u03c5\u03c7\u03b9\u03b1\u03c4\u03c1\u03b9\u03ba\u03cc \u039d\u03bf\u03c3\u03bf\u03ba\u03bf\u03bc\u03b5\u03af\u03bf \u0391\u03c4\u03c4\u03b9\u03ba\u03ae\u03c2 \u00ab\u0394\u03c1\u03bf\u03bc\u03bf\u03ba\u03b1\u0390\u03c4\u03b5\u03b9\u03bf\u00bb"}}, {"type": "way", "id": 32734987, "center": {"lat": 38.2373685, "lon": 21.7608796}, "nodes": [368339218, 9287146045, 9287146039, 9287146041, 368339220, 368339221, 368339222, 368339223, 368339224, 4883395139, 368339225, 7159610138, 7159610136, 368339218], "tags": {"amenity": "hospital", "healthcare": "hospital", "name": "\u039a\u03b1\u03c1\u03b1\u03bc\u03b1\u03bd\u03b4\u03ac\u03bd\u03b5\u03b9\u03bf \u039d\u03bf\u03c3\u03bf\u03ba\u03bf\u03bc\u03b5\u03af\u03bf \u03c0\u03b1\u03af\u03b4\u03c9\u03bd"}}, {"type": "way", "id": 32735004, "center": {"lat": 38.2347473, "lon": 21.766973}, "nodes": [368339516, 368339517, 368339518, 368339519, 368339521, 368339522, 368339523, 368339524, 368339516], "tags": {"amenity": "hospital", "healthcare": "hospital", "name": "\u039d\u03bf\u03c3\u03b7\u03bc\u03ac\u03c4\u03c9\u03bd \u0398\u03ce\u03c1\u03b1\u03ba\u03bf\u03c2", "operator": "\u0395\u03a3\u03a5", "operator:type": "government", "phone": "+302613600300"}}, {"type": "way", "id": 33650893, "center": {"lat": 37.9720132, "lon": 23.6628353}, "nodes": [384954935, 384954936, 384954937, 988989357, 988989341, 988989465, 384954938, 384954939, 384954940, 384954935], "tags": {"amenity": "hospital", "contact:phone": "+30 2132077000", "contact:website": "www.nikaia-hosp.gr", "emergency": "yes", "healthcare": "hospital", "name": "\u0393\u03b5\u03bd\u03b9\u03ba\u03cc \u039d\u03bf\u03c3\u03bf\u03ba\u03bf\u03bc\u03b5\u03af\u03bf \u039d\u03af\u03ba\u03b1\u03b9\u03b1\u03c2 \"\u0391\u03b3. \u03a0\u03b1\u03bd\u03c4\u03b5\u03bb\u03b5\u03ae\u03bc\u03c9\u03bd\"", "wikidata": "Q21626575"}}, {"type": "way", "id": 37190471, "center": {"lat": 38.4554655, "lon": 27.2110809}, "nodes": [432813043, 1664552792, 432813045, 6977905863, 6977905865, 1663378394, 6912414256, 6912414255, 6912414254, 1664591751, 1664591750, 6912414273, 6823495967, 6823495966, 6912414274, 6823495965, 1664552361, 6823495964, 432813050, 1662862620, 1662862622, 1664552729, 1664552751, 1662862630, 1555751581, 432813051, 432813052, 659680688, 659672381, 6830060876, 6977905866, 6977905867, 432813053, 6977905868, 6977905869, 6977905870, 432813054, 6977905871, 3632471043, 3632471046, 3632471045, 3632471047, 3632471044, 432813055, 6977905860, 432813056, 6977905861, 659677525, 432813057, 659677526, 432813043], "tags": {"alt_name": "Ege \u00dcniversitesi T\u0131p Fak\u00fcltesi Hastanesi", "amenity": "hospital", "emergency": "yes", "healthcare": "hospital", "name": "Ege \u00dcniversitesi Hastanesi", "website": "http://hastane.ege.edu.tr/", "wheelchair": "limited", "wikidata": "Q30254026", "wikimedia_commons": "Category:Ege University Hospital"}}, {"type": "way", "id": 37372193, "center": {"lat": 38.4247169, "lon": 27.1637963}, "nodes": [436186665, 436186666, 5132908022, 5132908023, 436186667, 436186668, 9497623498, 9497623499, 436186669, 9497623500, 9497623501, 436186670, 9497623502, 436186671, 436186672, 436186665], "tags": {"amenity": "hospital", "healthcare": "hospital", "name": "Dr. Suat Seren G\u00f6\u011f\u00fcs Hastal\u0131klar\u0131 Hastanesi", "wikidata": "Q30287052"}}, {"type": "way", "id": 37372194, "center": {"lat": 38.4242554, "lon": 27.1606221}, "nodes": [1980996010, 1980996024, 436186674, 8112683890, 2084965038, 436186675, 436186676, 1980996009, 1980996010], "tags": {"amenity": "hospital", "emergency": "yes", "healthcare": "hospital", "name": "E\u015frefpa\u015fa Hastanesi", "operator": "\u0130zmir B\u00fcy\u00fck\u015fehir Belediyesi", "wikidata": "Q5994572", "wikipedia": "tr:E\u015frefpa\u015fa Hastanesi"}}, {"type": "way", "id": 37930091, "center": {"lat": 38.4608814, "lon": 27.1669755}, "nodes": [445329070, 445329072, 445329889, 445329076, 445329070], "tags": {"amenity": "hospital", "building": "hospital", "emergency": "yes", "healthcare": "hospital", "name": "Central Hospital"}}, {"type": "way", "id": 76618304, "center": {"lat": 39.6425178, "lon": 22.4216358},