{"version": 0.6, "generator": "Overpass API 0.7.61.5 4133829e", "osm3s": {"timestamp_osm_base": "2023-10-31T21:00:55Z", "copyright": "The data included in this document is from www.openstreetmap.org. The data is made available under ODbL."}, "elements": [{"type": "node", "id": 292947133, "lat": 42.023135, "lon": 140.8336284, "tags": {"amenity": "hospital", "name": "\u6e21\u5cf6\u30ea\u30cf\u30d3\u30ea\u30c6\u30fc\u30b7\u30e7\u30f3\u30bb\u30f3\u30bf\u30fc", "name:en": "Oshima rehabilitation center", "name:eo": "O\u015dimao kuracgimnastiko", "name:ja-Latn": "Oshima rihabirit\u0113syon sent\u0101"}}, {"type": "node", "id": 292948715, "lat": 42.0308048, "lon": 140.8227322, "tags": {"amenity": "hospital", "name": "\u3057\u304b\u3079\u5185\u79d1\u8a3a\u7642\u6240", "name:en": "Shikabe internal medicine clinic", "name:eo": "\u015cikabo interna kuracila kliniko", "name:ja-Latn": "Shikabe naika kurinikku"}}, {"type": "node", "id": 442881837, "lat": 43.079931, "lon": 141.3900292, "tags": {"addr:block_number": "8", "addr:city": "\u672d\u5e4c\u5e02", "addr:housenumber": "20", "addr:neighbourhood": "4\u4e01\u76ee", "addr:postcode": "065-0042", "addr:province": "\u5317\u6d77\u9053", "addr:quarter": "\u672c\u753a2\u6761", "addr:suburb": "\u6771\u533a", "amenity": "hospital", "healthcare": "hospital", "name": "\u30af\u30e9\u30fc\u30af\u75c5\u9662", "name:en": "clark hospital", "name:ja": "\u30af\u30e9\u30fc\u30af\u75c5\u9662", "name:ja_rm": "Kur\u0101ku By\u014din", "operator": "\u4e09\u8349\u4f1a (\u793e\u4f1a\u533b\u7642\u6cd5\u4eba\u793e\u56e3)", "website": "http://www.sansoukai.or.jp/"}}, {"type": "node", "id": 474597217, "lat": 41.792466, "lon": 140.7556116, "tags": {"addr:block_number": "38", "addr:city": "\u51fd\u9928\u5e02", "addr:housenumber": "3", "addr:postcode": "040-8611", "addr:quarter": "\u4e94\u7a1c\u90ed\u753a", "amenity": "hospital", "healthcare": "hospital", "name": "\u51fd\u9928\u4e94\u7a1c\u90ed\u75c5\u9662", "name:en": "Hakodate Goryokaku Hospital", "name:ko": "\ud558\ucf54\ub2e4\ud14c \uace0\ub8cc \uce74\ucfe0 \ubcd1\uc6d0", "note": "\u793e\u4f1a\u798f\u7949\u6cd5\u4eba\u51fd\u9928\u539a\u751f\u9662", "phone": "0138-51-2295", "toilets": "yes", "toilets:ostomate": "?", "toilets:wheelchair": "yes", "website": "http://www.gobyou.com/", "wheelchair": "yes"}}, {"type": "node", "id": 505044247, "lat": 41.9170051, "lon": 140.9576308, "tags": {"amenity": "hospital"}}, {"type": "node", "id": 505082097, "lat": 41.8360662, "lon": 140.7429631, "tags": {"amenity": "hospital"}}, {"type": "node", "id": 692172639, "lat": 43.5455802, "lon": 141.8764941, "tags": {"amenity": "hospital"}}, {"type": "node", "id": 775446579, "lat": 43.1227051, "lon": 141.3654488, "tags": {"addr:block_number": "8", "addr:city": "\u672d\u5e4c\u5e02", "addr:housenumber": "1", "addr:neighbourhood": "\u531749\u6761\u677116\u4e01\u76ee", "addr:postcode": "007-0849", "addr:province": "\u5317\u6d77\u9053", "addr:suburb": "\u6771\u533a", "amenity": "hospital", "healthcare": "hospital", "name": "\u672d\u5e4c\u5fc3\u81d3\u8840\u7ba1\u30af\u30ea\u30cb\u30c3\u30af", "name:en": "Sapporo Cardio Vascular Clinic", "name:ja": "\u672d\u5e4c\u5fc3\u81d3\u8840\u7ba1\u30af\u30ea\u30cb\u30c3\u30af", "name:ja_rm": "Sapporo Shinz\u014d Kekkan Kurinikku", "operator": "\u672d\u5e4c\u30cf\u30fc\u30c8\u30bb\u30f3\u30bf\u30fc (\u533b\u7642\u6cd5\u4eba)", "website": "http://scvc.jp/higashiku/"}}, {"type": "node", "id": 792594676, "lat": 42.4110647, "lon": 141.1083474, "tags": {"amenity": "hospital", "name": "\u5e4c\u5225\u8a18\u5ff5\u75c5\u9662"}}, {"type": "node", "id": 1200232906, "lat": 43.0558424, "lon": 141.3344281, "tags": {"addr:city": "\u672d\u5e4c\u5e02", "addr:neighbourhood": "\u53571\u6761\u897f15\u4e01\u76ee", "addr:postcode": "060-0061", "addr:province": "\u5317\u6d77\u9053", "addr:suburb": "\u4e2d\u592e\u533a", "amenity": "hospital", "emergency": "yes", "healthcare": "hospital", "healthcare:speciality": "cardiology;emergency;gastroenterology;gynaecology;haematology;infectious_diseases;oncology;ophthalmology;otolaryngology;paediatrics;physiatry;pulmonology;rheumatology;surgery;vascular_surgery", "name": "NTT\u6771\u65e5\u672c\u672d\u5e4c\u75c5\u9662", "name:ja": "NTT\u6771\u65e5\u672c\u672d\u5e4c\u75c5\u9662", "operator": "\u6771\u65e5\u672c\u96fb\u4fe1\u96fb\u8a71", "operator:wikidata": "Q11527212", "website": "https://nmcs.ntt-east.co.jp/", "wheelchair": "yes", "wikidata": "Q11236157"}}, {"type": "node", "id": 1200233095, "lat": 43.0273988, "lon": 141.3379402, "tags": {"addr:block_number": "1", "addr:city": "\u672d\u5e4c\u5e02", "addr:housenumber": "30", "addr:neighbourhood": "\u535723\u6761\u897f15\u4e01\u76ee", "addr:postcode": "064-0923", "addr:suburb": "\u4e2d\u592e\u533a", "amenity": "hospital", "name": "\u672d\u5e4c\u5916\u79d1\u8a18\u5ff5\u75c5\u9662", "name:ja": "\u672d\u5e4c\u5916\u79d1\u8a18\u5ff5\u75c5\u9662", "operator": "\u672d\u5e4c\u5916\u79d1\u8a18\u5ff5\u75c5\u9662 (\u533b\u7642\u6cd5\u4eba\u793e\u56e3)", "website": "http://gekakinen.byoinnavi.jp/pc/"}}, {"type": "node", "id": 1200233236, "lat": 43.0449707, "lon": 141.3474346, "tags": {"addr:block_number": "2", "addr:city": "\u672d\u5e4c\u5e02", "addr:housenumber": "25", "addr:neighbourhood": "\u535711\u6761\u897f8\u4e01\u76ee", "addr:postcode": "064-0811", "addr:suburb": "\u4e2d\u592e\u533a", "amenity": "hospital", "name": "\u5ddd\u897f\u5185\u79d1\u80c3\u8178\u79d1\u75c5\u9662", "name:ja": "\u5ddd\u897f\u5185\u79d1\u80c3\u8178\u79d1\u75c5\u9662", "operator": "\u9280\u674f\u4f1a (\u533b\u7642\u6cd5\u4eba\u793e\u56e3)", "website": "http://kawanishihp.or.jp/"}}, {"type": "node", "id": 1200233300, "lat": 43.0566949, "lon": 141.3377528, "tags": {"addr:city": "\u672d\u5e4c\u5e02", "addr:neighbourhood": "\u53571\u6761\u897f13\u4e01\u76ee", "addr:postcode": "060-0061", "addr:province": "\u5317\u6d77\u9053", "addr:suburb": "\u4e2d\u592e\u533a", "amenity": "hospital", "emergency": "no", "healthcare": "hospital", "name": "\u672d\u5e4c\u5357\u4e00\u6761\u75c5\u9662", "name:en": "Sapporo Minamiichijo Hospital", "name:ja": "\u672d\u5e4c\u5357\u4e00\u6761\u75c5\u9662", "operator": "\u5317\u6d77\u9053\u6075\u611b\u4f1a (\u533b\u7642\u6cd5\u4eba\u793e\u56e3)", "operator:type": "private", "website": "http://www.h-keiaikai.or.jp/minamiichijo/"}}, {"type": "node", "id": 1200233318, "lat": 43.0236714, "lon": 141.342567, "tags": {"addr:block_number": "1", "addr:city": "\u672d\u5e4c\u5e02", "addr:housenumber": "30", "addr:neighbourhood": "\u535727\u6761\u897f13\u4e01\u76ee", "addr:postcode": "064-8622", "addr:suburb": "\u4e2d\u592e\u533a", "amenity": "hospital", "healthcare": "hospital", "name": "\u5317\u6d77\u9053\u5faa\u74b0\u5668\u75c5\u9662", "name:en": "Hokkaido Cardiovascular Hospital", "name:ja": "\u5317\u6d77\u9053\u5faa\u74b0\u5668\u75c5\u9662", "operator": "\u5317\u6d77\u9053\u5faa\u74b0\u5668\u75c5\u9662 (\u793e\u4f1a\u533b\u7642\u6cd5\u4eba)", "website": "https://www.hokujun.or.jp/"}}, {"type": "node", "id": 1200237154, "lat": 43.1008665, "lon": 141.5354387, "tags": {"amenity": "hospital", "emergency": "yes", "healthcare": "hospital", "name": "\u85e4\u82b1\u4f1a \u6c5f\u5225\u8c37\u85e4\u75c5\u9662", "website": "http://www.tokakai.jp/ebetu/"}}, {"type": "node", "id": 1439876567, "lat": 46.7207014, "lon": 142.5142525, "tags": {"amenity": "hospital", "name": "\u0410\u043d\u0438\u0432\u0441\u043a\u0430\u044f \u0426\u0420\u0411"}}, {"type": "node", "id": 1445471357, "lat": 46.7207401, "lon": 142.5143121, "tags": {"amenity": "hospital", "emergency": "yes", "name": "\u0421\u0442\u0430\u043d\u0446\u0438\u044f \u0441\u043a\u043e\u0440\u043e\u0439 \u043c\u0435\u0434\u0438\u0446\u0438\u043d\u0441\u043a\u043e\u0439 \u043f\u043e\u043c\u043e\u0449\u0438"}}, {"type": "node", "id": 1675493589, "lat": 43.7650782, "lon": 142.3601446, "tags": {"amenity": "hospital", "emergency": "yes", "name": "\u5c71\u7530\u6b6f\u79d1\u533b\u9662"}}, {"type": "node", "id": 1732835479, "lat": 42.920019, "lon": 143.203602, "tags": {"amenity": "hospital", "healthcare": "hospital", "name": "\u5341\u52dd\u80c3\u8178\u30af\u30ea\u30cb\u30c3\u30af"}}, {"type": "node", "id": 1772705584, "lat": 42.9986918, "lon": 141.3386284, "tags": {"addr:block_number": "2", "addr:city": "\u672d\u5e4c\u5e02", "addr:housenumber": "55", "addr:neighbourhood": "1\u4e01\u76ee", "addr:postcode": "005-0802", "addr:quarter": "\u5ddd\u6cbf2\u6761", "addr:suburb": "\u5357\u533a", "amenity": "hospital", "healthcare": "hospital", "name": "\u4e94\u8f2a\u6a4b\u7523\u79d1\u5a66\u4eba\u79d1\u5c0f\u5150\u79d1\u75c5\u9662", "name:ja": "\u4e94\u8f2a\u6a4b\u7523\u79d1\u5a66\u4eba\u79d1\u5c0f\u5150\u79d1\u75c5\u9662", "note": "2016/9/1\u79fb\u8ee2\u4e88\u5b9a", "operator": "\u5b5d\u4ec1\u4f1a (\u533b\u7642\u6cd5\u4eba)", "source": "NRPB of MLIT Japan.", "source:ja": "\u56fd\u571f\u6570\u5024\u60c5\u5831\u516c\u5171\u65bd\u8a2d\u30c7\u30fc\u30bf\u5e73\u621018\u5e74\u3000\u56fd\u571f\u4ea4\u901a\u7701", "source_ref": "http://nlftp.mlit.go.jp/ksj/jpgis/datalist/KsjTmplt-P02-v2_0.html", "website": "http://www.gorinbashi.com/"}}, {"type": "node", "id": 1827182302, "lat": 43.1085621, "lon": 141.5120227, "tags": {"amenity": "hospital", "healthcare": "hospital", "name": "\u53cb\u611b\u8a18\u5ff5\u75c5\u9662", "name:ja": "\u53cb\u611b\u8a18\u5ff5\u75c5\u9662", "operator": "\u533b\u7642\u6cd5\u4eba\u53cb\u611b\u4f1a", "website": "https://yuaikinen.or.jp/"}}, {"type": "node", "id": 1883513404, "lat": 43.2467107, "lon": 141.8698406, "tags": {"amenity": "hospital", "name": "\u5e02\u7acb\u4e09\u7b20\u7dcf\u5408\u75c5\u9662", "wikidata": "Q65266190", "wikipedia": "ja:\u5e02\u7acb\u4e09\u7b20\u7dcf\u5408\u75c5\u9662"}}, {"type": "node", "id": 1924540375, "lat": 41.4274036, "lon": 140.096358, "tags": {"addr:block_number": "174", "addr:city": "\u677e\u524d\u753a", "addr:county": "\u677e\u524d\u90e1", "addr:housenumber": "1", "addr:postcode": "049-1503", "addr:province": "\u5317\u6d77\u9053", "addr:quarter": "\u5927\u78ef", "amenity": "hospital", "emergency": "yes", "name": "\u677e\u524d\u753a\u7acb\u677e\u524d\u75c5\u9662", "name:en": "MATSUMAE town hospital", "website": "http://matsumae-hospital.com", "wheelchair": "yes"}}, {"type": "node", "id": 1925287353, "lat": 41.4360809, "lon": 140.113307, "tags": {"amenity": "hospital", "name": "\u7530\u53e3\u6b6f\u79d1\u533b\u9662"}}, {"type": "node", "id": 2026427461, "lat": 43.0711065, "lon": 141.3344855, "tags": {"addr:block_number": "1", "addr:city": "\u672d\u5e4c\u5e02", "addr:housenumber": "1", "addr:neighbourhood": "\u531711\u6761\u897f13\u4e01\u76ee", "addr:postcode": "060-0011", "addr:province": "\u5317\u6d77\u9053", "addr:suburb": "\u4e2d\u592e\u533a", "amenity": "hospital", "emergency": "yes", "healthcare": "hospital", "name": "\u5e02\u7acb\u672d\u5e4c\u75c5\u9662", "name:en": "Sapporo City General Hospital", "name:ja": "\u5e02\u7acb\u672d\u5e4c\u75c5\u9662", "name:ja_rm": "Shiritsu Sapporo By\u014din", "operator": "\u672d\u5e4c\u5e02", "operator:type": "government", "website": "https://www.city.sapporo.jp/hospital/", "wheelchair": "yes", "wheelchair:description": "\u5165\u308a\u53e3\u81ea\u52d5\u30c9\u30a2 \u30a8\u30ec\u30d9\u30fc\u30bf\u30fc\u3042\u308a \u969c\u5bb3\u8005\u7528\u30c8\u30a4\u30ec\u3042\u308a \u6bb5\u5dee\u7121\u3057", "wikidata": "Q18338684", "wikipedia": "ja:\u5e02\u7acb\u672d\u5e4c\u75c5\u9662"}}, {"type": "node", "id": 2034744986, "lat": 43.0776492, "lon": 141.3450063, "tags": {"amenity": "hospital", "emergency": "yes", "healthcare": "hospital", "name": "\u5317\u6d77\u9053\u5927\u5b66\u75c5\u9662", "operator": "\u5317\u6d77\u9053\u5927\u5b66", "website": "http://www-mhp.med.hokudai.ac.jp/", "wheelchair": "yes", "wikidata": "Q11402667"}}, {"type": "node", "id": 2039310023, "lat": 43.0632412, "lon": 141.3574555, "tags": {"addr:city": "\u672d\u5e4c\u5e02", "addr:neighbourhood": "\u53171\u6761\u67711\u4e01\u76ee", "addr:postcode": "060-0031", "addr:province": "\u5317\u6d77\u9053", "addr:suburb": "\u4e2d\u592e\u533a", "amenity": "hospital", "emergency": "yes", "healthcare": "hospital", "name": "\u6642\u8a08\u53f0\u8a18\u5ff5\u75c5\u9662", "name:en": "Tokeidai Hospital", "name:ja": "\u6642\u8a08\u53f0\u8a18\u5ff5\u75c5\u9662", "name:ja_rm": "Tokeidai By\u014din", "operator": "\u30ab\u30ec\u30b9\u30b5\u30c3\u30dd\u30ed (\u793e\u4f1a\u533b\u7642\u6cd5\u4eba \u793e\u56e3)", "website": "https://www.tokeidaihosp.or.jp/", "wikidata": "Q30270599"}}, {"type": "node", "id": 2067900262, "lat": 42.9020219, "lon": 140.7478382, "tags": {"amenity": "hospital", "name": "\u7a00\u4ee3\u6b6f\u79d1\u533b\u9662", "name:en": "Kishiro dental clinic", "name:ja": "\u7a00\u4ee3\u6b6f\u79d1\u533b\u9662", "source": "survey", "source_ref": "http://wiki.osm.org/wiki/GSI_KIBAN"}}, {"type": "node", "id": 2080740903, "lat": 43.0587621, "lon": 141.357027, "tags": {"addr:block_number": "1", "addr:city": "\u672d\u5e4c\u5e02", "addr:neighbourhood": "\u53572\u6761\u897f1\u4e01\u76ee", "addr:postcode": "060-0062", "addr:province": "\u5317\u6d77\u9053", "addr:suburb": "\u4e2d\u592e\u533a", "amenity": "hospital", "emergency": "no", "healthcare": "hospital", "name": "\u842c\u7530\u8a18\u5ff5\u75c5\u9662", "name:en": "Manda Memorial Hospital", "name:ja": "\u842c\u7530\u8a18\u5ff5\u75c5\u9662", "name:ja_rm": "Manda Kinen By\u014din", "operator": "\u842c\u7530\u8a18\u5ff5\u75c5\u9662 (\u533b\u7642\u6cd5\u4eba)", "website": "http://www.manda.or.jp/"}}, {"type": "node", "id": 2089784617, "lat": 43.0566472, "lon": 141.3422944, "tags": {"addr:block_number": "5", "addr:city": "\u672d\u5e4c\u5e02", "addr:neighbourhood": "\u53572\u6761\u897f10\u4e01\u76ee", "addr:postcode": "060-0062", "addr:province": "\u5317\u6d77\u9053", "addr:suburb": "\u4e2d\u592e\u533a", "amenity": "hospital", "healthcare": "hospital", "healthcare:speciality": "orthopaedics", "name": "\u3044\u3068\u3046\u6574\u5f62\u5916\u79d1\u75c5\u9662", "name:en": "Ito Othopaedic Hospital", "name:ja": "\u3044\u3068\u3046\u6574\u5f62\u5916\u79d1\u75c5\u9662", "name:ja_rm": "It\u014d Seikeigeka By\u014din", "operator": "\u3044\u3068\u3046\u6574\u5f62\u5916\u79d1\u75c5\u9662 (\u533b\u7642\u6cd5\u4eba\u793e\u56e3)", "website": "http://www.ito-seikei.or.jp/"}}, {"type": "node", "id": 2146108921, "lat": 46.6381429, "lon": 142.7899863, "tags": {"amenity": "hospital", "healthcare": "hospital", "name": "\u0426\u0420\u0411"}}, {"type": "node", "id": 2146108927, "lat": 46.6386658, "lon": 142.7904947, "tags": {"amenity": "hospital", "healthcare": "hospital", "name": "\u0420\u043e\u0434\u0434\u043e\u043c"}}, {"type": "node", "id": 2146108936, "lat": 46.6382092, "lon": 142.7909627, "tags": {"amenity": "hospital", "healthcare": "hospital", "name": "\u0414\u0435\u0442\u0441\u043a\u043e\u0435 \u043e\u0442\u0434\u0435\u043b\u0435\u043d\u0438\u0435"}}, {"type": "node", "id": 2147311547, "lat": 46.6439733, "lon": 142.7763304, "tags": {"amenity": "hospital", "name": "\u0422\u0443\u0431\u0434\u0438\u0441\u043f\u0430\u043d\u0441\u0435\u0440"}}, {"type": "node", "id": 2147312043, "lat": 46.6444852, "lon": 142.7763841, "tags": {"amenity": "hospital", "name": "\u041a\u043e\u0436\u043d\u043e-\u0432\u0435\u043d\u0435\u0440\u043e\u043b\u043e\u0433\u0438\u0447\u0435\u0441\u043a\u043e\u0435 \u043e\u0442\u0434\u0435\u043b\u0435\u043d\u0438\u0435"}}, {"type": "node", "id": 2176576944, "lat": 47.3188373, "lon": 142.7978819, "tags": {"amenity": "hospital", "healthcare": "hospital", "name": "\u0420\u043e\u0434\u0438\u043b\u044c\u043d\u044b\u0439 \u0434\u043e\u043c"}}, {"type": "node", "id": 2192267269, "lat": 43.0558812, "lon": 141.3494676, "tags": {"addr:city": "\u672d\u5e4c\u5e02", "addr:neighbourhood": "\u53573\u6761\u897f6\u4e01\u76ee", "addr:postcode": "060-0063", "addr:province": "\u5317\u6d77\u9053", "addr:suburb": "\u4e2d\u592e\u533a", "amenity": "hospital", "emergency": "no", "healthcare": "hospital", "name": "\u672d\u5e4c\u5357\u4e09\u6761\u75c5\u9662", "name:en": "Sapporo Minami san jo Hospital", "name:ja": "\u672d\u5e4c\u5357\u4e09\u6761\u75c5\u9662", "name:ja_rm": "Sapporo Minami san j\u014d By\u014din", "operator": "\u5317\u6d77\u9053\u6075\u611b\u4f1a (\u533b\u7642\u6cd5\u4eba\u793e\u56e3)", "website": "http://www.h-keiaikai.or.jp/minamisanjo/"}}, {"type": "node", "id": 2192340130, "lat": 43.0564523, "lon": 141.3363863, "tags": {"addr:block_number": "291", "addr:city": "\u672d\u5e4c\u5e02", "addr:neighbourhood": "\u53571\u6761\u897f14\u4e01\u76ee", "addr:postcode": "060-0061", "addr:province": "\u5317\u6d77\u9053", "addr:suburb": "\u4e2d\u592e\u533a", "amenity": "hospital", "emergency": "yes", "healthcare": "hospital", "name": "\u4e2d\u6751\u8a18\u5ff5\u75c5\u9662", "name:en": "Nakamura Memorial Hospital", "operator": "\u533b\u4ec1\u4f1a (\u793e\u4f1a\u533b\u7642\u6cd5\u4eba)", "operator:type": "private", "website": "http://www.nmh.or.jp/", "wikidata": "Q28543428", "wikipedia": "ja:\u4e2d\u6751\u8a18\u5ff5\u75c5\u9662"}}, {"type": "node", "id": 2192340132, "lat": 43.0551535, "lon": 141.3335321, "tags": {"addr:block_number": "291", "addr:city": "\u672d\u5e4c\u5e02", "addr:neighbourhood": "\u53571\u6761\u897f16\u4e01\u76ee", "addr:province": "\u5317\u6d77\u9053", "addr:suburb": "\u4e2d\u592e\u533a", "amenity": "hospital", "emergency": "yes", "healthcare": "hospital", "healthcare:speciality": "general;ophthalmology;gynaecology;paediatrics;orthopaedics;dermatology;psychiatry;diagnostic_radiology;anaesthetics;allergology;urology;plastic_surgery;neurology;emergency;cardiology;gastroenterology;neurosurgery;rheumatology;radiotherapy;intensive", "name": "\u672d\u5e4c\u533b\u79d1\u5927\u5b66\u9644\u5c5e\u75c5\u9662", "name:en": "Sapporo Medical University Hospital", "name:ja": "\u672d\u5e4c\u533b\u79d1\u5927\u5b66\u9644\u5c5e\u75c5\u9662", "operator": "\u672d\u5e4c\u533b\u79d1\u5927\u5b66", "operator:type": "university", "website": "https://web.sapmed.ac.jp/hospital/", "wheelchair": "yes", "wikidata": "Q11521168", "wikipedia": "ja:\u672d\u5e4c\u533b\u79d1\u5927\u5b66\u9644\u5c5e\u75c5\u9662"}}, {"type": "node", "id": 2243374644, "lat": 43.0580552, "lon": 141.3616777, "tags": {"addr:block_number": "13", "addr:city": "\u672d\u5e4c\u5e02", "addr:neighbourhood": "\u53573\u6761\u67713\u4e01\u76ee", "addr:postcode": "060-0053", "addr:province": "\u5317\u6d77\u9053", "addr:suburb": "\u4e2d\u592e\u533a", "amenity": "hospital", "emergency": "no", "healthcare": "hospital", "healthcare:speciality": "internal_medicine", "name": "\u5275\u6210\u6771\u75c5\u9662", "name:en": "Sosei higashi Hospital", "name:ja": "\u5275\u6210\u6771\u75c5\u9662", "name:ja_rm": "S\u014dsei higashi By\u014din", "operator": "\u3048\u3093\u3069\u3046\u4f1a (\u533b\u7642\u6cd5\u4eba)", "website": "http://www.sousei-med.jp/souseihigashi-hospital/"}}, {"type": "node", "id": 2273307736, "lat": 43.0675302, "lon": 141.3691925, "tags": {"addr:block_number": "5", "addr:city": "\u672d\u5e4c\u5e02", "addr:neighbourhood": "\u53173\u6761\u67718\u4e01\u76ee", "addr:postcode": "060-0033", "addr:province": "\u5317\u6d77\u9053", "addr:suburb": "\u4e2d\u592e\u533a", "amenity": "hospital", "emergency": "yes", "healthcare": "hospital", "name": "\u672d\u5e4c\u539a\u751f\u75c5\u9662", "name:en": "Sapporo Kousei General Hospital", "name:ja": "\u672d\u5e4c\u539a\u751f\u75c5\u9662", "operator": "JA\u5317\u6d77\u9053\u539a\u751f\u9023 (JA;\u5317\u6d77\u9053\u539a\u751f\u8fb2\u696d\u5354\u540c\u7d44\u5408\u9023\u5408\u4f1a)", "website": "https://www.dou-kouseiren.com/byouin/sapporo/", "wikidata": "Q22130143"}}, {"type": "node", "id": 2331362639, "lat": 43.0734037, "lon": 141.3334157, "tags": {"addr:block_number": "1", "addr:city": "\u672d\u5e4c\u5e02", "addr:housenumber": "38", "addr:neighbourhood": "\u531711\u6761\u897f14\u4e01\u76ee", "addr:postcode": "060-0011", "addr:province": "\u5317\u6d77\u9053", "addr:suburb": "\u4e2d\u592e\u533a", "amenity": "hospital", "emergency": "yes", "healthcare": "hospital", "name": "\u672d\u5e4c\u5faa\u74b0\u5668\u75c5\u9662", "name:en": "Sapporo Junkanki Hospital", "name:ja": "\u672d\u5e4c\u5faa\u74b0\u5668\u75c5\u9662", "operator": "\u672d\u5e4c\u5faa\u74b0\u5668\u30af\u30ea\u30cb\u30c3\u30af (\u533b\u7642\u6cd5\u4eba\u793e\u56e3)", "website": "http://www.s-junkanki.or.jp/"}}, {"type": "node", "id": 2366402009, "lat": 43.1952916, "lon": 141.7656324, "tags": {"amenity": "hospital", "name": "\u5ca9\u898b\u6ca2\u5e02\u7acb\u7dcf\u5408\u75c5\u9662", "opening_hours": "08:30-17:00", "phone": "+81 126 22 1650", "wikidata": "Q11475618"}}, {"type": "node", "id": 2377550911, "lat": 43.0482401, "lon": 141.3483096, "tags": {"addr:block_number": "1", "addr:city": "\u672d\u5e4c\u5e02", "addr:housenumber": "23", "addr:neighbourhood": "\u53579\u6761\u897f7\u4e01\u76ee", "addr:postcode": "064-0809", "addr:suburb": "\u4e2d\u592e\u533a", "amenity": "hospital", "emergency": "no", "name": "\u5357\u672d\u5e4c\u75c5\u9662", "operator": "\u6e05\u548c\u4f1a (\u533b\u7642\u6cd5\u4eba\u793e\u56e3)", "phone": "011-511-3368", "website": "http://www.minamisapporo.or.jp"}}, {"type": "node", "id": 2380742171, "lat": 43.0548397, "lon": 141.3279978, "tags": {"amenity": "hospital", "emergency": "no", "name": "\u540c\u4ea4\u4f1a\u75c5\u9662", "name:en": "Dohkohkai Hospital", "name:ja": "\u540c\u4ea4\u4f1a\u75c5\u9662", "operator": "\u5317\u6d77\u9053\u77f3\u70ad\u540c\u4ea4\u632f\u8208\u4f1a (\u8ca1\u56e3\u6cd5\u4eba)", "website": "http://www.dohkohkai.or.jp/"}}, {"type": "node", "id": 2382961580, "lat": 41.9184394, "lon": 140.2230788, "tags": {"amenity": "hospital"}}, {"type": "node", "id": 2392383495, "lat": 46.697608, "lon": 142.7441703, "tags": {"amenity": "hospital", "name": "\u0424\u0410\u041f"}}, {"type": "node", "id": 2404332300, "lat": 42.9902858, "lon": 144.386501, "tags": {"amenity": "hospital", "emergency": "no", "name": "\u6797\u7530\u30af\u30ea\u30cb\u30c3\u30af"}}, {"type": "node", "id": 2437915282, "lat": 48.6259648, "lon": 142.7827541, "tags": {"amenity": "hospital", "name": "\u0413\u043e\u0440\u043e\u0434\u0441\u043a\u0430\u044f \u0431\u043e\u043b\u044c\u043d\u0438\u0446\u0430"}}, {"type": "node", "id": 2516879991, "lat": 41.782738, "lon": 140.7798739, "tags": {"addr:block_number": "16", "addr:city": "\u51fd\u9928\u5e02", "addr:housenumber": "14", "addr:province": "\u5317\u6d77\u9053", "addr:quarter": "\u99d2\u5834\u753a", "amenity": "hospital", "healthcare": "hospital", "healthcare:speciality": "gastroenterology", "name": "\u3054\u3068\u3046\u5185\u79d1\u80c3\u8178\u79d1", "name:en": "Goto Internal Medicine Gastroenterology Clinic", "name:ko": "\uace0\ud1a0\uc6b0 \ub0b4\uacfc \uc704\uc7a5\uacfc \uc758\uc6d0", "opening_hours": "Mo-Fr 08:30-17:30", "phone": "+81 0138-51-7389", "website": "http://www.gotonaika.com"}}, {"type": "node", "id": 2524795078, "lat": 40.6804479, "lon": 141.3615953, "tags": {"amenity": "hospital", "name": "\u4e09\u6ca2\u4e2d\u592e\u75c5\u9662", "source": "survey"}}, {"type": "node", "id": 2530848335, "lat": 40.5169043, "lon": 141.425758, "tags": {"amenity": "hospital", "name": "\u4e09\u6761\u30af\u30ea\u30cb\u30c3\u30af", "opening_hours": "Mo-We,Fr 9:00-18:30; Th,Sa 9:00-15:00; Su,PH OFF", "phone": "0178-27-4533"}}, {"type": "node", "id": 2613031535, "lat": 45.3999314, "lon": 141.6922011, "tags": {"amenity": "hospital", "healthcare": "hospital", "name": "\u9053\u5317\u52e4\u533b\u5354"}}, {"type": "node", "id": 2664637686, "lat": 41.7694252, "lon": 140.7353675, "tags": {"addr:block_number": "19", "addr:city": "\u51fd\u9928\u5e02", "addr:housenumber": "13", "addr:province": "\u5317\u6d77\u9053", "addr:quarter": "\u5927\u68ee\u753a", "amenity": "hospital", "healthcare": "hospital", "name": "\u4e2d\u5cf6\u5185\u79d1\u5faa\u74b0\u5668\u79d1\u30e1\u30f3\u30bf\u30eb\u30af\u30ea\u30cb\u30c3\u30af", "name:en": "Nakajimanaikajunkankika Mental Clinic", "name:ko": "\ub098\uce74\uc9c0\ub9c8 \ub0b4\uacfc \uc21c\ud658\uae30\uacfc \uba58\ud0c8 \ud074\ub9ac\ub2c9", "phone": "+81 138-22-4357", "website": "nakajima-naika.jp"}}, {"type": "node", "id": 2664650118, "lat": 41.7902928, "lon": 140.7472915, "tags": {"addr:city": "\u6881\u5ddd\u753a\uff11\uff16\uff0d\uff15", "amenity": "hospital", "healthcare": "hospital", "name": "\u8133\u795e\u7d4c\u30bb\u30f3\u30c8\u30e9\u30eb\u30af\u30ea\u30cb\u30c3\u30af"}}, {"type": "node", "id": 2664651009, "lat": 41.7697621, "lon": 140.7282704, "tags": {"amenity": "hospital", "healthcare": "hospital", "name": "\u5e73\u5c71\u5185\u79d1\u533b\u9662", "tourism": "hotel"}}, {"type": "node", "id": 2666377852, "lat": 41.7954124, "lon": 140.7460312, "tags": {"amenity": "hospital", "name": "\u7523\u5a66\u4eba\u79d1\u767d\u9ce5\u30af\u30ea\u30cb\u30c3\u30af", "name:en": "Sanka gynecology Hakucho Clinic", "name:ko": "\uc0c1\uac00 \ud558\ucfe0\ucd08 \uc758\uc6d0", "phone": "+810138445588", "source": "Bing", "website": "http://www1.ncv.ne.jp/~swan5588/"}}, {"type": "node", "id": 2666540314, "lat": 41.7947842, "lon": 140.7517291, "tags": {"amenity": "hospital", "healthcare": "hospital", "name": "\u4f50\u85e4\u76ae\u819a\u79d1\u30fb \u5faa\u74b0\u5668\u5185\u79d1\u533b\u9662", "name:en": "Sato Dermatology \u00b7 Cardiovascular Medicioe Clinic", "name:ko": "\uc0ac\ud1a0 \ud53c\ubd80\uacfc \u00b7\uc21c\ud658\uae30 \ub0b4\uacfc \uc758\uc6d0", "opening_hours": "Mo-Fr 10:00-19:00; Sa 09:00-12:00", "phone": "+810138557005", "website": "http://satoh-hifukajyunkankinaika.com", "wheelchair": "yes", "wheelchair:description": "\u30b9\u30ed\u30fc\u30d7\u3042\u308a"}}, {"type": "node", "id": 2668126887, "lat": 41.8179334, "lon": 140.7443782, "tags": {"amenity": "hospital", "name": "\u4e80\u7530\u75c5\u9662", "source": "Bing"}}, {"type": "node", "id": 2700714855, "lat": 41.7860771, "lon": 140.7556032, "tags": {"amenity": "hospital", "healthcare": "hospital", "name": "\u6749\u4e26\u809b\u9580\u79d1\u30af\u30ea\u30cb\u30c3\u30af"}}, {"type": "node", "id": 2851872884, "lat": 47.4388816, "lon": 141.974272, "tags": {"amenity": "hospital"}}, {"type": "node", "id": 2941582189, "lat": 43.4843915, "lon": 141.9120651, "tags": {"addr:block_number": "19", "addr:city": "\u7802\u5ddd\u5e02", "addr:neighbourhood": "\u67717\u6761\u53575\u4e01\u76ee", "addr:postcode": "073-0137", "addr:province": "\u5317\u6d77\u9053", "amenity": "hospital", "name": "\u305f\u3072\u3089\u6b6f\u79d1\u533b\u9662"}}, {"type": "node", "id": 2949173268, "lat": 48.9875429, "lon": 142.8859612, "tags": {"amenity": "hospital"}}, {"type": "node", "id": 2971134239, "lat": 42.3467551, "lon": 141.0289175, "tags": {"amenity": "hospital", "source": "GSI/KIBAN 2500"}}, {"type": "node", "id": 2980440528, "lat": 42.3458881, "lon": 141.0283854, "tags": {"amenity": "hospital", "name": "\u3044\u3057\u3044\u6b6f\u79d1", "opening_hours": "Mo-Fr 9:00-12:30,15:00-19:00"}}, {"type": "node", "id": 2980478333, "lat": 42.3463886, "lon": 141.0278492, "tags": {"amenity": "hospital", "name": "\u4e0a\u7530\u75c5\u9662\u30d3\u30eb"}}, {"type": "node", "id": 3062835051, "lat": 48.9672883, "lon": 140.2902665, "tags": {"amenity": "hospital", "name": "\u0422\u0440\u0430\u0432\u043c\u043f\u0443\u043d\u043a\u0442, \u0424\u043b\u044e\u043e\u0440\u043e\u0433\u0440\u0430\u0444\u0438\u044f"}}, {"type": "node", "id": 3079572303, "lat": 42.551081, "lon": 140.77511, "tags": {"amenity": "hospital", "name": "\u6d1e\u723a\u5354\u4f1a\u75c5\u9662", "name:ja_kana": "\u3068\u3046\u3084\u304d\u3087\u3046\u304b\u3044\u3073\u3087\u3046\u3044\u3093", "name:ja_rm": "t\u014dyaky\u014dkaiby\u014din"}}, {"type": "node", "id": 3079572306, "lat": 42.582651, "lon": 140.71507, "tags": {"amenity": "hospital", "name": "\u8c4a\u6d66\u753a\u56fd\u4fdd\u75c5\u9662", "name:ja_kana": "\u3068\u3088\u3046\u3089\u3061\u3087\u3046\u3053\u304f\u307b\u3073\u3087\u3046\u3044\u3093", "name:ja_rm": "toy\u014drach\u014dkokuhoby\u014din"}}, {"type": "node", "id": 3103664277, "lat": 41.526142, "lon": 140.9272162, "tags": {"amenity": "hospital", "name": "\u5927\u9593\u75c5\u9662", "name:en": "Oma hospital", "name:ja": "\u5927\u9593\u75c5\u9662", "name:ja_kana": "\u304a\u304a\u307e\u3073\u3087\u3046\u3044\u3093"}}, {"type": "node", "id": 3104863329, "lat": 42.813343, "lon": 141.5916, "tags": {"addr:block_number": "97", "addr:city": "\u5343\u6b73\u5e02", "addr:housenumber": "2", "addr:postcode": "066-0068", "addr:province": "\u5317\u6d77\u9053", "addr:quarter": "\u862d\u8d8a", "amenity": "hospital", "name": "\u5343\u6b73\u6842\u75c5\u9662", "name:en": "Chitose Katsura Hospital", "name:ja": "\u5343\u6b73\u6842\u75c5\u9662", "name:ja_rm": "Chitose Katsura By\u014din", "operator": "\u4e09\u8349\u4f1a (\u793e\u4f1a\u533b\u7642\u6cd5\u4eba\u793e\u56e3)", "website": "http://www.chitose-katsura.or.jp/"}}, {"type": "node", "id": 3104863343, "lat": 42.2482484, "lon": 142.5616107, "tags": {"addr:block_number": "214", "addr:city": "\u65b0\u3072\u3060\u304b\u753a", "addr:county": "\u65e5\u9ad8\u90e1", "addr:postcode": "059-3108", "addr:province": "\u5317\u6d77\u9053", "addr:quarter": "\u4e09\u77f3\u672c\u753a", "amenity": "hospital", "healthcare": "hospital", "healthcare:speciality": "\u5185\u79d1;\u5916\u79d1;\u5c0f\u5150\u79d1", "name": "\u65b0\u3072\u3060\u304b\u753a\u7acb\u4e09\u77f3\u56fd\u6c11\u5065\u5eb7\u4fdd\u967a\u75c5\u9662", "name:ja": "\u65b0\u3072\u3060\u304b\u753a\u7acb\u4e09\u77f3\u56fd\u6c11\u5065\u5eb7\u4fdd\u967a\u75c5\u9662", "operator": "\u65b0\u3072\u3060\u304b\u753a", "operator:type": "public", "website": "https://www.shinhidaka-hokkaido.jp/hospital/index_mitsuishi.php"}}, {"type": "node", "id": 3104863413, "lat": 42.61759, "lon": 140.91788, "tags": {"amenity": "hospital", "name": "\u4e09\u6075\u75c5\u9662", "name:en": "Sanrei Hospital", "name:ja": "\u4e09\u6075\u75c5\u9662", "name:ja_kana": "\u3055\u3093\u308c\u3044\u3073\u3087\u3046\u3044\u3093"}}, {"type": "node", "id": 3104863416, "lat": 42.65625, "lon": 140.82991, "tags": {"amenity": "hospital", "name": "\u6d1e\u723a\u6e29\u6cc9\u75c5\u9662", "name:en": "Toya onsen hospital", "name:ja": "\u6d1e\u723a\u6e29\u6cc9\u75c5\u9662", "name:ja_kana": "\u3068\u3046\u3084\u304a\u3093\u305b\u3093\u3073\u3087\u3046\u3044\u3093"}}, {"type": "node", "id": 3107253466, "lat": 49.6515252, "lon": 142.1748538, "tags": {"amenity": "hospital"}}, {"type": "node", "id": 3125037758, "lat": 42.3136928, "lon": 140.9771437, "tags": {"amenity": "hospital", "name": "\u5e02\u7acb\u5ba4\u862d\u7dcf\u5408\u75c5\u9662", "source": "GSImaps/std", "wikidata": "Q11480660"}}, {"type": "node", "id": 3230974807, "lat": 40.2008355, "lon": 141.7905348, "tags": {"amenity": "hospital", "healthcare": "hospital", "name": "\u4e45\u6148\u6075\u611b\u75c5\u9662", "operator": "\u7965\u548c\u4f1a", "operator:type": "private"}}, {"type": "node", "id": 3327686855, "lat": 43.0655206, "lon": 141.3928938, "tags": {"addr:city": "\u672d\u5e4c\u5e02\u767d\u77f3\u533a\u83ca\u6c34\u4e0a\u753a4\u67612\u4e01\u76ee359-1", "addr:postcode": "0030814", "addr:street": "\u53577\u6761\u7c73\u91cc\u901a (Minami7jo yonesato dori)", "amenity": "hospital", "emergency": "yes", "name": "\u533b\u7642\u6cd5\u4eba\u793e\u56e3\u3000\u306b\u308c\u306e\u675c\u30af\u30ea\u30cb\u30c3\u30af", "operator": "\u533b\u7642\u6cd5\u4eba\u793e\u56e3\u3000\u306b\u308c\u306e\u675c\u30af\u30ea\u30cb\u30c3\u30af"}}, {"type": "node", "id": 3372959693, "lat": 43.072826, "lon": 141.3301263, "tags": {"addr:block_number": "1", "addr:city": "\u672d\u5e4c\u5e02", "addr:housenumber": "30", "addr:neighbourhood": "\u531712\u6761\u897f15\u4e01\u76ee", "addr:postcode": "060-0012", "addr:province": "\u5317\u6d77\u9053", "addr:suburb": "\u4e2d\u592e\u533a", "amenity": "hospital", "emergency": "no", "healthcare": "hospital", "healthcare:speciality": "Psychosomatic_medicine;psychiatry;neurology", "name": "\u6851\u5712\u75c5\u9662", "name:en": "Soen Hospital", "name:ja": "\u6851\u5712\u75c5\u9662", "name:ja_rm": "S\u014den By\u014din", "operator": "\u5065\u5fc3\u4f1a (\u533b\u7642\u6cd5\u4eba)", "operator:type": "private", "website": "http://www.soen-hosp.com/"}}, {"type": "node", "id": 3372962673, "lat": 43.0684818, "lon": 141.3303801, "tags": {"addr:block_number": "28", "addr:city": "\u672d\u5e4c\u5e02", "addr:housenumber": "35", "addr:neighbourhood": "\u53178\u6761\u897f16\u4e01\u76ee", "addr:postcode": "060-0008", "addr:province": "\u5317\u6d77\u9053", "addr:suburb": "\u4e2d\u592e\u533a", "amenity": "hospital", "healthcare": "hospital", "healthcare:speciality": "general;dermatology", "name": "\u6851\u5712\u4e2d\u592e\u75c5\u9662", "name:en": "Soen Chuo Hospital", "name:ja": "\u6851\u5712\u4e2d\u592e\u75c5\u9662", "name:ja_rm": "S\u014den Ch\u016b\u014d By\u014din", "operator": "\u533b\u7642\u6cd5\u4eba \u6851\u5712\u4e2d\u592e\u75c5\u9662", "operator:type": "private", "toilets:wheelchair": "yes", "website": "https://sch-hospital.com/", "wheelchair": "yes"}}, {"type": "node", "id": 3374768305, "lat": 41.7044117, "lon": 140.0277758, "tags": {"amenity": "hospital", "name": "\u4e0a\u30ce\u56fd\u753a\u7acb\u77f3\u5d0e\u8a3a\u7642\u6240", "source": "\u56fd\u571f\u6570\u5024\u60c5\u5831"}}, {"type": "node", "id": 3494262100, "lat": 43.0650199, "lon": 141.3146986, "tags": {"addr:block_number": "1", "addr:city": "\u672d\u5e4c\u5e02", "addr:housenumber": "3", "addr:neighbourhood": "\u53177\u6761\u897f27\u4e01\u76ee", "addr:postcode": "060-0007", "addr:province": "\u5317\u6d77\u9053", "addr:suburb": "\u4e2d\u592e\u533a", "amenity": "hospital", "healthcare": "hospital", "healthcare:speciality": "orthopedics", "name": "\u672d\u5e4c\u5186\u5c71\u6574\u5f62\u5916\u79d1\u75c5\u9662", "name:ja": "\u672d\u5e4c\u5186\u5c71\u6574\u5f62\u5916\u79d1\u75c5\u9662", "operator": "\u672d\u5e4c\u5186\u5c71\u6574\u5f62\u5916\u79d1\u75c5\u9662", "website": "https://www.maruyama-seikeigeka.com/index.html"}}, {"type": "node", "id": 3585995605, "lat": 43.0519687, "lon": 141.3207033, "tags": {"amenity": "hospital", "name": "\u611b\u80b2\u75c5\u9662", "name:en": "Aiiku Hospital"}}, {"type": "node", "id": 3594030298, "lat": 43.086845, "lon": 141.276959, "tags": {"amenity": "hospital", "name": "\u52e4\u533b\u5354\u672d\u5e4c\u897f\u533a\u75c5\u9662", "wheelchair": "yes"}}, {"type": "node", "id": 3594107393, "lat": 43.086304, "lon": 141.275714, "tags": {"amenity": "hospital", "name": "\u672d\u5e4c\u5bae\u306e\u6ca2\u8133\u795e\u7d4c\u5916\u79d1\u75c5\u9662", "operator": "\u533b\u7642\u6cd5\u4eba\u660e\u65e5\u4f73", "wheelchair": "yes"}}, {"type": "node", "id": 3595658893, "lat": 43.0688717, "lon": 141.2894877, "tags": {"amenity": "hospital", "healthcare": "hospital", "name": "\u72ec\u7acb\u884c\u653f\u6cd5\u4eba\u56fd\u7acb\u75c5\u9662\u6a5f\u69cb\u5317\u6d77\u9053\u533b\u7642\u30bb\u30f3\u30bf\u30fc", "toilets:wheelchair": "yes", "wheelchair": "yes", "wikidata": "Q11571582"}}, {"type": "node", "id": 3694520620, "lat": 43.0562611, "lon": 141.2920273, "tags": {"addr:block_number": "1237", "addr:city": "\u672d\u5e4c\u5e02", "addr:housenumber": "1", "addr:postcode": "064-0958", "addr:province": "\u5317\u6d77\u9053", "addr:quarter": "\u5bae\u306e\u68ee", "addr:suburb": "\u4e2d\u592e\u533a", "amenity": "hospital", "emergency": "no", "healthcare": "hospital", "healthcare:speciality": "general", "name": "\u5bae\u306e\u68ee\u75c5\u9662", "name:en": "Miyanomori Hospital", "name:ja": "\u5bae\u306e\u68ee\u75c5\u9662", "operator": "\u793e\u56e3\u6075\u548c\u4f1a (\u533b\u7642\u6cd5\u4eba)", "operator:type": "company", "website": "http://www.miyanomori-hp.or.jp/miyanomori/"}}, {"type": "node", "id": 3801709173, "lat": 43.0430315, "lon": 141.2933728, "tags": {"addr:block_number": "1", "addr:city": "\u672d\u5e4c\u5e02", "addr:housenumber": "25", "addr:neighbourhood": "17\u4e01\u76ee", "addr:postcode": "064-0951", "addr:province": "\u5317\u6d77\u9053", "addr:quarter": "\u5bae\u306e\u68ee1\u6761", "addr:suburb": "\u4e2d\u592e\u533a", "amenity": "hospital", "healthcare": "hospital", "name": "\u672d\u5e4c\u660e\u65e5\u4f73\u75c5\u9662", "name:en": "Sapporo Asuka Hospital", "name:ja": "\u672d\u5e4c\u660e\u65e5\u4f73\u75c5\u9662", "operator": "\u660e\u65e5\u4f73 (\u533b\u7642\u6cd5\u4eba\u793e\u56e3)", "operator:type": "private", "website": "https://www.asuka-gp.or.jp/sapporo/"}}, {"type": "node", "id": 3810706657, "lat": 43.0402283, "lon": 141.3034923, "tags": {"addr:block_number": "7", "addr:city": "\u672d\u5e4c\u5e02", "addr:housenumber": "25", "addr:neighbourhood": "4\u4e01\u76ee", "addr:postcode": "064-8557", "addr:quarter": "\u5186\u5c71\u897f\u753a", "addr:suburb": "\u4e2d\u592e\u533a", "amenity": "hospital", "name": "\u672d\u5e4c\u897f\u5186\u5c71\u75c5\u9662", "name:ja": "\u672d\u5e4c\u897f\u5186\u5c71\u75c5\u9662", "operator": "\u6e13\u4ec1\u4f1a (\u533b\u7642\u6cd5\u4eba)", "website": "https://keijinkai.com/nishimaruyama/"}}, {"type": "node", "id": 3810906242, "lat": 43.0414066, "lon": 141.3120331, "tags": {"addr:block_number": "3", "addr:city": "\u672d\u5e4c\u5e02", "addr:housenumber": "33", "addr:neighbourhood": "4\u4e01\u76ee", "addr:postcode": "064-0946", "addr:province": "\u5317\u6d77\u9053", "addr:quarter": "\u53cc\u5b50\u5c71", "addr:suburb": "\u4e2d\u592e\u533a", "amenity": "hospital", "healthcare": "hospital", "name": "\u65ed\u5c71\u75c5\u9662", "name:en": "Asahiyama Hospital", "name:ja": "\u65ed\u5c71\u75c5\u9662", "operator": "\u5317\u4ec1\u4f1a (\u7279\u5b9a\u533b\u7642\u6cd5\u4eba)", "operator:type": "private", "website": "http://www.hokujin.or.jp/asahiyama/"}}, {"type": "node", "id": 3820017964, "lat": 46.941349, "lon": 142.0080872, "tags": {"addr:housenumber": "3", "addr:street": "\u0420\u0435\u0447\u043d\u0430\u044f \u0443\u043b\u0438\u0446\u0430", "amenity": "hospital", "emergency": "no", "name": "\u0410\u043c\u0431\u0443\u043b\u0430\u0442\u043e\u0440\u0438\u044f", "operator": "\u0426\u0420\u0411 \u0433. \u0425\u043e\u043b\u043c\u0441\u043a"}}, {"type": "node", "id": 3866629821, "lat": 43.0364071, "lon": 141.3229481, "tags": {"addr:block_number": "6", "addr:city": "\u672d\u5e4c\u5e02", "addr:housenumber": "50", "addr:neighbourhood": "5\u4e01\u76ee", "addr:postcode": "064-0941", "addr:province": "\u5317\u6d77\u9053", "addr:quarter": "\u65ed\u30f6\u4e18", "addr:suburb": "\u4e2d\u592e\u533a", "amenity": "hospital", "healthcare": "hospital", "healthcare:speciality": "general;psychiatry", "name": "\u6148\u6075\u4f1a\u75c5\u9662", "name:en": "Jikeikai Hospital", "name:ja": "\u6148\u6075\u4f1a\u75c5\u9662", "name:ja_rm": "Jikeikai By\u014din", "operator": "\u3055\u3063\u307d\u308d\u6148\u6075\u4f1a", "operator:type": "private", "website": "https://www.sapporojikeikai.or.jp/facility/jikeikai/"}}, {"type": "node", "id": 3893498314, "lat": 43.047538, "lon": 141.3433844, "tags": {"addr:block_number": "1", "addr:city": "\u672d\u5e4c\u5e02", "addr:housenumber": "50", "addr:neighbourhood": "\u53579\u6761\u897f10\u4e01\u76ee", "addr:postcode": "064-0809", "addr:suburb": "\u4e2d\u592e\u533a", "amenity": "hospital", "name": "\u672d\u5e4c\u4e2d\u592e\u75c5\u9662", "name:ja": "\u672d\u5e4c\u4e2d\u592e\u75c5\u9662", "operator": "\u9ce9\u4ec1\u4f1a (\u793e\u4f1a\u533b\u7642\u6cd5\u4eba)", "website": "https://www.sc-h.or.jp/"}}, {"type": "node", "id": 3924659707, "lat": 43.0415833, "lon": 141.3292249, "tags": {"addr:block_number": "1", "addr:city": "\u672d\u5e4c\u5e02", "addr:housenumber": "6", "addr:neighbourhood": "\u535713\u6761\u897f20\u4e01\u76ee", "addr:postcode": "064-0913", "addr:suburb": "\u4e2d\u592e\u533a", "amenity": "hospital", "name": "\u5fc3\u548c\u75c5\u9662", "name:en": "Shinwa Hospital", "name:ja": "\u5fc3\u548c\u75c5\u9662", "operator": "\u5fc3\u548c\u4f1a (\u533b\u7642\u6cd5\u4eba\u793e\u56e3)", "website": "http://www.shinwahp.jp/"}}, {"type": "node", "id": 3924884292, "lat": 43.0394303, "lon": 141.34418, "tags": {"addr:block_number": "4", "addr:city": "\u672d\u5e4c\u5e02", "addr:housenumber": "1", "addr:neighbourhood": "\u535715\u6761\u897f10\u4e01\u76ee", "addr:postcode": "064-0915", "addr:suburb": "\u4e2d\u592e\u533a", "amenity": "hospital", "name": "\u672d\u5e4c\u3044\u3057\u3084\u307e\u75c5\u9662", "name:ja": "\u672d\u5e4c\u3044\u3057\u3084\u307e\u75c5\u9662", "operator": "\u85fb\u53cb\u4f1a (\u7279\u5b9a\u533b\u7642\u6cd5\u4eba)", "website": "http://www.ishiyamahp.jp/"}}, {"type": "node", "id": 3937059079, "lat": 43.0312546, "lon": 141.3475879, "tags": {"addr:block_number": "2", "addr:city": "\u672d\u5e4c\u5e02", "addr:housenumber": "11", "addr:neighbourhood": "\u535721\u6761\u897f9\u4e01\u76ee", "addr:postcode": "064-0921", "addr:suburb": "\u4e2d\u592e\u533a", "amenity": "hospital", "emergency": "yes", "healthcare": "hospital", "name": "\u571f\u7530\u75c5\u9662", "name:en": "Tsuchida Hospital", "name:ja": "\u571f\u7530\u75c5\u9662", "operator": "\u571f\u7530\u75c5\u9662 (\u533b\u7642\u6cd5\u4eba\u793e\u56e3)", "website": "http://www.tsuchida.or.jp/"}}, {"type": "node", "id": 3949372840, "lat": 43.029919, "lon": 141.3390521, "tags": {"addr:block_number": "1", "addr:city": "\u672d\u5e4c\u5e02", "addr:housenumber": "20", "addr:neighbourhood": "\u535722\u6761\u897f14\u4e01\u76ee", "addr:postcode": "064-0922", "addr:suburb": "\u4e2d\u592e\u533a", "amenity": "hospital", "healthcare": "hospital", "name": "\u7279\u5b9a\u533b\u7642\u6cd5\u4eba \u793e\u56e3\u6148\u85fb\u4f1a \u5e73\u677e\u8a18\u5ff5\u75c5\u9662", "name:ja": "\u7279\u5b9a\u533b\u7642\u6cd5\u4eba \u793e\u56e3\u6148\u85fb\u4f1a \u5e73\u677e\u8a18\u5ff5\u75c5\u9662", "operator": "\u6148\u85fb\u4f1a (\u7279\u5b9a\u533b\u7642\u6cd5\u4eba\u793e\u56e3)", "website": "http://www.hiramatu-mhp.or.jp/"}}, {"type": "node", "id": 3978867720, "lat": 43.0138026, "lon": 141.3454226, "tags": {"addr:block_number": "4", "addr:city": "\u672d\u5e4c\u5e02", "addr:housenumber": "1", "addr:neighbourhood": "\u535733\u6761\u897f11\u4e01\u76ee", "addr:postcode": "005-0033", "addr:suburb": "\u5357\u533a", "amenity": "hospital", "healthcare": "hospital", "name": "\u672d\u5e4c\u5357\u6574\u5f62\u5916\u79d1\u75c5\u9662", "name:en": "Sapporo-minami Orthopedic Hospital", "name:ja": "\u672d\u5e4c\u5357\u6574\u5f62\u5916\u79d1\u75c5\u9662", "operator": "\u4e09\u548c\u4f1a (\u533b\u7642\u6cd5\u4eba)", "website": "http://minamiseikei.or.jp/"}}, {"type": "node", "id": 4045858290, "lat": 43.0060692, "lon": 141.3536387, "tags": {"addr:block_number": "17", "addr:city": "\u672d\u5e4c\u5e02", "addr:postcode": "005-0008", "addr:quarter": "\u771f\u99d2\u5185", "addr:suburb": "\u5357\u533a", "amenity": "hospital", "name": "\u81ea\u885b\u968a\u672d\u5e4c\u75c5\u9662", "name:en": "Japan Self Defense Forces Hospital Sapporo.", "name:ja": "\u81ea\u885b\u968a\u672d\u5e4c\u75c5\u9662", "operator": "\u9632\u885b\u7701", "website": "https://www.mod.go.jp/gsdf/nae/hosp/", "wikidata": "Q38430739"}}, {"type": "node", "id": 4047570135, "lat": 43.0190206, "lon": 141.3628882, "tags": {"addr:block_number": "3", "addr:city": "\u672d\u5e4c\u5e02", "addr:housenumber": "8", "addr:neighbourhood": "1\u4e01\u76ee", "addr:postcode": "005-0002", "addr:quarter": "\u6f84\u5ddd2\u6761", "addr:suburb": "\u5357\u533a", "amenity": "hospital", "healthcare": "hospital", "name": "\u4ec1\u55a9\u4f1a\u75c5\u9662", "name:en": "Jinyukai Hospital", "name:ja": "\u4ec1\u55a9\u4f1a\u75c5\u9662", "operator": "\u4ec1\u6961\u4f1a (\u533b\u7642\u6cd5\u4eba)", "website": "http://www.jinyukai.or.jp/"}}, {"type": "node", "id": 4080772269, "lat": 43.021189, "lon": 141.3669358, "tags": {"addr:block_number": "2", "addr:city": "\u672d\u5e4c\u5e02", "addr:housenumber": "11", "addr:neighbourhood": "17\u4e01\u76ee", "addr:postcode": "062-0932", "addr:quarter": "\u5e73\u5cb82\u6761", "addr:suburb": "\u8c4a\u5e73\u533a", "amenity": "hospital", "emergency": "yes", "healthcare": "hospital", "name": "\u5e73\u5cb8\u5916\u79d1\u6574\u5f62\u5916\u79d1\u533b\u9662", "name:ja": "\u5e73\u5cb8\u5916\u79d1\u6574\u5f62\u5916\u79d1\u533b\u9662", "website": "http://www.spmed.jp/medi-map/detail/2020"}}, {"type": "node", "id": 4082352344, "lat": 40.608519, "lon": 141.1733093, "tags": {"addr:city": "\u5341\u548c\u7530\u5e02", "addr:postcode": "034-0071", "amenity": "hospital", "name": "\u4e2d\u5c4b\u6577\u6574\u9aa8\u9662", "operator": "\u4e2d\u5c4b\u6577\u8302"}}, {"type": "node", "id": 4103949369, "lat": 43.0248978, "lon": 141.3818268, "tags": {"addr:block_number": "5", "addr:city": "\u672d\u5e4c\u5e02", "addr:housenumber": "22", "addr:neighbourhood": "13\u4e01\u76ee", "addr:postcode": "062-0937", "addr:quarter": "\u5e73\u5cb87\u6761", "addr:suburb": "\u8c4a\u5e73\u533a", "amenity": "hospital", "healthcare": "hospital", "name": "\u5317\u6d77\u9053\u6574\u5f62\u5916\u79d1\u8a18\u5ff5\u75c5\u9662", "name:ja": "\u5317\u6d77\u9053\u6574\u5f62\u5916\u79d1\u8a18\u5ff5\u75c5\u9662", "phone": "+81 11-812-7001", "website": "https://www.hokkaido-seikei-kinen.jp/", "wikidata": "Q30267694"}}, {"type": "node", "id": 4117856673, "lat": 43.0112347, "lon": 141.3674601, "tags": {"addr:block_number": "9", "addr:city": "\u672d\u5e4c\u5e02", "addr:housenumber": "38", "addr:neighbourhood": "5\u4e01\u76ee", "addr:postcode": "005-0004", "addr:quarter": "\u6f84\u5ddd4\u6761", "addr:suburb": "\u5357\u533a", "amenity": "hospital", "healthcare": "hospital", "name": "\u6797\u4e0b\u75c5\u9662", "name:ja": "\u6797\u4e0b\u75c5\u9662", "operator": "\u6797\u4e0b\u75c5\u9662(\u7279\u5b9a\u533b\u7642\u6cd5\u4eba\u793e\u56e3)", "website": "http://www.hayashishita.jp/"}}, {"type": "node", "id": 4188578975, "lat": 42.9943367, "lon": 141.3489891, "tags": {"addr:block_number": "2", "addr:city": "\u672d\u5e4c\u5e02", "addr:housenumber": "1", "addr:neighbourhood": "1\u4e01\u76ee", "addr:postcode": "005-0013", "addr:quarter": "\u771f\u99d2\u5185\u7dd1\u753a", "addr:suburb": "\u5357\u533a", "amenity": "hospital", "name": "\u5c0f\u7b20\u539f\u30af\u30ea\u30cb\u30c3\u30af\u672d\u5e4c\u75c5\u9662", "name:en": "Ogasawara Clinic Sapporo Hospital", "name:ja": "\u5c0f\u7b20\u539f\u30af\u30ea\u30cb\u30c3\u30af\u672d\u5e4c\u75c5\u9662", "operator": "\u4e94\u6708\u4f1a (\u533b\u7642\u6cd5\u4eba)", "website": "http://www.ogasawara-hp.or.jp/"}}, {"type": "node", "id": 4244097039, "lat": 42.9711338, "lon": 141.3394068, "tags": {"addr:block_number": "1", "addr:city": "\u672d\u5e4c\u5e02", "addr:housenumber": "22", "addr:neighbourhood": "2\u4e01\u76ee", "addr:postcode": "005-0841", "addr:quarter": "\u77f3\u5c711\u6761", "addr:suburb": "\u5357\u533a", "amenity": "hospital", "name": "\u767e\u753a\u6574\u5f62\u5916\u79d1\u5185\u79d1\u547c\u5438\u5668\u5185\u79d1", "name:ja": "\u767e\u753a\u6574\u5f62\u5916\u79d1\u5185\u79d1\u547c\u5438\u5668\u5185\u79d1", "name:ja_rm": "Hyakumachi Seikeigeka naika Koky\u016bki Naika", "website": "https://hyakumachi.com/"}}, {"type": "node", "id": 4248384189, "lat": 43.0882625, "lon": 141.3499039, "tags": {"addr:block_number": "1", "addr:city": "\u672d\u5e4c\u5e02", "addr:housenumber": "40", "addr:neighbourhood": "\u531722\u6761\u67711\u4e01\u76ee", "addr:postcode": "065-0022", "amenity": "hospital", "healthcare": "hospital", "healthcare:speciality": "neurology", "name": "\u672d\u5e4c\u9ebb\u751f\u8133\u795e\u7d4c\u5916\u79d1\u75c5\u9662", "name:en": "Sapporo Asabu neurosurgical Hospital", "name:ja": "\u672d\u5e4c\u9ebb\u751f\u8133\u795e\u7d4c\u5916\u79d1\u75c5\u9662", "name:ja_rm": "Sapooro Asabu N\u014dshinkei geka By\u014din", "operator": "\u672d\u5e4c\u9ebb\u751f\u8133\u795e\u7d4c\u5916\u79d1\u75c5\u9662", "website": "http://www.azabunougeka.or.jp/", "wikidata": "Q30280405"}}, {"type": "node", "id": 4259727587, "lat": 42.966747, "lon": 141.3423352, "tags": {"addr:block_number": "1", "addr:city": "\u672d\u5e4c\u5e02", "addr:housenumber": "31", "addr:neighbourhood": "3\u4e01\u76ee", "addr:postcode": "005-0850", "addr:quarter": "\u77f3\u5c71\u6771", "addr:suburb": "\u5357\u533a", "amenity": "hospital", "name": "\u82b8\u8853\u306e\u68ee\u6ccc\u5c3f\u5668\u79d1", "name:ja": "\u82b8\u8853\u306e\u68ee\u6ccc\u5c3f\u5668\u79d1", "operator": "\u82b8\u8853\u306e\u68ee\u6ccc\u5c3f\u5668\u79d1 (\u533b\u7642\u6cd5\u4eba)", "website": "http://www.apurology.or.jp/"}}, {"type": "node", "id": 4272454196, "lat": 42.9544218, "lon": 141.3437883, "tags": {"addr:block_number": "1", "addr:city": "\u672d\u5e4c\u5e02", "addr:housenumber": "28", "addr:neighbourhood": "7\u4e01\u76ee", "addr:postcode": "005-0850", "addr:quarter": "\u77f3\u5c71\u6771", "addr:suburb": "\u5357\u533a", "amenity": "hospital", "name": "\u672d\u5e4c\u5357\u75c5\u9662", "name:en": "Sapporo Minami Hospital", "name:ja": "\u672d\u5e4c\u5357\u75c5\u9662", "name:ja_rm": "Sapporo Minami By\u014din", "operator": "\u5927\u7a7a (\u533b\u7642\u6cd5\u4eba)", "website": "http://www.zion-g.jp/sapporominami/", "wikidata": "Q64143393"}}, {"type": "node", "id": 4281391462, "lat": 42.9438073, "lon": 141.3446082, "tags": {"a": "1", "addr:block_number": "6", "addr:city": "\u672d\u5e4c\u5e02", "addr:neighbourhood": "1\u4e01\u76ee", "addr:postcode": "005-0853", "addr:province": "\u5317\u6d77\u9053", "addr:quarter": "\u5e38\u76e43\u6761", "addr:suburb": "\u5357\u533a", "amenity": "hospital", "name": "\u3068\u304d\u308f\u75c5\u9662", "name:en": "Tokiwa Hospital", "name:ja": "\u3068\u304d\u308f\u75c5\u9662", "operator": "\u3055\u3063\u307d\u308d\u60a0\u5fc3\u306e\u90f7 (\u7279\u5b9a\u533b\u7642\u6cd5\u4eba)", "website": "http://www.tokiwahp.jp/top.html"}}, {"type": "node", "id": 4292223589, "lat": 41.7792036, "lon": 140.7834573, "tags": {"amenity": "hospital", "healthcare": "hospital", "name": "\u77f3\u5d0e\u5c0f\u5150\u79d1\u533b\u9662"}}, {"type": "node", "id": 4316774195, "lat": 40.6012539, "lon": 140.4788817, "tags": {"amenity": "hospital", "name": "\u539f\u5b50\u6574\u5f62\u5916\u79d1"}}, {"type": "node", "id": 4328754237, "lat": 42.9989444, "lon": 141.3381886, "tags": {"addr:block_number": "2", "addr:city": "\u672d\u5e4c\u5e02", "addr:housenumber": "56", "addr:neighbourhood": "1\u4e01\u76ee", "addr:postcode": "005-0802", "addr:quarter": "\u5ddd\u6cbf2\u6761", "addr:suburb": "\u5357\u533a", "amenity": "hospital", "healthcare": "hospital", "name": "\u4e94\u8f2a\u6a4b\u6574\u5f62\u5916\u79d1\u75c5\u9662", "name:ja": "\u4e94\u8f2a\u6a4b\u6574\u5f62\u5916\u79d1\u75c5\u9662", "operator": "\u4e94\u8f2a\u6a4b\u6574\u5f62\u5916\u79d1\u75c5\u9662 (\u533b\u7642\u6cd5\u4eba)", "website": "http://www.gorinbashi-seikei.com/"}}, {"type": "node", "id": 4328754261, "lat": 42.9983858, "lon": 141.3386022, "tags": {"addr:block_number": "2", "addr:city": "\u672d\u5e4c\u5e02", "addr:housenumber": "54", "addr:neighbourhood": "1\u4e01\u76ee", "addr:postcode": "005-0802", "addr:quarter": "\u5ddd\u6cbf2\u6761", "addr:suburb": "\u5357\u533a", "amenity": "hospital", "healthcare": "hospital", "name": "\u672d\u5e4c\u5171\u7acb\u4e94\u8f2a\u6a4b\u75c5\u9662", "name:ja": "\u672d\u5e4c\u5171\u7acb\u4e94\u8f2a\u6a4b\u75c5\u9662", "operator": "\u70ba\u4e45\u4f1a (\u533b\u7642\u6cd5\u4eba)", "website": "http://www.gorinbashi.or.jp/"}}, {"type": "node", "id": 4333206913, "lat": 42.9976183, "lon": 141.3355168, "tags": {"addr:block_number": "3", "addr:city": "\u672d\u5e4c\u5e02", "addr:housenumber": "141", "addr:neighbourhood": "2\u4e01\u76ee", "addr:postcode": "005-0802", "addr:quarter": "\u5ddd\u6cbf2\u6761", "addr:suburb": "\u5357\u533a", "amenity": "hospital", "healthcare": "hospital", "name": "\u4e2d\u6751\u8a18\u5ff5\u5357\u75c5\u9662", "name:en": "Nakamura Memorial South Hospital", "name:ja": "\u4e2d\u6751\u8a18\u5ff5\u5357\u75c5\u9662", "name:ja_rm": "Nakamura Kinen Minami By\u014din", "operator": "\u533b\u4ec1\u4f1a (\u793e\u4f1a\u533b\u7642\u6cd5\u4eba)", "website": "http://www.nmh.or.jp/minami/"}}, {"type": "node", "id": 4343795643, "lat": 43.0075665, "lon": 141.3139607, "tags": {"addr:block_number": "1732", "addr:city": "\u672d\u5e4c\u5e02", "addr:postcode": "005-0832", "addr:quarter": "\u5317\u30ce\u6ca2", "addr:suburb": "\u5357\u533a", "amenity": "hospital", "name": "\u5317\u30ce\u6ca2\u75c5\u9662", "name:en": "Kitanosawa Hospital", "name:ja": "\u5317\u30ce\u6ca2\u75c5\u9662", "name:ja_rm": "Kitanosawa By\u014din", "operator": "\u5e83\u8aa0\u4f1a", "website": "https://www.spmed.jp/medi-map/detail/742"}}, {"type": "node", "id": 4375033205, "lat": 43.0001395, "lon": 141.3312329, "tags": {"addr:block_number": "2", "addr:city": "\u672d\u5e4c\u5e02", "addr:housenumber": "32", "addr:neighbourhood": "3\u4e01\u76ee", "addr:postcode": "005-0802", "addr:quarter": "\u5ddd\u6cbf2\u6761", "addr:suburb": "\u5357\u533a", "amenity": "hospital", "name": "\u5357\u672d\u5e4c\u8133\u795e\u7d4c\u5916\u79d1", "name:ja": "\u5357\u672d\u5e4c\u8133\u795e\u7d4c\u5916\u79d1", "operator": "\u4e00\u4ec1\u4f1a (\u533b\u7642\u6cd5\u4eba\u793e\u56e3)", "website": "http://msnsc.jp/"}}, {"type": "node", "id": 4379976092, "lat": 45.3020797, "lon": 141.0469945, "tags": {"amenity": "hospital", "healthcare": "hospital", "name": "\u5317\u6d77\u9053\u7acb\u9999\u6df1\u8a3a\u7642\u6240", "name:ja": "\u5317\u6d77\u9053\u7acb\u9999\u6df1\u8a3a\u7642\u6240"}}, {"type": "node", "id": 4379976094, "lat": 45.4354796, "lon": 141.0319173, "tags": {"amenity": "hospital", "name": "\u8a3a\u7642\u6240", "name:ja": "\u8a3a\u7642\u6240"}}, {"type": "node", "id": 4383709292, "lat": 43.7785659, "lon": 142.4389266, "tags": {"amenity": "hospital"}}, {"type": "node", "id": 4386496749, "lat": 42.9925741, "lon": 141.3315992, "tags": {"addr:block_number": "2", "addr:city": "\u672d\u5e4c\u5e02", "addr:housenumber": "1", "addr:neighbourhood": "3\u4e01\u76ee", "addr:postcode": "005-0805", "addr:quarter": "\u5ddd\u6cbf5\u6761", "addr:suburb": "\u5357\u533a", "amenity": "hospital", "healthcare": "hospital", "name": "\u3082\u306a\u307f\u30af\u30ea\u30cb\u30c3\u30af", "name:en": "Monami Clinic", "name:ja": "\u3082\u306a\u307f\u30af\u30ea\u30cb\u30c3\u30af", "website": "http://monami-cl.com/"}}, {"type": "node", "id": 4388607637, "lat": 40.516642, "lon": 141.5444529, "tags": {"amenity": "hospital", "name": "\u9752\u68ee\u52b4\u707d\u75c5\u9662"}}, {"type": "node", "id": 4395820882, "lat": 42.9765907, "lon": 141.337227, "tags": {"addr:block_number": "5", "addr:city": "\u672d\u5e4c\u5e02", "addr:housenumber": "1", "addr:neighbourhood": "1\u4e01\u76ee", "addr:postcode": "005-8798", "addr:quarter": "\u5ddd\u6cbf14\u6761", "addr:suburb": "\u5357\u533a", "amenity": "hospital", "name": "\u6674\u751f\u4f1a\u3055\u3063\u307d\u308d\u5357\u75c5\u9662", "name:en": "Sapporo Minami Hospital", "name:ja": "\u6674\u751f\u4f1a\u3055\u3063\u307d\u308d\u5357\u75c5\u9662", "name:ja_rm": "Sapporo Minami By\u014din", "operator": "\u6674\u751f\u4f1a", "website": "http://www.aoikai.jp/sapporominami/", "wikidata": "Q11521484"}}, {"type": "node", "id": 4396888136, "lat": 42.9794397, "lon": 141.3334955, "tags": {"addr:block_number": "1", "addr:city": "\u672d\u5e4c\u5e02", "addr:housenumber": "38", "addr:neighbourhood": "2\u4e01\u76ee", "addr:postcode": "005-0813", "addr:quarter": "\u5ddd\u6cbf13\u6761", "addr:suburb": "\u5357\u533a", "amenity": "hospital", "name": "\u611b\u5168\u75c5\u9662", "name:en": "Aizen Hospital", "name:ja": "\u611b\u5168\u75c5\u9662", "name:ja_rm": "Aizen By\u014din", "operator": "\u611b\u5168\u4f1a (\u533b\u7642\u6cd5\u4eba)", "website": "http://www.aizenkai.or.jp/pages/aizenhospital/index.shtml"}}, {"type": "node", "id": 4398336024, "lat": 42.9613734, "lon": 141.3085965, "tags": {"addr:block_number": "1", "addr:city": "\u672d\u5e4c\u5e02", "addr:housenumber": "18", "addr:neighbourhood": "2\u4e01\u76ee", "addr:postcode": "061-2282", "addr:quarter": "\u85e4\u91ce2\u6761", "addr:suburb": "\u5357\u533a", "amenity": "hospital", "name": "\u672d\u5e4c\u85e4\u304c\u4e18\u6574\u5f62\u5916\u79d1\u533b\u9662", "name:ja": "\u672d\u5e4c\u85e4\u304c\u4e18\u6574\u5f62\u5916\u79d1\u533b\u9662", "operator": "\u672d\u5e4c\u85e4\u304c\u4e18\u6574\u5f62\u5916\u79d1\u533b\u9662 (\u533b\u7642\u6cd5\u4eba\u793e\u56e3)", "website": "http://www.sfoc.or.jp/"}}, {"type": "node", "id": 4398433389, "lat": 45.1049925, "lon": 141.7788712, "tags": {"amenity": "hospital", "healthcare": "hospital", "name": "\u8c4a\u5bcc\u753a\u56fd\u4fdd\u75c5\u9662"}}, {"type": "node", "id": 4401950294, "lat": 42.9601092, "lon": 141.3185376, "tags": {"addr:block_number": "2", "addr:city": "\u672d\u5e4c\u5e02", "addr:housenumber": "12", "addr:neighbourhood": "8\u4e01\u76ee", "addr:postcode": "005-0842", "addr:quarter": "\u77f3\u5c712\u6761", "addr:suburb": "\u5357\u533a", "amenity": "hospital", "name": "\u77f3\u5c71\u75c5\u9662", "name:en": "Ishiyama Hospital", "name:ja": "\u77f3\u5c71\u75c5\u9662", "name:ja_rm": "Ishiyama Byoin", "operator": "\u4fe1\u6d0b\u4f1a (\u533b\u7642\u6cd5\u4eba\u793e\u56e3)", "website": "http://ishiyama-hospital.jp/"}}, {"type": "node", "id": 4405145716, "lat": 42.9685017, "lon": 141.1645715, "tags": {"addr:block_number": "71", "addr:city": "\u672d\u5e4c\u5e02", "addr:neighbourhood": "3\u4e01\u76ee", "addr:postcode": "061-2303", "addr:quarter": "\u5b9a\u5c71\u6e13\u6e29\u6cc9\u897f", "addr:suburb": "\u5357\u533a", "amenity": "hospital", "name": "\u5b9a\u5c71\u6e13\u75c5\u9662", "name:en": "Jozankei Hospital", "name:ja": "\u5b9a\u5c71\u6e13\u75c5\u9662", "name:ja_rm": "Jozankei By\u014din", "operator": "\u6e13\u4ec1\u4f1a (\u533b\u7642\u6cd5\u4eba)", "website": "https://www.keijinkai.com/jyouzankei/"}}, {"type": "node", "id": 4443884104, "lat": 43.2333188, "lon": 143.2920101, "tags": {"amenity": "hospital", "name": "\u585a\u7530\u6b6f\u79d1"}}, {"type": "node", "id": 4467231249, "lat": 43.0466787, "lon": 141.3723727, "tags": {"addr:block_number": "2", "addr:city": "\u672d\u5e4c\u5e02", "addr:housenumber": "18", "addr:neighbourhood": "8\u4e01\u76ee", "addr:postcode": "062-0906", "addr:quarter": "\u8c4a\u5e736\u6761", "addr:suburb": "\u8c4a\u5e73\u533a", "amenity": "hospital", "healthcare": "hospital", "name": "\u672d\u5e4c\u30e9\u30a4\u30e9\u30c3\u30af\u75c5\u9662", "name:en": "Sapporo Lilac Hospital", "name:ja": "\u672d\u5e4c\u30e9\u30a4\u30e9\u30c3\u30af\u75c5\u9662", "name:ja_rm": "Sapporo Rairakku By\u014din", "operator": "\u5317\u5fd7\u4f1a (\u533b\u7642\u6cd5\u4eba)", "website": "http://www.lilac.or.jp/", "wheelchair": "yes"}}, {"type": "node", "id": 4472086396, "lat": 43.0510455, "lon": 141.365324, "tags": {"addr:block_number": "2", "addr:city": "\u672d\u5e4c\u5e02", "addr:housenumber": "12", "addr:neighbourhood": "2\u4e01\u76ee", "addr:postcode": "062-0906", "addr:quarter": "\u8c4a\u5e736\u6761", "addr:suburb": "\u8c4a\u5e73\u533a", "amenity": "hospital", "healthcare": "hospital", "name": "\u4e09\u6d66\u5185\u79d1\u5faa\u74b0\u5668\u30af\u30ea\u30cb\u30c3\u30af", "name:ja": "\u4e09\u6d66\u5185\u79d1\u5faa\u74b0\u5668\u30af\u30ea\u30cb\u30c3\u30af", "website": "https://www.spmed.jp/medi-map/detail/1062"}}, {"type": "node", "id": 4483180723, "lat": 43.0414247, "lon": 141.3870922, "tags": {"addr:block_number": "3", "addr:city": "\u672d\u5e4c\u5e02", "addr:housenumber": "1", "addr:neighbourhood": "5\u4e01\u76ee", "addr:postcode": "062-0003", "addr:quarter": "\u7f8e\u57123\u6761", "addr:suburb": "\u8c4a\u5e73\u533a", "amenity": "hospital", "name": "\u83ef\u5ca1\u9752\u6d32\u8a18\u5ff5 \u5fc3\u81d3\u8840\u7ba1\u30af\u30ea\u30cb\u30c3\u30af", "name:en": "Hanaoka Seishu Memorial Cardiovascular Clinic", "name:ja": "\u83ef\u5ca1\u9752\u6d32\u8a18\u5ff5 \u5fc3\u81d3\u8840\u7ba1\u30af\u30ea\u30cb\u30c3\u30af", "name:ja_rm": "Hanaoka Seish\u016b Kinen Shinz\u014dkekkan Kurinikku", "operator": "\u6625\u6797\u4f1a (\u533b\u7642\u6cd5\u4eba)", "website": "https://hanaokaseishu.com/"}}, {"type": "node", "id": 4484756137, "lat": 43.0350077, "lon": 141.3890617, "tags": {"addr:block_number": "6", "addr:city": "\u672d\u5e4c\u5e02", "addr:housenumber": "20", "addr:neighbourhood": "8\u4e01\u76ee", "addr:postcode": "062-0007", "addr:quarter": "\u7f8e\u57127\u6761", "addr:suburb": "\u8c4a\u5e73\u533a", "amenity": "hospital", "name": "\u6075\u4ec1\u4f1a\u4f50\u3005\u6728\u5185\u79d1\u75c5\u9662", "name:ja": "\u6075\u4ec1\u4f1a\u4f50\u3005\u6728\u5185\u79d1\u75c5\u9662", "website": "http://www.sasakinaika.info/"}}, {"type": "node", "id": 4496371874, "lat": 43.0764142, "lon": 141.3574645, "tags": {"addr:block_number": "1", "addr:city": "\u672d\u5e4c\u5e02", "addr:housenumber": "1", "addr:neighbourhood": "\u531712\u6761\u67713\u4e01\u76ee", "addr:postcode": "065-8611", "addr:suburb": "\u6771\u533a", "amenity": "hospital", "emergency": "yes", "healthcare": "hospital", "name": "\u5929\u4f7f\u75c5\u9662", "name:en": "Tenshi Hospital", "name:ja": "\u5929\u4f7f\u75c5\u9662", "name:ja_rm": "Tenshi By\u014din", "operator": "\u6bcd\u604b (\u793e\u4f1a\u533b\u7642\u6cd5\u4eba)", "website": "https://www.tenshi.or.jp/", "wikidata": "Q30281091", "wikipedia": "ja:\u5929\u4f7f\u75c5\u9662"}}, {"type": "node", "id": 4508693387, "lat": 43.0803631, "lon": 141.3786246, "tags": {"addr:block_number": "2", "addr:city": "\u672d\u5e4c\u5e02", "addr:housenumber": "10", "addr:neighbourhood": "1\u4e01\u76ee", "addr:postcode": "065-0041", "addr:quarter": "\u672c\u753a1\u6761", "addr:suburb": "\u6771\u533a", "amenity": "hospital", "healthcare": "hospital", "healthcare:speciality": "gastroenterology", "name": "\u5317\u6d77\u9053\u6d88\u5316\u5668\u79d1\u75c5\u9662", "name:en": "Hokkaido Gastroenterology Hospital", "name:ja": "\u5317\u6d77\u9053\u6d88\u5316\u5668\u79d1\u75c5\u9662", "name:ja_rm": "Hokkaid\u014d Sh\u014dkika By\u014din", "operator": "\u5f70\u548c\u4f1a (\u533b\u7642\u6cd5\u4eba)", "website": "https://www.hgh.or.jp/"}}, {"type": "node", "id": 4511434097, "lat": 43.0846861, "lon": 141.3715246, "tags": {"addr:block_number": "3", "addr:city": "\u672d\u5e4c\u5e02", "addr:housenumber": "2", "addr:neighbourhood": "\u531717\u6761\u677114\u4e01\u76ee", "addr:postcode": "065-0017", "addr:suburb": "\u6771\u533a", "amenity": "hospital", "healthcare": "hospital", "name": "\u672d\u5e4c\u9053\u90fd\u75c5\u9662", "name:en": "Sapporo Doto Hospital", "name:ja": "\u672d\u5e4c\u9053\u90fd\u75c5\u9662", "name:ja_rm": "Sapporo D\u014dto By\u014din", "operator": "\u672d\u5e4c\u9053\u90fd\u75c5\u9662 (\u533b\u7642\u6cd5\u4eba\u793e\u56e3)", "website": "http://www.doto.org/"}}, {"type": "node", "id": 4511434098, "lat": 43.0847987, "lon": 141.3726898, "tags": {"addr:block_number": "3", "addr:city": "\u672d\u5e4c\u5e02", "addr:neighbourhood": "\u531717\u6761\u677115\u4e01\u76ee", "addr:postcode": "065-0017", "addr:suburb": "\u6771\u533a", "amenity": "hospital", "healthcare": "hospital", "name": "\u672d\u5e4c\u6771\u8c4a\u75c5\u9662", "name:en": "Sapporo Toho Hospital", "name:ja": "\u672d\u5e4c\u6771\u8c4a\u75c5\u9662", "name:ja_rm": "Sapporo T\u014dh\u014d By\u014din", "operator": "\u80b2\u611b\u4f1a (\u533b\u7642\u6cd5\u4eba)", "website": "http://www.toho-hosp.or.jp/", "wikidata": "Q30260690"}}, {"type": "node", "id": 4511609437, "lat": 43.0833509, "lon": 141.3790154, "tags": {"addr:block_number": "5", "addr:city": "\u672d\u5e4c\u5e02", "addr:housenumber": "15", "addr:neighbourhood": "\u531715\u6761\u677118\u4e01\u76ee", "addr:postcode": "065-0015", "addr:suburb": "\u6771\u533a", "amenity": "hospital", "healthcare": "hospital", "name": "\u8aa0\u5fc3\u773c\u79d1\u75c5\u9662", "name:en": "Seishin Ophthalmological Hospital", "name:ja": "\u8aa0\u5fc3\u773c\u79d1\u75c5\u9662", "name:ja_rm": "Seishin Ganka By\u014din", "operator": "\u8aa0\u5fc3\u4f1a (\u533b\u7642\u6cd5\u4eba\u793e\u56e3)", "website": "http://www.seishin-ganka.or.jp/"}}, {"type": "node", "id": 4535529001, "lat": 43.0907486, "lon": 141.3832835, "tags": {"addr:block_number": "2", "addr:city": "\u672d\u5e4c\u5e02", "addr:housenumber": "1", "addr:neighbourhood": "\u531721\u6761\u677121\u4e01\u76ee", "addr:postcode": "065-0021", "addr:suburb": "\u6771\u533a", "amenity": "hospital", "healthcare": "hospital", "healthcare:speciality": "neurology", "name": "\u3055\u3063\u307d\u308d\u795e\u7d4c\u5185\u79d1\u75c5\u9662", "name:en": "Sapporo Neurology Hospital", "name:ja": "\u3055\u3063\u307d\u308d\u795e\u7d4c\u5185\u79d1\u75c5\u9662", "name:ja_rm": "Sapporo Shineki naika By\u014din", "operator": "\u30bb\u30ec\u30b9 (\u533b\u7642\u6cd5\u4eba)", "website": "http://www.ceres21.jp/hospital/index.html"}}, {"type": "node", "id": 4547995790, "lat": 43.0944003, "lon": 141.3475313, "tags": {"addr:block_number": "1", "addr:city": "\u672d\u5e4c\u5e02", "addr:housenumber": "15", "addr:neighbourhood": "\u531727\u6761\u67711\u4e01\u76ee", "addr:postcode": "065-0027", "addr:suburb": "\u6771\u533a", "amenity": "hospital", "healthcare": "hospital", "name": "\u611b\u5fc3\u30e1\u30e2\u30ea\u30a2\u30eb\u75c5\u9662", "name:en": "Aishin Memorial Hospital", "name:ja": "\u611b\u5fc3\u30e1\u30e2\u30ea\u30a2\u30eb\u75c5\u9662", "name:ja_rm": "Aishin Memoriaru By\u014din", "operator": "\u611b\u5fc3\u9928 (\u793e\u4f1a\u533b\u7642\u6cd5\u4eba\u793e\u56e3)", "website": "http://aishinmemorial-hp.or.jp/"}}, {"type": "node", "id": 4568256726, "lat": 43.0966615, "lon": 141.3608809, "tags": {"addr:block_number": "1", "addr:city": "\u672d\u5e4c\u5e02", "addr:housenumber": "6", "addr:neighbourhood": "\u531727\u6761\u67718\u4e01\u76ee", "addr:postcode": "065-0027", "addr:suburb": "\u6771\u533a", "amenity": "hospital", "emergency": "yes", "healthcare": "hospital", "name": "\u5317\u5149\u8a18\u5ff5\u75c5\u9662", "name:en": "Hokko Memorial hospital", "name:ja": "\u5317\u5149\u8a18\u5ff5\u75c5\u9662", "name:ja_rm": "Hokk\u014d Kinen By\u014din", "operator": "\u30ab\u30ec\u30b9\u30b5\u30c3\u30dd\u30ed (\u793e\u4f1a\u533b\u7642\u6cd5\u4eba\u793e\u56e3)", "website": "http://www.hokko.or.jp/", "wikidata": "Q30279969"}}, {"type": "node", "id": 4571190705, "lat": 43.1035612, "lon": 141.3659298, "tags": {"addr:block_number": "3", "addr:city": "\u672d\u5e4c\u5e02", "addr:housenumber": "1", "addr:neighbourhood": "\u531733\u6761\u677114\u4e01\u76ee", "addr:postcode": "065-0033", "addr:suburb": "\u6771\u533a", "amenity": "hospital", "emergency": "yes", "healthcare": "hospital", "name": "\u672d\u5e4c\u6771\u5fb3\u6d32\u4f1a\u75c5\u9662", "name:en": "Sapporo Higashi Tokushukai Hospital", "name:ja": "\u672d\u5e4c\u6771\u5fb3\u6d32\u4f1a\u75c5\u9662", "name:ja_rm": "Sapporo Higashi Tokush\u016bkai By\u014din", "operator": "\u5fb3\u6d32\u4f1a (\u533b\u7642\u6cd5\u4eba)", "website": "https://www.higashi-tokushukai.or.jp/", "wikidata": "Q50036971", "wikipedia": "ja:\u672d\u5e4c\u6771\u5fb3\u6d32\u4f1a\u75c5\u9662"}}, {"type": "node", "id": 4574057109, "lat": 44.0284672, "lon": 145.8561611, "tags": {"amenity": "hospital", "name": "\u0418\u043d\u0444\u0435\u043a\u0446\u0438\u043e\u043d\u043d\u043e\u0435 \u043e\u0442\u0434\u0435\u043b\u0435\u043d\u0438\u0435", "name:ru": "\u0418\u043d\u0444\u0435\u043a\u0446\u0438\u043e\u043d\u043d\u043e\u0435 \u043e\u0442\u0434\u0435\u043b\u0435\u043d\u0438\u0435"}}, {"type": "node", "id": 4590638590, "lat": 42.3511768, "lon": 141.0202987, "tags": {"amenity": "hospital", "name": "\u5bae\u5c3e\u30af\u30ea\u30cb\u30c3\u30af \u6ccc\u5c3f\u5668\u79d1", "name:ja": "\u5bae\u5c3e\u30af\u30ea\u30cb\u30c3\u30af \u6ccc\u5c3f\u5668\u79d1"}}, {"type": "node", "id": 4593889190, "lat": 43.1010405, "lon": 141.3768289, "tags": {"addr:block_number": "8", "addr:city": "\u672d\u5e4c\u5e02", "addr:housenumber": "1", "addr:neighbourhood": "\u531730\u6761\u677118\u4e01\u76ee", "addr:postcode": "065-0030", "addr:province": "\u5317\u6d77\u9053", "addr:suburb": "\u6771\u533a", "amenity": "hospital", "healthcare": "hospital", "name": "\u672d\u5e4c\u6771\u548c\u75c5\u9662", "name:en": "Sapporo Towa Hospital", "name:ja": "\u672d\u5e4c\u6771\u548c\u75c5\u9662", "name:ja_rm": "Sapporo T\u014dwa By\u014din", "website": "http://www.sapporo-towa-hp.sakura.ne.jp/"}}, {"type": "node", "id": 4594043518, "lat": 43.0996282, "lon": 141.3816432, "tags": {"addr:block_number": "5", "addr:city": "\u672d\u5e4c\u5e02", "addr:housenumber": "25", "addr:neighbourhood": "\u531727\u6761\u677120\u4e01\u76ee", "addr:postcode": "065-0027", "addr:suburb": "\u6771\u533a", "amenity": "hospital", "healthcare": "hospital", "name": "\u5553\u751f\u4f1a\u75c5\u9662", "name:en": "Keiseikai Hospital", "name:ja": "\u5553\u751f\u4f1a\u75c5\u9662", "name:ja_rm": "Keiseikai By\u014din", "website": "http://keiseikai-hsp.com/"}}, {"type": "node", "id": 4608816796, "lat": 43.1079816, "lon": 141.344555, "tags": {"addr:block_number": "1", "addr:city": "\u672d\u5e4c\u5e02", "addr:housenumber": "7", "addr:neighbourhood": "\u531740\u6761\u67711\u4e01\u76ee", "addr:postcode": "007-0840", "addr:suburb": "\u6771\u533a", "amenity": "hospital", "healthcare": "hospital", "name": "\u8033\u9f3b\u54bd\u5589\u79d1\u9ebb\u751f\u75c5\u9662", "name:ja": "\u8033\u9f3b\u54bd\u5589\u79d1\u9ebb\u751f\u75c5\u9662", "operator": "\u8033\u9f3b\u54bd\u5589\u79d1\u9ebb\u751f (\u793e\u4f1a\u533b\u7642\u6cd5\u4eba)", "website": "http://www.jibiazabu.or.jp/azabu/"}}, {"type": "node", "id": 4608816810, "lat": 43.1095458, "lon": 141.3448599, "tags": {"addr:block_number": "1", "addr:city": "\u672d\u5e4c\u5e02", "addr:housenumber": "25", "addr:neighbourhood": "\u531741\u6761\u67711\u4e01\u76ee", "addr:postcode": "007-0841", "addr:suburb": "\u6771\u533a", "amenity": "hospital", "healthcare": "hospital", "name": "\u5317\u6d77\u9053\u6ccc\u5c3f\u5668\u79d1\u8a18\u5ff5\u75c5\u9662", "name:ja": "\u5317\u6d77\u9053\u6ccc\u5c3f\u5668\u79d1\u8a18\u5ff5\u75c5\u9662", "operator": "\u30a8\u30e0\u30fb\u30c6\u30a3\u30fc\u30fb\u30a8\u30cc (\u533b\u7642\u6cd5\u4eba)", "website": "https://www.hokkaido-hinyoukika.or.jp/"}}, {"type": "node", "id": 4611762389, "lat": 42.315701, "lon": 140.9850391, "tags": {"amenity": "hospital", "name": "\u65e5\u92fc\u8a18\u5ff5\u75c5\u9662", "name:ja": "\u65e5\u92fc\u8a18\u5ff5\u75c5\u9662", "wikidata": "Q11510694"}}, {"type": "node", "id": 4652773007, "lat": 43.1127377, "lon": 141.3676843, "tags": {"addr:block_number": "3", "addr:city": "\u672d\u5e4c\u5e02", "addr:housenumber": "14", "addr:neighbourhood": "\u531741\u6761\u677116\u4e01\u76ee", "addr:postcode": "007-0841", "addr:province": "\u5317\u6d77\u9053", "addr:suburb": "\u6771\u533a", "amenity": "hospital", "healthcare": "hospital", "name": "\u6771\u6804\u75c5\u9662", "name:en": "Toei Hospital", "name:ja": "\u6771\u6804\u75c5\u9662", "name:ja_rm": "T\u014dei By\u014din", "operator": "\u3068\u3053\u306f\u308b (\u7279\u5b9a\u533b\u7642\u6cd5\u4eba)", "website": "http://www.touei.or.jp/"}}, {"type": "node", "id": 4762640129, "lat": 49.1584904, "lon": 142.1128516, "tags": {"amenity": "hospital", "name": "\u041c\u041b\u041f\u0423 \u0426\u0420\u0411 \u0428\u0430\u0445\u0442\u0435\u0440\u0441\u043a\u0430\u044f \u0433\u043e\u0440\u043e\u0434\u0441\u043a\u0430\u044f \u0431\u043e\u043b\u044c\u043d\u0438\u0446\u0430"}}, {"type": "node", "id": 4776559426, "lat": 42.9001366, "lon": 141.5776968, "tags": {"amenity": "hospital", "healthcare": "hospital", "name": "\u6075\u307f\u91ce\u75c5\u9662", "wikidata": "Q11492333"}}, {"type": "node", "id": 4778781722, "lat": 43.7936291, "lon": 143.8713379, "tags": {"amenity": "hospital", "name": "\u7389\u8d8a\u75c5\u9662", "name:ja": "\u7389\u8d8a\u75c5\u9662", "opening_hours": "Mo-Sa 09:00-17:00"}}, {"type": "node", "id": 4778918123, "lat": 43.8284691, "lon": 144.1044396, "tags": {"amenity": "hospital", "name": "\u3073\u307b\u308d\u8033\u9f3b\u54bd\u5589\u79d1\u30af\u30ea\u30cb\u30c3\u30af", "name:ja": "\u3073\u307b\u308d\u8033\u9f3b\u54bd\u5589\u79d1\u30af\u30ea\u30cb\u30c3\u30af"}}, {"type": "node", "id": 4779288129, "lat": 44.0027808, "lon": 143.338886, "tags": {"amenity": "hospital", "name": "\u4e38\u702c\u5e03\u539a\u751f\u75c5\u9662", "name:ja": "\u4e38\u702c\u5e03\u539a\u751f\u75c5\u9662"}}, {"type": "node", "id": 4788289034, "lat": 43.8009389, "lon": 143.8942513, "tags": {"amenity": "hospital", "name": "\u3042\u3057\u306e\u533b\u9662", "name:ja": "\u3042\u3057\u306e\u533b\u9662"}}, {"type": "node", "id": 4791785889, "lat": 43.1317654, "lon": 141.3674998, "tags": {"addr:block_number": "186", "addr:city": "\u672d\u5e4c\u5e02", "addr:neighbourhood": "11\u4e01\u76ee", "addr:postcode": "002-8081", "addr:province": "\u5317\u6d77\u9053", "addr:quarter": "\u767e\u5408\u304c\u539f", "addr:suburb": "\u5317\u533a", "amenity": "hospital", "healthcare": "hospital", "name": "\u672d\u5e4c\u767e\u5408\u306e\u4f1a\u75c5\u9662", "name:en": "Sapporo Yurinokai Hospital", "name:ja": "\u672d\u5e4c\u767e\u5408\u306e\u4f1a\u75c5\u9662", "name:ja_rm": "Sapporo Yurinokai By\u014din", "operator": "\u672d\u5e4c\u767e\u5408\u306e\u4f1a\u75c5\u9662", "website": "http://www.yurinokai.jp/"}}, {"type": "node", "id": 4793611422, "lat": 43.863567, "lon": 143.9284502, "tags": {"amenity": "hospital", "name": "\u30aa\u30db\u30fc\u30c4\u30af\u6d77\u75c5\u9662", "name:ja": "\u30aa\u30db\u30fc\u30c4\u30af\u6d77\u75c5\u9662", "wikidata": "Q43895052"}}, {"type": "node", "id": 4793611522, "lat": 43.8857688, "lon": 143.9807258, "tags": {"amenity": "hospital", "name": "\u7aef\u91ce\u75c5\u9662", "name:ja": "\u7aef\u91ce\u75c5\u9662"}}, {"type": "node", "id": 4793631922, "lat": 43.8238381, "lon": 143.9179234, "tags": {"amenity": "hospital", "name": "\u671b\u6708\u533b\u9662", "name:ja": "\u671b\u6708\u533b\u9662"}}, {"type": "node", "id": 4826284738, "lat": 43.0829204, "lon": 141.3920313, "tags": {"addr:block_number": "10", "addr:city": "\u672d\u5e4c\u5e02", "addr:housenumber": "15", "addr:neighbourhood": "4\u4e01\u76ee", "addr:postcode": "007-0862", "addr:province": "\u5317\u6d77\u9053", "addr:quarter": "\u4f0f\u53e42\u6761", "addr:suburb": "\u6771\u533a", "amenity": "hospital", "healthcare": "hospital", "name": "\u672d\u5e4c\u4f50\u85e4\u75c5\u9662", "name:en": "Sapporo Sato Hospital", "name:ja": "\u672d\u5e4c\u4f50\u85e4\u75c5\u9662", "name:ja_rm": "Sapporo Sat\u014d By\u014din", "operator": "\u5927\u8535\u4f1a (\u533b\u7642\u6cd5\u4eba\u793e\u56e3)", "website": "http://www.s-sato-hp.jp/"}}, {"type": "node", "id": 4827098185, "lat": 43.0883255, "lon": 141.391728, "tags": {"addr:block_number": "3", "addr:city": "\u672d\u5e4c\u5e02", "addr:housenumber": "2", "addr:neighbourhood": "3\u4e01\u76ee", "addr:postcode": "007-0865", "addr:province": "\u5317\u6d77\u9053", "addr:quarter": "\u4f0f\u53e45\u6761", "addr:suburb": "\u6771\u533a", "amenity": "hospital", "healthcare": "hospital", "name": "\u6574\u5f62\u5916\u79d1\u5317\u65b0\u6771\u75c5\u9662", "name:en": "Hokushin higashi Hospital", "name:ja": "\u6574\u5f62\u5916\u79d1\u5317\u65b0\u6771\u75c5\u9662", "name:ja_rm": "Seikeigeka Hokushin higashi By\u014din", "operator": "\u670b\u4ec1\u4f1a (\u7279\u5b9a\u533b\u7642\u6cd5\u4eba)", "website": "https://www.srh.or.jp/"}}, {"type": "node", "id": 4839907316, "lat": 43.0881622, "lon": 141.3993661, "tags": {"addr:block_number": "2", "addr:city": "\u672d\u5e4c\u5e02", "addr:housenumber": "18", "addr:neighbourhood": "1\u4e01\u76ee", "addr:postcode": "007-0803", "addr:province": "\u5317\u6d77\u9053", "addr:quarter": "\u6771\u82d7\u7a423\u6761", "addr:suburb": "\u6771\u533a", "amenity": "hospital", "healthcare": "hospital", "name": "\u6771\u82d7\u7a42\u75c5\u9662", "name:en": "Higashinaebo Hospital", "name:ja": "\u6771\u82d7\u7a42\u75c5\u9662", "name:ja_rm": "Higashinaebo By\u014din", "operator": "\u8c4a\u751f\u4f1a (\u533b\u7642\u6cd5\u4eba\u793e\u56e3)", "website": "http://www.houseikai.or.jp/hospital/"}}, {"type": "node", "id": 4850911703, "lat": 43.09143, "lon": 141.4031022, "tags": {"addr:block_number": "9", "addr:city": "\u672d\u5e4c\u5e02", "addr:housenumber": "1", "addr:neighbourhood": "1\u4e01\u76ee", "addr:postcode": "007-8505", "addr:province": "\u5317\u6d77\u9053", "addr:quarter": "\u6771\u82d7\u7a425\u6761", "addr:suburb": "\u6771\u533a", "amenity": "hospital", "emergency": "yes", "healthcare": "hospital", "name": "\u52e4\u533b\u5354\u4e2d\u592e\u75c5\u9662", "name:en": "Kin-ikyo Chuo Hospital", "name:ja": "\u52e4\u533b\u5354\u4e2d\u592e\u75c5\u9662", "name:ja_rm": "Kin-iky\u014d Ch\u016b\u014d By\u014din", "operator": "\u5317\u6d77\u9053\u52e4\u52b4\u8005\u533b\u7642\u5354\u4f1a (\u516c\u76ca\u793e\u56e3\u6cd5\u4eba)", "website": "http://www.kin-ikyo-chuo.jp/", "wikidata": "Q28543474", "wikipedia": "ja:\u52e4\u533b\u5354\u4e2d\u592e\u75c5\u9662"}}, {"type": "node", "id": 4851739088, "lat": 46.9434612, "lon": 142.7488431, "tags": {"amenity": "hospital", "healthcare": "yes", "name": "\u041f\u0430\u043d\u0441\u0438\u043e\u043d\u0430\u0442"}}, {"type": "node", "id": 4858688868, "lat": 43.0949616, "lon": 141.4122926, "tags": {"addr:block_number": "8", "addr:city": "\u672d\u5e4c\u5e02", "addr:housenumber": "20", "addr:neighbourhood": "2\u4e01\u76ee", "addr:postcode": "007-0807", "addr:province": "\u5317\u6d77\u9053", "addr:quarter": "\u6771\u82d7\u7a427\u6761", "addr:suburb": "\u6771\u533a", "amenity": "hospital", "healthcare": "hospital", "name": "\u672d\u82d7\u75c5\u9662", "name:en": "Satsunae Hospital", "name:ja": "\u672d\u82d7\u75c5\u9662", "name:ja_rm": "Satsunae By\u014din", "operator": "\u82f1\u4ec1\u4f1a (\u533b\u7642\u6cd5\u4eba\u793e\u56e3)", "website": "http://satsunae-hp.jp/"}}, {"type": "node", "id": 4863918221, "lat": 43.1403683, "lon": 141.2929602, "tags": {"amenity": "hospital", "name": "\u82b1\u5ddd\u75c5\u9662", "name:ja": "\u82b1\u5ddd\u5357\u75c5\u9662"}}, {"type": "node", "id": 4867386722, "lat": 42.999877, "lon": 141.441873, "tags": {"amenity": "hospital", "name": "\u6e05\u7530\u30a6\u30a3\u30e1\u30f3\u30ba\u30af\u30ea\u30cb\u30c3\u30af"}}, {"type": "node", "id": 4881072566, "lat": 43.0652109, "lon": 141.345511, "tags": {"addr:block_number": "3", "addr:city": "\u672d\u5e4c\u5e02", "addr:housenumber": "8", "addr:neighbourhood": "\u53174\u6761\u897f7\u4e01\u76ee", "addr:postcode": "060-0004", "addr:province": "\u5317\u6d77\u9053", "addr:suburb": "\u4e2d\u592e\u533a", "amenity": "hospital", "emergency": "yes", "healthcare": "hospital", "name": "\u6597\u5357\u75c5\u9662", "name:en": "Tonan Hospital", "name:ja": "\u6597\u5357\u75c5\u9662", "name:ja-Hira": "\u3068\u306a\u3093\u3073\u3087\u3046\u3044\u3093", "name:ja-Latn": "Tonan By\u014din", "operator": "\u56fd\u5bb6\u516c\u52d9\u54e1\u5171\u6e08\u7d44\u5408\u9023\u5408\u4f1a", "website": "https://www.tonan.kkr.or.jp/", "wikidata": "Q28465356"}}, {"type": "node", "id": 4895330632, "lat": 42.4290941, "lon": 140.0071388, "tags": {"amenity": "hospital", "name": "\u4eca\u91d1\u753a\u7dcf\u5408\u75c5\u9662"}}, {"type": "node", "id": 4943307121, "lat": 43.090818, "lon": 141.3580934, "tags": {"addr:postcode": "0650023", "amenity": "hospital", "email": "sjto2007@gmail.com", "healthcare": "hospital", "internet_access": "wlan", "name": "\u3055\u3068\u3046\u6574\u9aa8\u9662", "name:en": "satou judo therapy office", "opening_hours": "Su-Fr 09:00-20:00; Sa 09:00-18:00", "phone": "050-5876-8112", "website": "http://\u3055\u3068\u3046\u6574\u9aa8\u9662.com"}}, {"type": "node", "id": 4962958436, "lat": 43.0704164, "lon": 141.3280168, "tags": {"addr:block_number": "36", "addr:city": "\u672d\u5e4c\u5e02", "addr:housenumber": "13", "addr:neighbourhood": "\u531710\u6761\u897f17\u4e01\u76ee", "addr:postcode": "060-0010", "addr:province": "\u5317\u6d77\u9053", "addr:suburb": "\u4e2d\u592e\u533a", "amenity": "hospital", "healthcare": "hospital", "name": "\u672d\u5e4c\u6e13\u4ec1\u4f1a\u30ea\u30cf\u30d3\u30ea\u30c6\u30fc\u30b7\u30e7\u30f3\u75c5\u9662", "name:ja": "\u672d\u5e4c\u6e13\u4ec1\u4f1a\u30ea\u30cf\u30d3\u30ea\u30c6\u30fc\u30b7\u30e7\u30f3\u75c5\u9662", "operator": "\u6e13\u4ec1\u4f1a (\u533b\u7642\u6cd5\u4eba)", "operator:type": "private", "website": "https://www.keijinkai.com/keijinkai-reha/"}}, {"type": "node", "id": 4978372495, "lat": 43.0740806, "lon": 141.3491136, "tags": {"addr:block_number": "1", "addr:city": "\u672d\u5e4c\u5e02", "addr:housenumber": "15", "addr:neighbourhood": "\u531711\u6761\u897f3\u4e01\u76ee", "addr:postcode": "001-0011", "addr:province": "\u5317\u6d77\u9053", "addr:suburb": "\u5317\u533a", "amenity": "hospital", "healthcare": "hospital", "name": "\u592a\u9ed2\u80c3\u8178\u5185\u79d1\u75c5\u9662", "name:ja": "\u592a\u9ed2\u80c3\u8178\u5185\u79d1\u75c5\u9662", "operator": "\u592a\u9ed2\u80c3\u8178\u5185\u79d1\u75c5\u9662", "website": "http://www.oguro-hp.jp/"}}, {"type": "node", "id": 4978500422, "lat": 43.0766937, "lon": 141.3472812, "tags": {"addr:block_number": "2", "addr:city": "\u672d\u5e4c\u5e02", "addr:housenumber": "23", "addr:neighbourhood": "\u531713\u6761\u897f4\u4e01\u76ee", "addr:postcode": "001-0013", "addr:province": "\u5317\u6d77\u9053", "addr:suburb": "\u5317\u533a", "amenity": "hospital", "healthcare": "hospital", "name": "\u672d\u5e4c\u30de\u30bf\u30cb\u30c6\u30a3\u30fb\u30a6\u30a4\u30e1\u30f3\u30ba\u30db\u30b9\u30d4\u30bf\u30eb", "name:en": "Sapporo Maternity Women's Hospital", "name:ja": "\u672d\u5e4c\u30de\u30bf\u30cb\u30c6\u30a3\u30fb\u30a6\u30a4\u30e1\u30f3\u30ba\u30db\u30b9\u30d4\u30bf\u30eb", "phone": "011-746-5505", "website": "http://www.smwh.or.jp/", "wheelchair": "yes"}}, {"type": "node", "id": 4981242614, "lat": 43.0800926, "lon": 141.3458705, "tags": {"addr:block_number": "2", "addr:city": "\u672d\u5e4c\u5e02", "addr:housenumber": "17", "addr:neighbourhood": "\u531716\u6761\u897f4\u4e01\u76ee", "addr:postcode": "001-0016", "addr:province": "\u5317\u6d77\u9053", "addr:suburb": "\u5317\u533a", "amenity": "hospital", "healthcare": "hospital", "name": "\u5927\u585a\u773c\u79d1\u75c5\u9662", "name:en": "Otsuka Eye Hospital", "name:ja": "\u5927\u585a\u773c\u79d1\u75c5\u9662", "name:ja_rm": "\u014ctsuka Ganka By\u014din", "operator": "\u79c0\u7738\u4f1a (\u793e\u4f1a\u533b\u7642\u6cd5\u4eba)", "website": "http://www.ohtsuka-eye.com/", "wikidata": "Q30281015"}}, {"type": "node", "id": 4981624225, "lat": 40.690237, "lon": 141.3629416, "tags": {"amenity": "hospital", "name:en": "Urgent Care"}}, {"type": "node", "id": 4991398864, "lat": 43.081997, "lon": 141.3459737, "tags": {"addr:block_number": "1", "addr:city": "\u672d\u5e4c\u5e02", "addr:housenumber": "35", "addr:neighbourhood": "\u531718\u6761\u897f4\u4e01\u76ee", "addr:postcode": "001-0018", "addr:province": "\u5317\u6d77\u9053", "addr:suburb": "\u5317\u533a", "amenity": "hospital", "healthcare": "hospital", "healthcare:speciality": "orthopaedics", "name": "\u677e\u7530\u6574\u5f62\u5916\u79d1\u8a18\u5ff5\u75c5\u9662", "name:en": "Matsuda Orthopedic Memorial Hospital", "name:ja": "\u677e\u7530\u6574\u5f62\u5916\u79d1\u8a18\u5ff5\u75c5\u9662", "name:ja_rm": "Matsuda Seikei geka Kinen By\u014din", "website": "https://www.matsuda-oh.com/"}}, {"type": "node", "id": 5008555623, "lat": 43.0876627, "lon": 141.3397367, "tags": {"addr:block_number": "2", "addr:city": "\u672d\u5e4c\u5e02", "addr:housenumber": "1", "addr:neighbourhood": "\u531722\u6761\u897f7\u4e01\u76ee", "addr:postcode": "001-0022", "addr:province": "\u5317\u6d77\u9053", "addr:suburb": "\u5317\u533a", "amenity": "hospital", "healthcare": "hospital", "name": "\u4e2d\u6c5f\u75c5\u9662", "name:en": "Nakae Hospital", "name:ja": "\u4e2d\u6c5f\u75c5\u9662", "name:ja_rm": "Nakae By\u014din", "operator": "\u5fc3\u512a\u4f1a (\u533b\u7642\u6cd5\u4eba\u793e\u56e3)", "website": "http://www.shinyukai-r.or.jp/nakae/"}}, {"type": "node", "id": 5028668621, "lat": 42.4713436, "lon": 140.8611231, "tags": {"amenity": "hospital", "name": "\u83ca\u5730\u773c\u79d1"}}, {"type": "node", "id": 5031322707, "lat": 43.0913016, "lon": 141.3242491, "tags": {"addr:block_number": "2", "addr:city": "\u672d\u5e4c\u5e02", "addr:housenumber": "1", "addr:neighbourhood": "\u531725\u6761\u897f16\u4e01\u76ee", "addr:postcode": "001-0025", "addr:province": "\u5317\u6d77\u9053", "addr:suburb": "\u5317\u533a", "amenity": "hospital", "healthcare": "hospital", "name": "\u9577\u751f\u4f1a\u75c5\u9662", "name:ja": "\u9577\u751f\u4f1a\u75c5\u9662", "website": "https://choseikai.com/"}}, {"type": "node", "id": 5045600521, "lat": 44.0019427, "lon": 145.7916136, "tags": {"amenity": "hospital", "name": "\u0426\u0420\u0411, \u0422\u0435\u0440\u0430\u043f\u0435\u0432\u0442\u0438\u0447\u0435\u0441\u043a\u043e\u0435 \u043e\u0442\u0434\u0435\u043b\u0435\u043d\u0438\u0435 \u21162", "name:ru": "\u0426\u0420\u0411, \u0422\u0435\u0440\u0430\u043f\u0435\u0432\u0442\u0438\u0447\u0435\u0441\u043a\u043e\u0435 \u043e\u0442\u0434\u0435\u043b\u0435\u043d\u0438\u0435 \u21162", "opening_hours": "Tu-Su 08:00-20:00", "phone": "+74245522624"}}, {"type": "node", "id": 5047159734, "lat": 43.0999957, "lon": 141.3385856, "tags": {"addr:block_number": "2", "addr:city": "\u672d\u5e4c\u5e02", "addr:housenumber": "35", "addr:neighbourhood": "\u531733\u6761\u897f6\u4e01\u76ee", "addr:postcode": "001-0033", "addr:province": "\u5317\u6d77\u9053", "addr:suburb": "\u5317\u533a", "amenity": "hospital", "healthcare": "hospital", "name": "\u958b\u6210\u75c5\u9662", "name:en": "Kaisei Hospital", "name:ja": "\u958b\u6210\u75c5\u9662", "name:ja_rm": "Kaisei By\u014din", "operator": "\u5317\u6961\u4f1a (\u793e\u4f1a\u533b\u7642\u6cd5\u4eba)", "website": "http://www.h-kaisei-hosp.com/"}}, {"type": "node", "id": 5061227596, "lat": 43.1127852, "lon": 141.3371999, "tags": {"addr:block_number": "1", "addr:city": "\u672d\u5e4c\u5e02", "addr:housenumber": "1", "addr:neighbourhood": "1\u4e01\u76ee", "addr:postcode": "001-0909", "addr:province": "\u5317\u6d77\u9053", "addr:quarter": "\u65b0\u7434\u4f3c9\u6761", "addr:suburb": "\u5317\u533a", "amenity": "hospital", "healthcare": "hospital", "name": "\u5317\u672d\u5e4c\u75c5\u9662", "name:en": "Kita sapporo Hospital", "name:ja": "\u5317\u672d\u5e4c\u75c5\u9662", "name:ja_rm": "Kita sapporo By\u014din", "website": "http://kitasatsu.or.jp/"}}, {"type": "node", "id": 5072544141, "lat": 43.1029055, "lon": 141.3209904, "tags": {"addr:block_number": "2", "addr:city": "\u672d\u5e4c\u5e02", "addr:housenumber": "8", "addr:neighbourhood": "4\u4e01\u76ee", "addr:postcode": "001-0925", "addr:province": "\u5317\u6d77\u9053", "addr:quarter": "\u65b0\u5ddd5\u6761", "addr:suburb": "\u5317\u533a", "amenity": "hospital", "healthcare": "hospital", "name": "\u65b0\u5ddd\u65b0\u9053\u6574\u5f62\u5916\u79d1\u75c5\u9662", "name:en": "Shinkawa Shindo Orthopaedi Surgery Hopital", "name:ja": "\u65b0\u5ddd\u65b0\u9053\u6574\u5f62\u5916\u79d1\u75c5\u9662", "name:ja_rm": "Shinkawa Shind\u014d Seikeigeka By\u014din", "website": "https://shinkawashindo.com/"}}, {"type": "node", "id": 5078463722, "lat": 43.188245, "lon": 141.752651, "tags": {"amenity": "hospital", "healthcare": "hospital", "name": "\u5ca9\u898b\u6ca2\u5317\u7fd4\u4f1a\u75c5\u9662"}}, {"type": "node", "id": 5084874562, "lat": 43.1200025, "lon": 141.2987938, "tags": {"addr:block_number": "714", "addr:city": "\u672d\u5e4c\u5e02", "addr:housenumber": "2", "addr:postcode": "001-0930", "addr:province": "\u5317\u6d77\u9053", "addr:quarter": "\u65b0\u5ddd", "addr:suburb": "\u5317\u533a", "amenity": "hospital", "healthcare": "hospital", "name": "\u77f3\u91d1\u75c5\u9662", "name:en": "Ishikane Hospital", "name:ja": "\u77f3\u91d1\u75c5\u9662", "name:ja_rm": "Ishikane By\u014din", "operator": "\u670b\u53cb\u4f1a (\u7279\u5b9a\u533b\u7642\u6cd5\u4eba)", "website": "https://www.ishikane-hospital.or.jp/"}}, {"type": "node", "id": 5084885431, "lat": 43.1243085, "lon": 141.2874162, "tags": {"addr:block_number": "10", "addr:city": "\u672d\u5e4c\u5e02", "addr:housenumber": "1", "addr:neighbourhood": "2\u4e01\u76ee", "addr:postcode": "001-0933", "addr:province": "\u5317\u6d77\u9053", "addr:quarter": "\u65b0\u5ddd\u897f3\u6761", "addr:suburb": "\u5317\u533a", "amenity": "hospital", "name": "\u5317\u6210\u75c5\u9662", "name:en": "Hokusei Hospital", "name:ja": "\u5317\u6210\u75c5\u9662", "name:ja_rm": "Hokusei By\u014din", "operator": "\u5ef6\u5c71\u4f1a (\u793e\u4f1a\u533b\u7642\u6cd5\u4eba)", "website": "https://hokusei-hp.or.jp/"}}, {"type": "node", "id": 5087480762, "lat": 43.1047478, "lon": 141.3302071, "tags": {"addr:block_number": "1", "addr:city": "\u672d\u5e4c\u5e02", "addr:housenumber": "27", "addr:neighbourhood": "1\u4e01\u76ee", "addr:postcode": "001-0903", "addr:province": "\u5317\u6d77\u9053", "addr:quarter": "\u65b0\u7434\u4f3c3\u6761", "addr:suburb": "\u5317\u533a", "amenity": "hospital", "healthcare": "hospital", "name": "\u672d\u5e4c\u9234\u6728\u75c5\u9662", "name:en": "Sapporo Suzuki Hospital", "name:ja": "\u672d\u5e4c\u9234\u6728\u75c5\u9662", "name:ja_rm": "Sapporo Suzuki By\u014din", "operator": "\u7814\u6210\u4f1a (\u533b\u7642\u6cd5\u4eba)", "website": "http://www.sapporo-suzuki-hospital.jp/"}}, {"type": "node", "id": 5087571841, "lat": 43.1032189, "lon": 141.3252588, "tags": {"addr:block_number": "6", "addr:city": "\u672d\u5e4c\u5e02", "addr:housenumber": "25", "addr:neighbourhood": "2\u4e01\u76ee", "addr:postcode": "001-0901", "addr:province": "\u5317\u6d77\u9053", "addr:quarter": "\u65b0\u7434\u4f3c1\u6761", "addr:suburb": "\u5317\u533a", "amenity": "hospital", "healthcare": "hospital", "name": "\u7267\u7530\u75c5\u9662", "name:en": "Makita Hospital", "name:ja": "\u7267\u7530\u75c5\u9662", "name:ja_rm": "Makita By\u014din", "operator": "\u61b2\u4ec1\u4f1a (\u533b\u7642\u6cd5\u4eba\u793e\u56e3)", "website": "https://www.makita-hp.com/"}}, {"type": "node", "id": 5096664862, "lat": 43.1128279, "lon": 141.3326381, "tags": {"addr:block_number": "2", "addr:city": "\u672d\u5e4c\u5e02", "addr:housenumber": "5", "addr:neighbourhood": "2\u4e01\u76ee", "addr:postcode": "001-0908", "addr:province": "\u5317\u6d77\u9053", "addr:quarter": "\u65b0\u7434\u4f3c8\u6761", "addr:suburb": "\u5317\u533a", "amenity": "hospital", "healthcare": "hospital", "name": "\u9ebb\u751f\u6574\u5f62\u5916\u79d1\u75c5\u9662", "name:ja": "\u9ebb\u751f\u6574\u5f62\u5916\u79d1\u75c5\u9662", "website": "http://www.asabuseikei.or.jp/"}}, {"type": "node", "id": 5104240423, "lat": 43.191279, "lon": 141.752308, "tags": {"amenity": "hospital", "healthcare": "hospital", "name": "\u5ca9\u898b\u6ca2\u8133\u795e\u7d4c\u5916\u79d1"}}, {"type": "node", "id": 5121723821, "lat": 43.7082001, "lon": 144.019414, "tags": {"amenity": "hospital", "name": "\u6d5c\u5d0e\u6574\u9aa8\u9662"}}, {"type": "node", "id": 5147020721, "lat": 43.037535, "lon": 141.481073, "tags": {"amenity": "hospital", "name": "\u5317\u592e\u75c5\u9662", "name:en": "Hokuoh Hospital"}}, {"type": "node", "id": 5170391786, "lat": 43.1444078, "lon": 141.3169371, "tags": {"addr:block_number": "5", "addr:city": "\u672d\u5e4c\u5e02", "addr:housenumber": "1", "addr:neighbourhood": "12\u4e01\u76ee", "addr:postcode": "002-0859", "addr:province": "\u5317\u6d77\u9053", "addr:quarter": "\u5c6f\u75309\u6761", "addr:suburb": "\u5317\u533a", "amenity": "hospital", "healthcare": "hospital", "name": "\u5c0f\u539f\u75c5\u9662", "name:en": "Obara Hospital", "name:ja": "\u5c0f\u539f\u75c5\u9662", "name:ja_rm": "Obara By\u014din", "operator": "\u6804\u675c\u4f1a (\u533b\u7642\u6cd5\u4eba\u793e\u56e3)", "website": "https://www.spmed.jp/medi-map/detail/262"}}, {"type": "node", "id": 5170612119, "lat": 43.4825788, "lon": 141.9814617, "tags": {"amenity": "hospital", "healthcare": "hospital", "name": "\u52e4\u533b\u5354\u4e0a\u7802\u5ddd\u8a3a\u7642\u6240"}}, {"type": "node", "id": 5175728924, "lat": 48.9678175, "lon": 140.2954374, "tags": {"amenity": "hospital", "name": "\u0424\u0438\u0437\u0438\u043e\u043a\u0430\u0431\u0438\u043d\u0435\u0442"}}, {"type": "node", "id": 5201071639, "lat": 43.0178558, "lon": 141.4211156, "tags": {"addr:block_number": "7", "addr:city": "\u672d\u5e4c\u5e02", "addr:housenumber": "26", "addr:neighbourhood": "18\u4e01\u76ee", "addr:postcode": "062-0052", "addr:province": "\u5317\u6d77\u9053", "addr:quarter": "\u6708\u5bd2\u67712\u6761", "addr:suburb": "\u8c4a\u5e73\u533a", "amenity": "hospital", "healthcare": "hospital", "name": "\u672d\u5e4c\u3057\u3089\u304b\u3070\u53f0\u75c5\u9662", "name:en": "Sapporo Shirakaba-dai Hospital", "name:ja": "\u672d\u5e4c\u3057\u3089\u304b\u3070\u53f0\u75c5\u9662", "name:ja_rm": "Sapporo Shirakaba dai By\u014din", "operator": "\u5eb7\u548c\u4f1a (\u793e\u4f1a\u533b\u7642\u6cd5\u4eba)", "website": "http://www.kouwakai.or.jp/shirakabadai/"}}, {"type": "node", "id": 5209404236, "lat": 43.8091195, "lon": 143.8926092, "tags": {"amenity": "hospital", "name": "\u5317\u6d77\u9053\u7acb\u5317\u898b\u75c5\u9662", "wikidata": "Q11402959"}}, {"type": "node", "id": 5217053221, "lat": 43.043509, "lon": 141.464555, "tags": {"amenity": "hospital", "healthcare": "hospital", "name": "\u306a\u304b\u3084\u307e\u75c5\u9662"}}, {"type": "node", "id": 5220787421, "lat": 43.7526142, "lon": 142.3987635, "tags": {"amenity": "hospital", "name": "\u3055\u3068\u3046\u6574\u5f62\u5916\u79d1\u80c3\u8178\u79d1"}}, {"type": "node", "id": 5240149121, "lat": 43.029104, "lon": 141.453385, "tags": {"amenity": "hospital", "healthcare": "hospital", "name": "\u65b0\u672d\u5e4c\u8c4a\u548c\u4f1a\u75c5\u9662"}}, {"type": "node", "id": 5243568304, "lat": 43.1451575, "lon": 141.3540924, "tags": {"addr:block_number": "1", "addr:city": "\u672d\u5e4c\u5e02", "addr:housenumber": "92", "addr:neighbourhood": "2\u4e01\u76ee", "addr:postcode": "002-8023", "addr:province": "\u5317\u6d77\u9053", "addr:quarter": "\u7be0\u8def3\u6761", "addr:suburb": "\u5317\u533a", "amenity": "hospital", "healthcare": "hospital", "name": "\u8352\u6728\u75c5\u9662", "name:en": "Araki Hospital", "name:ja": "\u8352\u6728\u75c5\u9662", "name:ja_rm": "Araki By\u014din", "operator": "\u8352\u6728\u75c5\u9662 (\u533b\u7642\u6cd5\u4eba\u793e\u56e3)", "website": "http://www.araki-hospital.jp/"}}, {"type": "node", "id": 5248355877, "lat": 43.155151, "lon": 141.3640219, "tags": {"addr:block_number": "2", "addr:city": "\u672d\u5e4c\u5e02", "addr:housenumber": "3", "addr:neighbourhood": "6\u4e01\u76ee", "addr:postcode": "002-8029", "addr:province": "\u5317\u6d77\u9053", "addr:quarter": "\u7be0\u8def9\u6761", "addr:suburb": "\u5317\u533a", "amenity": "hospital", "healthcare": "hospital", "healthcare:speciality": "psychiatry;internal", "name": "\u4e94\u7a1c\u4f1a\u75c5\u9662", "name:en": "Goryokai Hospital", "name:ja": "\u4e94\u7a1c\u4f1a\u75c5\u9662", "name:ja_rm": "Gory\u014dkai By\u014din", "operator": "\u4e94\u7a1c\u4f1a\u75c5\u9662 (\u533b\u7642\u6cd5\u4eba\u793e\u56e3)"}}, {"type": "node", "id": 5251690494, "lat": 43.1646299, "lon": 141.357912, "tags": {"addr:block_number": "8", "addr:city": "\u672d\u5e4c\u5e02", "addr:housenumber": "25", "addr:neighbourhood": "2\u4e01\u76ee", "addr:postcode": "002-8042", "addr:province": "\u5317\u6d77\u9053", "addr:quarter": "\u6771\u8328\u62382\u6761", "addr:suburb": "\u5317\u533a", "amenity": "hospital", "healthcare": "hospital", "name": "\u672d\u5e4c\u512a\u7fd4\u9928\u75c5\u9662", "name:ja": "\u672d\u5e4c\u512a\u7fd4\u9928\u75c5\u9662", "website": "http://www.shoureikan.jp/yuushoukan/index.html"}}, {"type": "node", "id": 5323667006, "lat": 43.329442, "lon": 141.8704341, "tags": {"amenity": "hospital", "name": "\u5317\u6d77\u9053\u305b\u304d\u640d\u30bb\u30f3\u30bf\u30fc", "wheelchair": "yes", "wikidata": "Q17219025"}}, {"type": "node", "id": 5384964726, "lat": 42.9991296, "lon": 141.4391402, "tags": {"amenity": "hospital", "healthcare": "hospital", "name": "\u672d\u5e4c\u6e05\u7530\u75c5\u9662", "name:en": "Sapporo Kiyota Hospital"}}, {"type": "node", "id": 5394569689, "lat": 42.9713205, "lon": 143.208558, "tags": {"amenity": "hospital", "healthcare": "hospital", "name": "\u97f3\u66f4\u5b8f\u660e\u9928\u75c5\u9662"}}, {"type": "node", "id": 5417517122, "lat": 43.194428, "lon": 140.998379, "tags": {"amenity": "hospital", "healthcare": "hospital", "name": "\u5c0f\u6a3d\u6396\u6e08\u4f1a\u75c5\u9662", "wikidata": "Q24316229"}}, {"type": "node", "id": 5428527542, "lat": 40.557869, "lon": 141.450295, "tags": {"amenity": "hospital", "healthcare": "hospital", "name": "\u572d\u4ec1\u4f1a\u75c5\u9662"}}, {"type": "node", "id": 5435254901, "lat": 43.0582221, "lon": 141.3748758, "tags": {"addr:block_number": "3", "addr:city": "\u672d\u5e4c\u5e02", "addr:housenumber": "54", "addr:neighbourhood": "2\u4e01\u76ee", "addr:postcode": "003-0804", "addr:province": "\u5317\u6d77\u9053", "addr:quarter": "\u83ca\u6c344\u6761", "addr:suburb": "\u767d\u77f3\u533a", "amenity": "hospital", "emergency": "yes", "healthcare": "hospital", "name": "\u5317\u6d77\u9053\u304c\u3093\u30bb\u30f3\u30bf\u30fc", "name:en": "Hokkaido Cancer Center", "name:ja": "\u5317\u6d77\u9053\u304c\u3093\u30bb\u30f3\u30bf\u30fc", "name:ja_rm": "Hokkaid\u014d Gan Sent\u0101", "operator": "\u56fd\u7acb\u75c5\u9662\u6a5f\u69cb (\u72ec\u7acb\u884c\u653f\u6cd5\u4eba)", "website": "http://www.sap-cc.org/"}}, {"type": "node", "id": 5447548823, "lat": 40.4105966, "lon": 141.2792821, "tags": {"amenity": "hospital", "name": "\u5357\u90e8\u75c5\u9662"}}, {"type": "node", "id": 5466283536, "lat": 40.282328, "lon": 140.5588214, "tags": {"amenity": "hospital", "healthcare": "hospital", "name": "\u5927\u9928\u8a18\u5ff5\u75c5\u9662"}}, {"type": "node", "id": 5515879525, "lat": 43.1591804, "lon": 141.3977532, "tags": {"addr:city": "\u672d\u5e4c\u5e02", "addr:neighbourhood": "5\u4e01\u76ee", "addr:postcode": "002-8072", "addr:province": "\u5317\u6d77\u9053", "addr:quarter": "\u3042\u3044\u306e\u91cc2\u6761", "addr:suburb": "\u5317\u533a", "amenity": "hospital", "healthcare": "hospital", "name": "\u5317\u6d77\u9053\u533b\u7642\u5927\u5b66\u75c5\u9662", "name:en": "Health Sciences University of Hokkaido Hospital", "name:ja": "\u5317\u6d77\u9053\u533b\u7642\u5927\u5b66\u75c5\u9662", "name:ja_rm": "Hokkaid\u014d Iry\u014d Daigaku By\u014din", "operator": "\u5317\u6d77\u9053\u533b\u7642\u5927\u5b66", "website": "http://hospital.hoku-iryo-u.ac.jp/", "wikidata": "Q11402622"}}, {"type": "node", "id": 5539102521, "lat": 42.6039866, "lon": 141.4759413, "tags": {"amenity": "hospital", "name": "\u3046\u3057\u308d\u6728\u30af\u30ea\u30cb\u30c3\u30af"}}, {"type": "node", "id": 5539944083, "lat": 40.8561368, "lon": 141.1263821, "tags": {"amenity": "hospital", "name": "\u516c\u7acb\u91ce\u8fba\u5730\u75c5\u9662", "name:en": "Noheji Hospital"}}, {"type": "node", "id": 5549483129, "lat": 41.1809168, "lon": 140.4696144, "tags": {"amenity": "hospital", "name": "\u4eca\u5225\u75c5\u9662", "name:en": "Imabetsu Hospital"}}, {"type": "node", "id": 5571962850, "lat": 43.0192494, "lon": 144.3566908, "tags": {"amenity": "hospital", "name": "\u3046\u3048\u306f\u3089\u8033\u9f3b\u79d1"}}, {"type": "node", "id": 5608392525, "lat": 43.518477, "lon": 142.195603, "tags": {"amenity": "hospital", "name": "\u5e02\u7acb\u82a6\u5225\u75c5\u9662"}}, {"type": "node", "id": 5617546329, "lat": 42.8204718, "lon": 141.6479736, "tags": {"addr:block_number": "11", "addr:city": "\u5343\u6b73\u5e02", "addr:neighbourhood": "1\u4e01\u76ee", "addr:postcode": "066-0042", "addr:province": "\u5317\u6d77\u9053", "addr:quarter": "\u6771\u96f2\u753a", "amenity": "hospital", "healthcare": "hospital", "name": "\u5343\u6b73\u7b2c\u4e00\u75c5\u9662", "name:en": "Chitose daiichi Hospital", "name:ja": "\u5343\u6b73\u7b2c\u4e00\u75c5\u9662", "name:ja_rm": "Chitose daiichi By\u014din", "operator": "\u540c\u4ec1\u4f1a (\u533b\u7642\u6cd5\u4eba)", "website": "https://www.dojinkai-group.com/"}}, {"type": "node", "id": 5666923943, "lat": 42.8198279, "lon": 141.6242526, "tags": {"addr:block_number": "5", "addr:city": "\u5343\u6b73\u5e02", "addr:housenumber": "6", "addr:neighbourhood": "1\u4e01\u76ee", "addr:postcode": "066-0067", "addr:province": "\u5317\u6d77\u9053", "addr:quarter": "\u6842\u6728", "amenity": "hospital", "healthcare": "hospital", "name": "\u5343\u6b73\u75c5\u9662", "name:en": "Chitose Hospital", "name:ja": "\u5343\u6b73\u75c5\u9662", "name:ja_rm": "Chitose By\u014din", "operator": "\u8cc7\u751f\u4f1a (\u533b\u7642\u6cd5\u4eba)", "website": "https://www.siseikai.or.jp/chitose-hospital/"}}, {"type": "node", "id": 5682203860, "lat": 42.8353748, "lon": 141.644159, "tags": {"addr:block_number": "618", "addr:city": "\u5343\u6b73\u5e02", "addr:housenumber": "6", "addr:neighbourhood": "1\u4e01\u76ee", "addr:postcode": "066-0034", "addr:province": "\u5317\u6d77\u9053", "addr:quarter": "\u5bcc\u4e18", "amenity": "hospital", "healthcare": "hospital", "name": "\u5343\u6b73\u8c4a\u53cb\u4f1a\u75c5\u9662", "name:en": "Chitose Houyukai Hospital", "name:ja": "\u5343\u6b73\u8c4a\u53cb\u4f1a\u75c5\u9662", "name:ja_rm": "Chitose H\u014dy\u016bkai By\u014din", "operator": "\u8c4a\u53cb\u4f1a (\u533b\u7642\u6cd5\u4eba\u793e\u56e3)", "website": "https://www.foryou-hp.or.jp/"}},