{"version": 0.6, "generator": "Overpass API 0.7.61.5 4133829e", "osm3s": {"timestamp_osm_base": "2023-10-31T20:58:45Z", "copyright": "The data included in this document is from www.openstreetmap.org. The data is made available under ODbL."}, "elements": [{"type": "node", "id": 257489501, "lat": 42.6069472, "lon": -71.2180803, "tags": {"addr:city": "Tewksbury", "addr:housenumber": "365", "addr:state": "MA", "addr:street": "East Street", "amenity": "hospital", "attribution": "Office of Geographic and Environmental Information (MassGIS), Commonwealth of Massachusetts Executive Office of Environmental Affairs", "emergency": "no", "massgis:id": "122", "name": "Tewksbury Hospital", "source_url": "http://mass.gov/mgis/hospitals.htm", "wikidata": "Q7707206"}}, {"type": "node", "id": 257489564, "lat": 42.362739, "lon": -71.0701541, "tags": {"addr:city": "Boston", "addr:housenumber": "243", "addr:postcode": "02114", "addr:street": "Charles Street", "amenity": "hospital", "emergency": "yes", "emergency_room": "yes", "healthcare": "hospital", "healthcare:speciality:ophthalmology": "yes", "healthcare:speciality:otolaryngology": "yes", "massgis:id": "5", "name": "Massachusetts Eye and Ear", "opening_hours": "24/7", "phone": "+1 617 523 7900", "short_name": "Mass. Eye & Ear", "website": "https://www.masseyeandear.org/", "wikidata": "Q6784269", "wikipedia": "en:Massachusetts Eye and Ear"}}, {"type": "node", "id": 257489589, "lat": 41.6886763, "lon": -70.6017798, "tags": {"addr:city": "Bourne", "addr:housenumber": "830", "addr:postcode": "02559", "addr:street": "County Road", "amenity": "hospital", "emergency": "no", "healthcare": "hospital", "healthcare:speciality": "psychiatry", "massgis:id": "115", "name": "Pocasset Mental Health Center", "old_name": "Cape Cod & The Islands Mental Health Center", "phone": "+1 508 564 9600", "source:url": "http://mass.gov/mgis/hospitals.htm"}}, {"type": "node", "id": 257489648, "lat": 42.3498066, "lon": -71.0639959, "tags": {"addr:city": "Boston", "addr:housenumber": "755", "addr:postcode": "02111", "addr:street": "Washington Street", "amenity": "hospital", "emergency": "yes", "emergency_room": "yes", "healthcare": "hospital", "healthcare:speciality": "paediatrics", "name": "Floating Hospital for Children", "opening_hours": "24/7", "operator": "Tufts Medical Center", "phone": "+1 617 636 8100", "website": "https://www.floatinghospital.org/", "wikidata": "Q22073805", "wikipedia": "en:Tufts Children's Hospital"}}, {"type": "node", "id": 257489655, "lat": 42.5118445, "lon": -70.9064467, "tags": {"addr:city": "Salem", "addr:housenumber": "57", "addr:postcode": "01970", "addr:state": "MA", "addr:street": "Highland Avenue", "amenity": "hospital", "emergency": "yes", "gnis:feature_id": "2341626", "healthcare": "hospital", "healthcare:speciality": "paediatrics", "massgis:id": "139", "name": "MassGeneral for Children at North Shore Medical Center", "opening_hours": "24/7", "phone": "+1 978 745 2100", "website": "https://nsmc.partners.org/locations/nsmc_north_shore_childrens"}}, {"type": "node", "id": 257489657, "lat": 42.6461324, "lon": -71.3449728, "tags": {"addr:city": "Lowell", "addr:housenumber": "391", "addr:street": "Varnum Avenue", "amenity": "hospital", "attribution": "Office of Geographic and Environmental Information (MassGIS), Commonwealth of Massachusetts Executive Office of Environmental Affairs", "emergency": "no", "massgis:id": "142", "name": "Solomon Mental Health Center", "source_url": "http://mass.gov/mgis/hospitals.htm"}}, {"type": "node", "id": 257578331, "lat": 42.336038, "lon": -71.0707256, "tags": {"addr:city": "Boston", "addr:housenumber": "85", "addr:postcode": "02118", "addr:state": "MA", "addr:street": "East Newton Street", "amenity": "hospital", "attribution": "Office of Geographic and Environmental Information (MassGIS)", "beds": "60", "healthcare": "hospital", "healthcare:speciality": "psychiatry", "massgis:school_id": "00350860", "name": "Dr. Solomon Carter Fuller Mental Health Center", "phone": "617-626-8857", "source:url": "http://mass.gov/mgis/schools.htm", "type": "Private", "website": "https://www.mass.gov/locations/metro-boston-mental-health-unit-at-dr-solomon-carter-fuller-mental-health-center"}}, {"type": "node", "id": 356557575, "lat": 42.859373, "lon": -72.5626186, "tags": {"amenity": "hospital", "emergency": "no", "gnis:feature_id": "1921306", "healthcare": "hospital", "name": "Brattleboro Retreat", "phone": "+1 802 257 7785", "website": "https://www.brattlebororetreat.org/", "wikidata": "Q4958128", "wikipedia": "en:Brattleboro Retreat"}}, {"type": "node", "id": 357258005, "lat": 41.8118618, "lon": -71.4091293, "tags": {"addr:city": "Providence", "addr:housenumber": "593", "addr:postcode": "02903", "addr:state": "RI", "addr:street": "Eddy Street", "amenity": "hospital", "beds": "719", "emergency": "yes", "gnis:feature_id": "1219677", "healthcare": "hospital", "name": "Rhode Island Hospital", "note": "Emergency Room Open 24/7", "opening_hours": "24/7", "operator": "Lifespan", "phone": "+1 401 444 4000", "website": "https://www.rhodeislandhospital.org/", "wikidata": "Q7320925", "wikipedia": "en:Rhode Island Hospital"}}, {"type": "node", "id": 357268037, "lat": 41.8112657, "lon": -71.4079546, "tags": {"addr:city": "Providence", "addr:housenumber": "593", "addr:postcode": "02903", "addr:state": "RI", "addr:street": "Eddy Street", "amenity": "hospital", "emergency": "yes", "gnis:feature_id": "2475153", "healthcare": "hospital", "name": "Hasbro Children's Hospital", "opening_hours": "24/7", "operator": "Lifespan", "phone": "+1 401 444 4000", "website": "https://www.hasbrochildrenshospital.org/", "wikidata": "Q30279910"}}, {"type": "node", "id": 357268050, "lat": 41.8136063, "lon": -71.4128027, "tags": {"amenity": "hospital", "emergency": "no", "gnis:feature_id": "2475157", "healthcare": "hospital", "name": "Tavares Pediatric Center"}}, {"type": "node", "id": 357268056, "lat": 41.8107718, "lon": -71.4124738, "tags": {"addr:city": "Providence", "addr:housenumber": "101", "addr:postcode": "02905", "addr:street": "Dudley Street", "amenity": "hospital", "emergency": "yes", "gnis:feature_id": "2475159", "healthcare": "hospital", "name": "Women & Infants Hospital of Rhode Island", "phone": "+1 401 274 1100", "website": "https://www.care.com/b/l/the-tavares-pediatric-center-inc/providence-ri", "wikidata": "Q8031277", "wikipedia": "en:Women & Infants Hospital of Rhode Island"}}, {"type": "node", "id": 357330745, "lat": 40.4435492, "lon": -79.959846, "tags": {"addr:city": "Pittsburgh", "addr:housenumber": "3811", "addr:postcode": "15213", "addr:street": "O'Hara Street", "amenity": "hospital", "emergency": "no", "gnis:feature_id": "1196551", "healthcare": "hospital", "healthcare:speciality": "psychiatry", "name": "Western Psychiatric Institute & Clinic of UPMC", "opening_hours": "24/7", "operator": "University of Pittsburgh Medical Center", "operator:short": "UPMC", "operator:wikidata": "Q7896131", "operator:wikipedia": "en:University of Pittsburgh Medical Center", "phone": "+1 412 624 2100", "website": "https://www.upmc.com/locations/hospitals/western-psychiatric/"}}, {"type": "node", "id": 357363756, "lat": 40.9392303, "lon": -79.7483834, "tags": {"amenity": "hospital", "ele": "418", "emergency": "no", "gnis:county_id": "019", "gnis:created": "08/01/1989", "gnis:feature_id": "1212446", "gnis:state_id": "42", "name": "Chicora Medical Center"}}, {"type": "node", "id": 357382533, "lat": 40.4032315, "lon": -75.9222187, "tags": {"addr:city": "Temple", "addr:housenumber": "704", "addr:postcode": "19560", "addr:street": "Hay Road", "amenity": "hospital", "emergency": "no", "gnis:feature_id": "2488908", "healthcare": "hospital", "healthcare:speciality": "psychiatry", "name": "KidsPeace Berks Campus", "phone": "+1 610 929 4670", "website": "https://www.kidspeace.org/pa-community-programs/"}}, {"type": "node", "id": 357554659, "lat": 40.7704141, "lon": -73.9423116, "tags": {"addr:city": "Roosevelt Island", "addr:housenumber": "900", "addr:postcode": "10044", "addr:street": "Main Street", "amenity": "hospital", "emergency": "no", "gnis:feature_id": "947119", "healthcare": "hospital", "name": "NYC Health + Hospitals/Coler", "operator": "NYC Health + Hospitals/", "phone": "+1 212 848 6000", "website": "https://www.nychealthandhospitals.org/coler/", "wikidata": "Q5144596", "wikipedia": "en:Coler Specialty Hospital"}}, {"type": "node", "id": 357571909, "lat": 40.8800853, "lon": -73.8798439, "tags": {"addr:city": "Bronx", "addr:housenumber": "111", "addr:postcode": "10467", "addr:street": "East 210th Street", "amenity": "hospital", "beds": "726", "emergency": "yes", "gnis:feature_id": "957548", "healthcare": "hospital", "name": "Montefiore Medical Center West Campus Moses Division Hospital", "opening_hours": "24/7", "operator": "Montefiore Health System", "phone": "+1 718 920 4321", "website": "https://www.montefiore.org/west", "wikidata": "Q6905066", "wikipedia": "en:Montefiore Medical Center"}}, {"type": "node", "id": 357577391, "lat": 44.2672688, "lon": -73.9815381, "tags": {"addr:city": "Lake Placid", "addr:housenumber": "29", "addr:postcode": "12946", "addr:state": "NY", "addr:street": "Church Street", "amenity": "hospital", "emergency": "no", "gnis:feature_id": "960656", "healthcare": "hospital", "name": "Adirondack Medical Center at Lake Placid", "nysgissam:nysaddresspointid": "ESSE021233", "old_name": "Placid Memorial Hospital", "opening_hours": "08:00-23:00", "operator": "Adirondack Health", "phone": "+1 518 523 3311", "urgent_care": "yes", "website": "https://www.adirondackhealth.org/locations/adirondack-medical-center-at-lake-placid/"}}, {"type": "node", "id": 357582607, "lat": 41.0492869, "lon": -73.9677045, "tags": {"addr:city": "Orangeburg", "addr:flats": "1-2;204;39;6;95", "addr:housenumber": "140", "addr:postcode": "10962", "addr:state": "NY", "addr:street": "Old Orangeburg Road", "amenity": "hospital", "emergency": "no", "gnis:feature_id": "962759", "healthcare": "hospital", "healthcare:speciality": "psychiatry", "name": "Rockland Psychiatric Center", "nysgissam:nysaddresspointid": "ROCK108031;ROCK108026;ROCK108027;ROCK108029;ROCK108028;ROCK108030", "phone": "+1 845 359 1000", "website": "https://www.omh.ny.gov/omhweb/facilities/rppc/", "wikidata": "Q22061059", "wikipedia": "en:Rockland Psychiatric Center"}}, {"type": "node", "id": 357607632, "lat": 43.0458998, "lon": -76.1413131, "tags": {"addr:city": "Syracuse", "addr:housenumber": "620", "addr:postcode": "13210", "addr:state": "NY", "addr:street": "Madison Street", "alt_name": "Hutchings Psychiatric Center", "amenity": "hospital", "emergency": "no", "gnis:feature_id": "1993240", "healthcare": "hospital", "healthcare:speciality": "psychiatry", "name": "Richard H. Hutchings Psychiatric Center", "nysgissam:nysaddresspointid": "ONON178445", "phone": "+1 315 426 3600", "website": "https://www.omh.ny.gov/omhweb/facilities/hupc/"}}, {"type": "node", "id": 357607640, "lat": 40.8464723, "lon": -73.8388275, "tags": {"addr:city": "Bronx", "addr:housenumber": "1300", "addr:postcode": "10461", "addr:state": "NY", "addr:street": "Waters Place", "amenity": "hospital", "emergency": "no", "gnis:feature_id": "1993274", "healthcare": "hospital", "healthcare:speciality": "psychiatry", "name": "New York City Children's Center Bronx Campus", "phone": "+1 718 239 3600", "website": "https://www.omh.ny.gov/omhweb/facilities/nyccc/bcpc/"}}, {"type": "node", "id": 357607671, "lat": 41.0466794, "lon": -73.9690438, "tags": {"addr:city": "Orangeburg", "addr:housenumber": "2", "addr:postcode": "10962", "addr:street": "1st Avenue", "amenity": "hospital", "emergency": "no", "gnis:feature_id": "1993306", "healthcare": "hospital", "healthcare:speciality": "psychiatry", "name": "Rockland Children's Psychiatric Center", "phone": "+1 845 680 4000", "short_name": "RCPC", "website": "https://www.omh.ny.gov/omhweb/facilities/rcpc/"}}, {"type": "node", "id": 357607688, "lat": 40.7865276, "lon": -73.9322574, "tags": {"access": "private", "addr:city": "Wards Island", "addr:housenumber": "600", "addr:postcode": "10029", "addr:street": "East 125th Street", "amenity": "hospital", "emergency": "no", "gnis:feature_id": "1993311", "healthcare": "hospital", "healthcare:speciality": "psychiatry", "name": "Kirby Forensic Psychiatric Center", "phone": "+1 646 672 5800", "website": "https://www.omh.ny.gov/omhweb/facilities/krpc/", "wikidata": "Q78638788"}}, {"type": "node", "id": 357608132, "lat": 41.2661141, "lon": -73.6207032, "tags": {"addr:city": "Katonah", "addr:housenumber": "800", "addr:postcode": "10536", "addr:street": "Cross River Road", "amenity": "hospital", "emergency": "no", "gnis:feature_id": "2059983", "healthcare": "hospital", "healthcare:speciality": "psychiatry", "name": "Four Winds Hospital", "phone": "+1 914 763 8151", "website": "https://www.fourwindshospital.com/about_four_winds/westchester/index.html", "wikidata": "Q50039187"}}, {"type": "node", "id": 357611253, "lat": 40.8803581, "lon": -73.8813965, "tags": {"addr:city": "Bronx", "addr:housenumber": "3424", "addr:postcode": "10467", "addr:street": "Kossuth Avenue", "amenity": "hospital", "emergency": "yes", "gnis:feature_id": "2072352", "healthcare": "hospital", "name": "North Central Bronx Hospital", "opening_hours": "24/7", "operator": "NYC Health + Hospitals", "phone": "+1 718 519 5000", "website": "https://www.nychealthandhospitals.org/northcentralbronx/", "wikidata": "Q96396296"}}, {"type": "node", "id": 357616245, "lat": 40.7851459, "lon": -73.9279094, "tags": {"addr:city": "New York", "addr:housenumber": "13", "addr:postcode": "10029", "addr:street": "Hell Gate Circle", "amenity": "hospital", "beds": "231", "emergency": "no", "gnis:feature_id": "2076782", "healthcare": "hospital", "healthcare:speciality": "psychiatry", "name": "George Rosenfeld Center for Recovery", "old_name": "Manhattan Children's Psychiatric Center", "operator": "Odyssey House", "phone": "+1 212 426 6633", "short_name": "GRCR", "website": "https://odysseyhousenyc.org/george-rosenfeld-center-for-recovery/"}}, {"type": "node", "id": 357616936, "lat": 40.7538889, "lon": -73.7083333, "tags": {"addr:city": "New Hyde Park", "addr:housenumber": "269-01", "addr:postcode": "11040", "addr:street": "76th Avenue", "amenity": "hospital", "beds": "202", "emergency": "yes", "gnis:feature_id": "2079409", "healthcare": "hospital", "healthcare:speciality": "paediatrics", "name": "Cohen\u2019s Children\u2019s Medical Center", "old_name": "Helen and Irving Schneider Children's Hospital", "opening_hours": "24/7", "operator": "Northwell Health", "website": "https://childrenshospital.northwell.edu/"}}, {"type": "node", "id": 357620244, "lat": 40.7377778, "lon": -74.0008333, "tags": {"addr:city": "New York", "addr:housenumber": "30", "addr:postcode": "10011", "addr:street": "7th Avenue", "amenity": "hospital", "emergency": "yes", "gnis:feature_id": "2082882", "healthcare": "hospital", "name": "Lenox Health Greenwich Village", "opening_hours": "24/7", "operator": "Northwell Health", "operator:wikidata": "Q7056650", "operator:wikipedia": "en:Northwell Health", "phone": "+1 646 665 6000", "website": "https://www.northwell.edu/lenox-health-greenwich-village"}}, {"type": "node", "id": 357632457, "lat": 44.3377778, "lon": -75.9202778, "tags": {"addr:city": "Alexandria Bay", "addr:housenumber": "4", "addr:postcode": "13607", "addr:state": "NY", "addr:street": "Fuller Street", "amenity": "hospital", "ele": "80", "emergency": "yes", "gnis:county_id": "045", "gnis:created": "12/12/2007", "gnis:feature_id": "2368046", "gnis:state_id": "36", "healthcare:speciality": "acute;behavioral_health;cardiopulmonary;laboratory", "name": "River Hospital", "phone": "315-482-2511", "website": "https://www.riverhospital.org/"}}, {"type": "node", "id": 357642730, "lat": 40.7697091, "lon": -73.9529748, "tags": {"addr:city": "New York", "addr:housenumber": "420", "addr:postcode": "10021", "addr:street": "East 76th Street", "amenity": "hospital", "emergency": "no", "gnis:feature_id": "2420554", "healthcare": "hospital", "healthcare:speciality": "psychiatry", "name": "Gracie Square Hospital", "opening_hours": "24/7", "phone": "+1 212 434 5300", "website": "http://www.nygsh.org/", "wikidata": "Q5591536", "wikipedia": "en:Gracie Square Hospital"}}, {"type": "node", "id": 357642735, "lat": 40.7620381, "lon": -73.9553606, "tags": {"access": "private", "addr:city": "New York", "addr:housenumber": "1230", "addr:postcode": "10021", "addr:street": "York Avenue", "amenity": "hospital", "beds": "40", "emergency": "no", "gnis:feature_id": "2420556", "healthcare": "hospital", "name": "Rockefeller University Hospital", "note": "Specialty research hospital.", "phone": "+1 212 327 7511", "website": "https://rucares.org/", "wikidata": "Q30265216"}}, {"type": "node", "id": 357642745, "lat": 40.7318799, "lon": -73.9845807, "tags": {"addr:city": "New York", "addr:housenumber": "310", "addr:postcode": "10003", "addr:street": "East 14th Street", "amenity": "hospital", "emergency": "no", "gnis:feature_id": "2420559", "healthcare": "hospital", "healthcare:speciality": "ophthalmology;otolaryngology", "name": "New York Eye and Ear Infirmary of Mount Sinai", "operator": "Mount Sinai", "phone": "+1 212 979 4000", "short_name": "NYEE", "website": "http://www.nyee.edu/", "wikidata": "Q7013496", "wikipedia": "en:New York Eye and Ear Infirmary"}}, {"type": "node", "id": 357642750, "lat": 40.764233, "lon": -73.963647, "tags": {"addr:city": "New York", "addr:housenumber": "210", "addr:postcode": "10065", "addr:street": "East 64th Street", "amenity": "hospital", "emergency": "no", "gnis:feature_id": "2420561", "healthcare": "hospital", "name": "Manhattan Eye Ear and Throat Hospital", "operator": "Northwell Health", "operator:wikidata": "Q7056650", "operator:wikipedia": "en:Northwell Health", "phone": "+1 212 838 9200", "short_name": "MEETH", "website": "https://www.northwell.edu/find-care/locations/manhattan-eye-ear-and-throat-hospital", "wikidata": "Q6749254"}}, {"type": "node", "id": 357643658, "lat": 43.0386111, "lon": -76.1388889, "tags": {"access": "private", "addr:city": "Syracuse", "addr:housenumber": "800", "addr:postcode": "13210", "addr:street": "Irving Avenue", "amenity": "hospital", "emergency": "yes", "gnis:feature_id": "2426609", "healthcare": "hospital", "healthcare:for": "veterans", "name": "Syracuse Veterans Affairs Medical Center", "opening_hours": "24/7", "operator": "Veterans Health Administration", "operator:short": "VA", "operator:wikidata": "Q6580225", "operator:wikipedia": "en:Veterans Health Administration", "phone": "+1 315 425 4400", "short_name": "VA", "website": "https://www.syracuse.va.gov/"}}, {"type": "node", "id": 357643664, "lat": 43.0425629, "lon": -76.1401517, "tags": {"addr:city": "Syracuse", "addr:country": "US", "addr:housenumber": "750", "addr:postcode": "13210", "addr:state": "NY", "addr:street": "East Adams Street", "amenity": "hospital", "emergency": "yes", "gnis:feature_id": "2426611", "healthcare": "hospital", "name": "Upstate University Hospital", "opening_hours": "24/7", "operator": "State University of New York Upstate Medical University", "phone": "+1 315 464 5540", "website": "http://www.upstate.edu/hospital/", "wikidata": "Q30254105"}}, {"type": "node", "id": 357652216, "lat": 40.7536455, "lon": -73.8605021, "tags": {"addr:city": "Flushing", "addr:housenumber": "3702", "addr:postcode": "11368", "addr:state": "NY", "addr:street": "108th Street", "amenity": "hospital", "healthcare": "hospital", "healthcare:speciality": "paediatrics;clinic", "name": "Plaza del Sol Family Health Center"}}, {"type": "node", "id": 357717886, "lat": 40.7896434, "lon": -74.4892037, "tags": {"addr:city": "Morristown", "addr:housenumber": "95", "addr:postcode": "07960", "addr:street": "Mount Kemble Avenue", "amenity": "hospital", "emergency": "no", "gnis:feature_id": "874290", "healthcare": "hospital", "healthcare:speciality": "physiatry", "name": "Atlantic Rehabilitation Institute", "old_name": "All Souls Hospital", "phone": "+1 973 971 4451", "website": "https://www.atlantichealth.org/morristown/our-services/physical-rehabilitation.html"}}, {"type": "node", "id": 357718476, "lat": 40.4676046, "lon": -74.6837708, "tags": {"addr:city": "Belle Mead", "addr:housenumber": "252", "addr:postcode": "08502", "addr:street": "County Road 601", "amenity": "hospital", "emergency": "no", "gnis:feature_id": "874646", "healthcare": "hospital", "healthcare:speciality": "psychiatry", "name": "Carrier Clinic", "phone": "+1 800 933 3579", "website": "https://carrierclinic.org/", "wikidata": "Q5046342"}}, {"type": "node", "id": 357722763, "lat": 40.8388893, "lon": -74.5102538, "tags": {"addr:city": "Morris Plains", "addr:housenumber": "59", "addr:postcode": "07950", "addr:street": "Koch Avenue", "amenity": "hospital", "emergency": "no", "healthcare": "hospital", "healthcare:speciality": "psychiatry", "name": "Greystone Park Psychiatric Hospital", "phone": "+1 973 538 1800", "website": "https://www.nj.gov/humanservices/dmhs/oshm/gpph/", "wikidata": "Q19772163"}}, {"type": "node", "id": 357735225, "lat": 42.8717181, "lon": -71.1538108, "tags": {"addr:city": "Hampstead", "addr:housenumber": "218", "addr:postcode": "03841", "addr:state": "NH", "addr:street": "East Road", "amenity": "hospital", "emergency": "no", "gnis:feature_id": "1914287", "healthcare": "hospital", "name": "Hampstead Hospital", "operator": "Wellpath Recovery Solutions", "phone": "+1 603 329 5311", "website": "http://www.hampsteadhospital.com/"}}, {"type": "node", "id": 357737024, "lat": 42.9729986, "lon": -71.8731105, "tags": {"addr:city": "Greenfield", "addr:housenumber": "1", "addr:postcode": "03047", "addr:street": "Verney Drive", "amenity": "hospital", "emergency": "no", "gnis:feature_id": "1915309", "name": "Crotched Mountain Rehabilitation Center", "phone": "+1 603 547 3311", "website": "https://www.crotchedmountain.org/", "wikidata": "Q5188974", "wikipedia": "en:Crotched Mountain Rehabilitation Center"}}, {"type": "node", "id": 357744420, "lat": 40.7957041, "lon": -74.1718258, "tags": {"amenity": "hospital", "ele": "36", "emergency": "no", "gnis:county_id": "013", "gnis:created": "07/01/1981", "gnis:feature_id": "2056603", "gnis:state_id": "34", "name": "Essex County Isolation Hospital"}}, {"type": "node", "id": 358264814, "lat": 42.6089814, "lon": -71.2189466, "tags": {"amenity": "hospital", "ele": "47", "emergency": "no", "gnis:county_id": "017", "gnis:created": "08/27/2002", "gnis:feature_id": "603020", "gnis:state_id": "25", "healthcare": "hospital", "name": "Tewksbury State Hospital"}}, {"type": "node", "id": 359283462, "lat": 41.3042414, "lon": -72.9363307, "tags": {"addr:city": "New Haven", "addr:housenumber": "1", "addr:postcode": "06510", "addr:state": "CT", "addr:street": "Park Street", "amenity": "hospital", "emergency": "yes", "gnis:feature_id": "1933114", "healthcare": "hospital", "healthcare:speciality": "paediatrics", "name": "Yale New Haven Children's Hospital", "opening_hours": "24/7", "operator": "Yale New Haven Health", "phone": "+1 203 688 4242", "website": "https://www.ynhh.org/childrens-hospital.aspx", "wikidata": "Q91153398"}}, {"type": "node", "id": 366666875, "lat": 44.2203381, "lon": -72.5606633, "tags": {"addr:state": "VT", "amenity": "hospital", "ele": "303", "emergency": "yes", "gnis:county_name": "Washington", "gnis:feature_id": "1919019", "gnis:import_uuid": "57871b70-0100-4405-bb30-88b2e001a944", "gnis:reviewed": "no", "healthcare": "hospital", "name": "Central Vermont Hospital", "source": "USGS Geonames"}}, {"type": "node", "id": 488558419, "lat": 46.7284681, "lon": -70.3577557, "tags": {"amenity": "hospital", "name": "CLSC de Saint-Paul-de-Montminy"}}, {"type": "node", "id": 533898683, "lat": 45.4108725, "lon": -72.7231183, "tags": {"amenity": "hospital", "healthcare": "hospital", "name": "H\u00f4pital de Granby"}}, {"type": "node", "id": 942348904, "lat": 46.7285692, "lon": -72.5580276, "tags": {"amenity": "hospital", "name": "CSSS de la Vall\u00e9e-de-la-Batiscan"}}, {"type": "node", "id": 1096960819, "lat": 40.1367124, "lon": -75.3521696, "tags": {"addr:city": "Norristown", "addr:housenumber": "50", "addr:postcode": "19401", "addr:street": "Beech Drive", "amenity": "hospital", "emergency": "no", "healthcare": "hospital", "healthcare:speciality": "psychiatry", "name": "Montgomery County Emergency Service - Crisis Services", "opening_hours": "24/7", "phone": "+1 610 279 6100", "short_name": "MCES", "website": "http://www.mces.org/"}}, {"type": "node", "id": 1189509112, "lat": 48.4307858, "lon": -71.1951466, "tags": {"amenity": "hospital", "building": "yes", "source": "NRCan-CanVec-7.0"}}, {"type": "node", "id": 1207868206, "lat": 47.2141905, "lon": -72.675485, "tags": {"amenity": "hospital", "building": "yes", "source": "NRCan-CanVec-7.0"}}, {"type": "node", "id": 1547500680, "lat": 42.5381734, "lon": -78.9953199, "tags": {"amenity": "hospital", "emergency": "no", "name": "Seneca Nation of Indians Health Center", "source": "local knowledge"}}, {"type": "node", "id": 1547500725, "lat": 42.5390786, "lon": -78.9939842, "tags": {"amenity": "hospital", "emergency": "no", "name": "Seneca Nation of Indians Wellness Center", "source": "local knowledge"}}, {"type": "node", "id": 1557217627, "lat": 42.1583262, "lon": -78.7553266, "tags": {"amenity": "hospital", "emergency": "no", "healthcare": "hospital", "name": "LRJ Health Center", "source": "local knowledge"}}, {"type": "node", "id": 1581175993, "lat": 40.7464784, "lon": -73.9717941, "tags": {"addr:city": "New York", "addr:housenumber": "339", "addr:postcode": "10016", "addr:street": "East 38th Street", "amenity": "hospital", "emergency": "no", "entrance": "yes", "healthcare": "hospital", "healthcare:speciality": "surgery", "name": "NYU Langone Outpatient Surgery Center", "operator": "NYU Langone Health", "operator:wikidata": "Q6956114", "operator:wikipedia": "en:NYU Langone Health", "phone": "+1 212 263 1515", "website": "https://nyulangone.org/locations/nyu-langone-outpatient-surgery-center"}}, {"type": "node", "id": 1597758934, "lat": 45.5173887, "lon": -73.454981, "tags": {"amenity": "hospital", "name": "Clinique Medicale"}}, {"type": "node", "id": 1613759872, "lat": 42.0809061, "lon": -73.9443274, "tags": {"amenity": "hospital", "designation": "Ambulance service", "emergency": "no", "name": "Diaz Ambulance"}}, {"type": "node", "id": 1695365900, "lat": 42.2244752, "lon": -72.8709216, "tags": {"addr:city": "Huntington", "addr:housenumber": "73", "addr:postcode": "01050", "addr:state": "MA", "addr:street": "Russell Road", "amenity": "hospital", "emergency": "no", "name": "Huntington Health Center", "phone": "+1 413 667 3009", "website": "https://www.hchcweb.org/"}}, {"type": "node", "id": 1736588809, "lat": 42.3630381, "lon": -73.8323399, "tags": {"amenity": "hospital", "designation": "Clinic", "emergency": "no"}}, {"type": "node", "id": 1812157441, "lat": 47.6561446, "lon": -70.1517413, "tags": {"amenity": "hospital", "name": "H\u00f4pital de La Malbaie"}}, {"type": "node", "id": 1951827970, "lat": 46.8357714, "lon": -71.356585, "tags": {"amenity": "hospital", "emergency": "no", "healthcare": "hospital", "name": "Clinique M\u00e9dicale DuChatel"}}, {"type": "node", "id": 2026721635, "lat": 41.2266111, "lon": -77.0599495, "tags": {"amenity": "hospital", "emergency": "no", "healthcare": "hospital", "name": "Mid-State Occupational Health"}}, {"type": "node", "id": 2203361476, "lat": 45.5717048, "lon": -73.3263019, "tags": {"addr:city": "Sainte-Julie", "addr:housenumber": "99", "addr:province": "QC", "addr:street": "Boulevard des Hauts-Bois", "amenity": "hospital", "healthcare": "hospital", "name": "Clinique M\u00e9dicale des Haut-Bois"}}, {"type": "node", "id": 2315338215, "lat": 43.0421378, "lon": -76.1384432, "tags": {"addr:city": "Syracuse", "addr:country": "US", "addr:housenumber": "1", "addr:postcode": "13210", "addr:state": "NY", "addr:street": "Children's Circle", "amenity": "hospital", "emergency": "yes", "healthcare": "hospital", "healthcare:speciality": "paediatrics", "name": "Upstate Golisano Children's Hospital", "opening_hours": "24/7", "operator": "State University of New York Upstate Medical University", "phone": "315 464 5437", "website": "http://www.upstate.edu/gch/"}}, {"type": "node", "id": 2323810748, "lat": 45.5451318, "lon": -73.5445807, "tags": {"addr:city": "Montr\u00e9al", "addr:housenumber": "3600", "addr:postcode": "H1W 1R7", "addr:province": "QC", "addr:street": "Rue Ontario Est", "amenity": "hospital", "designation": "Clinique", "emergency": "yes", "healthcare": "hospital", "name": "Clinique m\u00e9dicale 3600", "opening_hours": "Mo-Fr 08:00-15:30", "phone": "+1-514-526-2556"}}, {"type": "node", "id": 2479690596, "lat": 42.1140432, "lon": -75.9583342, "tags": {"amenity": "hospital", "healthcare": "hospital", "name": "UHS Wilson Medical Center", "operator": "Universal Health Services", "operator:short": "UHS", "operator:wikidata": "Q7893967"}}, {"type": "node", "id": 2496131041, "lat": 45.6117513, "lon": -73.5270569, "tags": {"addr:city": "Montr\u00e9al-Est", "addr:housenumber": "9503", "addr:postcode": "H1L 6P2", "addr:province": "QC", "addr:street": "Rue Sherbrooke Est", "addr:suburb": "Mercier-Hochelaga-Maisonneuve", "amenity": "hospital", "healthcare": "hospital", "internet_access": "wlan", "internet_access:fee": "no", "name": "CLSC de Mercier-Est-Anjou", "phone": "+1 514 356 2572", "website": "https://cssspointe.ca/"}}, {"type": "node", "id": 2520616808, "lat": 42.1966392, "lon": -72.9213649, "tags": {"amenity": "hospital", "emergency": "no", "name": "Ski Patrol"}}, {"type": "node", "id": 2520616809, "lat": 42.194336, "lon": -72.9082452, "tags": {"amenity": "hospital", "emergency": "no", "name": "Ski Patrol"}}, {"type": "node", "id": 2629289562, "lat": 40.0975148, "lon": -77.0972028, "tags": {"amenity": "hospital", "emergency": "no", "healthcare": "centre", "name": "Shipley Health Lodge", "operator": "Camp Tuckahoe", "operator:type": "private_non_profit"}}, {"type": "node", "id": 2700040368, "lat": 41.7444041, "lon": -71.7297382, "tags": {"addr:housenumber": "54", "amenity": "hospital", "emergency": "no", "name": "Dr. Jerald Kupperberg, MD"}}, {"type": "node", "id": 2805194404, "lat": 40.9967602, "lon": -74.1083017, "tags": {"addr:city": "Ho-Ho-Kus", "addr:housenumber": "201", "addr:postcode": "07423", "addr:street": "Franklin Turnpike", "amenity": "hospital", "emergency": "no", "healthcare": "hospital", "name": "Valley Pediatric Associates"}}, {"type": "node", "id": 2810045562, "lat": 40.8803725, "lon": -73.878898, "tags": {"addr:city": "Bronx", "addr:housenumber": "3415", "addr:postcode": "10467", "addr:state": "NY", "addr:street": "Bainbridge Avenue", "amenity": "hospital", "healthcare": "hospital", "healthcare:speciality": "paediatrics", "name": "Children's Hospital at Montefiore", "operator": "Montefiore Medical Center", "operator:type": "private", "wikidata": "Q30279893"}}, {"type": "node", "id": 2822777418, "lat": 40.8937765, "lon": -73.8610822, "tags": {"addr:city": "Bronx", "addr:housenumber": "4141", "addr:postcode": "10466", "addr:state": "NY", "addr:street": "Carpenter Avenue", "amenity": "hospital", "healthcare": "hospital", "name": "Montefiore Medical Center - Wakefield Campus"}}, {"type": "node", "id": 2837699748, "lat": 40.7571143, "lon": -73.7833843, "tags": {"amenity": "hospital", "emergency": "no", "healthcare": "hospital", "name": "Quest Diagnostics"}}, {"type": "node", "id": 2882268230, "lat": 45.5759207, "lon": -73.7125559, "tags": {"addr:city": "Laval", "addr:housenumber": "500", "addr:postcode": "H7M 3Y2", "addr:province": "QC", "addr:street": "Boulevard Saint-Martin Ouest", "amenity": "hospital", "name": "Centre de Neuropsychologie et de Psychologie de Laval", "phone": "+1-514-312-7046", "website": "http://www.neuropsychologielaval.com/"}}, {"type": "node", "id": 2883383083, "lat": 40.7466452, "lon": -73.8258724, "tags": {"addr:housenumber": "139-01", "addr:postcode": "11355", "addr:street": "Booth Memorial Avenue", "amenity": "hospital", "healthcare": "hospital", "name": "Hospital Queens"}}, {"type": "node", "id": 2919498297, "lat": 44.0778304, "lon": -73.5141073, "tags": {"amenity": "hospital", "emergency": "no", "name": "Moriah Health Center"}}, {"type": "node", "id": 3222632975, "lat": 46.8148063, "lon": -71.211838, "tags": {"addr:city": "Qu\u00e9bec", "addr:housenumber": "6", "addr:province": "QC", "amenity": "hospital", "healthcare": "hospital", "name": "CRCEO", "operator": "H\u00f4tel-Dieu-de-Qu\u00e9bec"}}, {"type": "node", "id": 3635729635, "lat": 45.5364634, "lon": -73.573798, "tags": {"amenity": "hospital", "healthcare": "hospital", "name": "CLSC Le Plateau-Mont-Royal", "wheelchair": "yes"}}, {"type": "node", "id": 3843267788, "lat": 43.5632407, "lon": -73.7749423, "tags": {"amenity": "hospital", "emergency": "no", "name": "Forest Lake Camp infirmary"}}, {"type": "node", "id": 4015260292, "lat": 40.586007, "lon": -73.9520958, "tags": {"addr:city": "Brooklyn", "addr:housenumber": "1672", "addr:postcode": "11235", "addr:state": "NY", "addr:street": "Sheepshead Bay Road", "amenity": "hospital", "atm": "yes", "drive_through": "no", "healthcare": "hospital", "name": "Triborough GI", "opening_hours": "Mo-Fr 09:00-17:00; Th 09:00-19:00; Sa 09:00-14:00", "phone": "+1-718-648-7400"}}, {"type": "node", "id": 4181966843, "lat": 45.6358827, "lon": -72.9593587, "tags": {"amenity": "hospital", "healthcare": "hospital", "name": "Urgence"}}, {"type": "node", "id": 4838414489, "lat": 48.22839, "lon": -79.0125951, "tags": {"addr:city": "Rouyn-Noranda", "addr:housenumber": "539", "addr:postcode": "J9X 4J3", "addr:street": "Avenue Larivi\u00e8re", "amenity": "hospital", "name": "Clinique v\u00e9t\u00e9rinaire Marquis"}}, {"type": "node", "id": 4972039823, "lat": 45.2778825, "lon": -73.2563505, "tags": {"addr:city": "Saint-Jean-sur-Richelieu", "addr:housenumber": "397", "addr:postcode": "J3B 7T1", "addr:street": "Rue Jacques-Cartier Sud", "amenity": "hospital", "name": "Clinique M\u00e9dicale St-Eug\u00e8ne"}}, {"type": "node", "id": 4972041658, "lat": 45.2779988, "lon": -73.2563543, "tags": {"addr:city": "Saint-Jean-sur-Richelieu", "addr:housenumber": "395", "addr:postcode": "J3B 7T1", "addr:street": "Rue Jacques-Cartier Sud", "amenity": "hospital", "name": "Pharmacie Besette & Gince"}}, {"type": "node", "id": 5366311662, "lat": 40.7543321, "lon": -73.7088257, "tags": {"addr:city": "New Hyde Park", "addr:housenumber": "270-05", "addr:postcode": "11040", "addr:street": "76th Avenue", "amenity": "hospital", "emergency": "no", "healthcare": "hospital", "name": "Katz Women's Hospital", "operator": "Northwell Health", "phone": "+1 855 850 5494", "website": "https://www.northwell.edu/find-care/locations/katz-womens-hospital-long-island-jewish-medical-center"}}, {"type": "node", "id": 5408870771, "lat": 41.0860492, "lon": -73.8049373, "tags": {"addr:city": "Valhalla", "addr:housenumber": "100", "addr:postcode": "10595", "addr:street": "Woods Road", "amenity": "hospital", "emergency": "yes", "healthcare": "hospital", "healthcare:speciality": "paediatrics", "name": "Maria Fareri Children's Hospital", "opening_hours": "24/7", "operator": "Westchester Medical Center Health Network", "phone": "+1 914 493 7000", "website": "https://www.mariafarerichildrens.org/", "wikidata": "Q17020173", "wikipedia": "en:Maria Fareri Children's Hospital"}}, {"type": "node", "id": 5421562461, "lat": 40.765164, "lon": -73.9526899, "tags": {"addr:city": "New York", "addr:housenumber": "535", "addr:postcode": "10021", "addr:street": "East 70th Street", "amenity": "hospital", "beds": "215", "emergency": "no", "gnis:feature_id": "1984534", "healthcare": "hospital", "healthcare:speciality": "orthopaedics", "name": "Hospital for Special Surgery", "nycdoitt:bin": "1046255", "phone": "+1 877 606 1555", "website": "https://www.hss.edu/", "wikidata": "Q5908726", "wikipedia": "en:Hospital for Special Surgery"}}, {"type": "node", "id": 5599581921, "lat": 40.804048, "lon": -73.9342033, "tags": {"addr:housenumber": "225", "addr:postcode": "10035", "addr:street": "East 126th Street", "amenity": "hospital", "healthcare": "hospital", "name": "New York Proton Center", "website": "https://www.nyproton.com/"}}, {"type": "node", "id": 5610228229, "lat": 41.8027338, "lon": -72.7295494, "tags": {"addr:city": "West Hartford", "addr:housenumber": "1", "addr:postcode": "06117", "addr:state": "CT", "addr:street": "Abrahms Boulevard", "amenity": "hospital", "emergency": "no", "healthcare": "hospital", "name": "Hebrew Senior Care", "website": "http://www.hebrewhealthcare.org/"}}, {"type": "node", "id": 5641614323, "lat": 40.6872072, "lon": -75.2425379, "tags": {"addr:city": "Easton", "addr:housenumber": "250", "addr:postcode": "18042", "addr:state": "PA", "addr:street": "South 21st Street", "amenity": "hospital", "emergency": "yes", "healthcare": "hospital", "healthcare:speciality": "general;internal;paediatrics;dermatology;urology", "name": "Easton Hospital"}}, {"type": "node", "id": 5672721040, "lat": 40.1810128, "lon": -74.8850548, "tags": {"addr:city": "Langhorne", "addr:housenumber": "280", "addr:postcode": "19047", "addr:street": "Middletown Boulevard", "amenity": "hospital", "emergency": "no", "healthcare": "hospital", "healthcare:speciality": "bariatric_surgery", "name": "Barix Clinics", "phone": "+1 267 572 3100", "website": "https://www.barixclinics.com/bariatric-surgery-pennsylvania"}}, {"type": "node", "id": 5784468453, "lat": 40.6064031, "lon": -73.9605551, "tags": {"amenity": "hospital", "healthcare": "hospital", "healthcare:speciality": "cardiology", "name": "cardiology"}}, {"type": "node", "id": 5916175885, "lat": 40.5996696, "lon": -73.9965176, "tags": {"amenity": "hospital", "healthcare": "hospital", "name": "Back to health"}}, {"type": "node", "id": 6045118778, "lat": 40.0425018, "lon": -75.3582152, "tags": {"amenity": "hospital", "healthcare": "hospital", "name": "Penn Medicine Radnor"}}, {"type": "node", "id": 6149803343, "lat": 45.4923608, "lon": -72.3194723, "tags": {"amenity": "hospital"}}, {"type": "node", "id": 6157505285, "lat": 40.6016008, "lon": -73.9945286, "tags": {"amenity": "hospital", "healthcare": "hospital", "name": "Cohen Children's Northwell Health"}}, {"type": "node", "id": 6157505385, "lat": 40.6165652, "lon": -74.024444, "tags": {"amenity": "hospital", "healthcare": "hospital", "name": "Girling Health Care"}}, {"type": "node", "id": 6164975027, "lat": 46.7996129, "lon": -71.1880482, "tags": {"amenity": "hospital", "healthcare": "hospital", "name": "Maison de soins palliatifs du Littoral"}}, {"type": "node", "id": 6242987488, "lat": 40.6078075, "lon": -73.9642165, "tags": {"amenity": "hospital", "name": "Midwood medical Plaza"}}, {"type": "node", "id": 6371234222, "lat": 40.668584, "lon": -74.5576158, "tags": {"addr:city": "Lyons", "addr:housenumber": "151", "addr:postcode": "07939", "addr:state": "NJ", "addr:street": "Knollcroft Road", "amenity": "hospital", "emergency": "no", "healthcare": "hospital", "healthcare:for": "veterans", "healthcare:speciality": "Veterans", "name": "VA New Jersey Health Care System - Lyons Campus", "operator": "Veterans Health Administration", "operator:short": "VA", "operator:type": "government", "operator:wikidata": "Q6580225", "operator:wikipedia": "en:Veterans Health Administration", "short_name": "VA"}}, {"type": "node", "id": 6443787955, "lat": 40.6910042, "lon": -73.3463507, "tags": {"addr:city": "West Babylon", "addr:housenumber": "134", "addr:postcode": "11704", "addr:state": "NY", "addr:street": "Great East Neck Road", "amenity": "hospital", "healthcare": "hospital", "name": "East Neck Nursing and Rehabilitation Center"}}, {"type": "node", "id": 6504841070, "lat": 41.1138494, "lon": -73.4214193, "tags": {"addr:city": "Norwalk", "addr:housenumber": "23", "addr:postcode": "06850", "addr:state": "CT", "addr:street": "Prospect Road", "amenity": "hospital", "healthcare": "hospital", "name": "Cassena Care At Norwalk", "operator": "Cassena Care"}}, {"type": "node", "id": 6680014270, "lat": 42.3138278, "lon": -71.7707002, "tags": {"amenity": "hospital", "fixme": "specialty hospital", "name": "Hospital for Behavioral Medicine"}}, {"type": "node", "id": 6697951088, "lat": 40.179812, "lon": -76.1793883, "tags": {"addr:city": "Ephrata", "addr:housenumber": "112", "addr:postcode": "17522", "addr:state": "PA", "addr:street": "West Main Street", "amenity": "hospital", "description": "Pregnancy resource center in Ephrata, PA. All services are 100% free: Free pregnancy tests, limited 1st trimester ultrasounds, abortion info, and practical help.", "email": "ephrata@alignpregnancyservices.com", "fax": "+1-717-588-2060", "healthcare": "hospital", "healthcare:speciality": "pregnancy", "name": "Align Pregnancy Services Ephrata", "opening_hours": "Mo-Tu 09:00-20:00, We 9:00-12:00, Th 9:00-17:00", "operator": "Align Pregnancy Services", "operator:type": "private_non_profit", "phone": "+1-717-733-9440", "website": "https://alignpregnancyservices.com/locations/ephrata-pregnancy-services/", "wheelchair": "limited"}}, {"type": "node", "id": 6770816673, "lat": 40.3217464, "lon": -78.9216592, "tags": {"addr:city": "Johnstown", "addr:housenumber": "337", "addr:postcode": "15901", "addr:state": "PA", "addr:street": "Somerset Street", "amenity": "hospital", "healthcare": "hospital", "name": "John P. Murtha Cancer Center"}}, {"type": "node", "id": 7011939647, "lat": 40.8640182, "lon": -74.1184489, "tags": {"addr:city": "Passaic", "addr:housenumber": "220", "addr:postcode": "07055", "addr:state": "NJ", "addr:street": "Passaic Street", "amenity": "hospital", "emergency": "no", "healthcare": "hospital", "healthcare:speciality": "gynaecology;general;internal;dentist", "name": "North Hudson Community Action Corporation", "operator": "North Hudson", "operator:type": "community", "phone": "(201) 210-0200"}}, {"type": "node", "id": 7096368072, "lat": 41.0099869, "lon": -73.7261034, "tags": {"amenity": "hospital", "healthcare": "hospital", "name": "Hospital For Special Surgery", "phone": "+1 877 960 1165", "website": "https://www.hss.edu/hss-westchester.asp"}}, {"type": "node", "id": 7278441828, "lat": 40.9116455, "lon": -73.839837, "tags": {"addr:city": "Mount Vernon", "addr:housenumber": "105", "addr:postcode": "10550", "addr:state": "NY", "addr:street": "Stevens Avenue", "addr:unit": "#506", "amenity": "hospital", "healthcare": "hospital", "healthcare:speciality": "gynaecology", "name": "Westchester Women's Medical Healthcare", "nysgissam:nysaddresspointid": "WEST074065", "phone": "+1-914-205-4351", "website": "https://www.westchesterwomens.com/"}}, {"type": "node", "id": 7299435868, "lat": 40.3641903, "lon": -75.3253395, "tags": {"amenity": "hospital", "healthcare": "hospital", "name": "Penn Foundation"}}, {"type": "node", "id": 7387171070, "lat": 46.6064052, "lon": -72.7077784, "tags": {"addr:city": "Shawinigan", "addr:housenumber": "1650", "addr:postcode": "G9T 2K2", "addr:province": "Qu\u00e9bec", "addr:street": "Avenue de Grand-M\u00e8re", "amenity": "hospital", "healthcare": "hospital", "name": "Centre ambulatoire du CSSS de l'\u00c9nergie"}}, {"type": "node", "id": 7461102674, "lat": 40.0574174, "lon": -74.1387053, "tags": {"addr:city": "Brick Township", "addr:housenumber": "8", "addr:postcode": "08723", "addr:state": "NJ", "addr:street": "Brick Plaza", "amenity": "hospital", "emergency": "yes", "healthcare": "hospital", "healthcare:speciality": "general", "name": "Immediate Care Medical Walk-In of Brick"}}, {"type": "node", "id": 7463163965, "lat": 41.0959963, "lon": -73.9262204, "tags": {"amenity": "hospital", "emergency": "yes", "healthcare": "hospital", "name": "Nyack Hospital"}}, {"type": "node", "id": 7551913197, "lat": 40.2302484, "lon": -74.7776778, "tags": {"amenity": "hospital", "healthcare": "hospital", "name": "Capital Health Mercer Campus (former)"}}, {"type": "node", "id": 7801954469, "lat": 42.1643893, "lon": -75.1284362, "tags": {"amenity": "hospital"}}, {"type": "node", "id": 7902927052, "lat": 40.7436772, "lon": -74.1744067, "tags": {"amenity": "hospital", "healthcare": "hospital"}}, {"type": "node", "id": 7952356821, "lat": 40.5626663, "lon": -76.0037514, "tags": {"addr:city": "Hamburg", "addr:housenumber": "9", "addr:postcode": "19526", "addr:state": "PA", "addr:street": "daves way", "amenity": "hospital", "healthcare": "hospital", "name": "st. lukes"}}, {"type": "node", "id": 8105845200, "lat": 40.718289, "lon": -73.9582489, "tags": {"addr:city": "Brooklyn", "addr:housenumber": "135", "addr:postcode": "11211", "addr:state": "NY", "addr:street": "North 7th Street", "amenity": "hospital", "healthcare": "hospital", "internet_access": "yes", "name": "Mount Sinai Doctors - Williamsburg"}}, {"type": "node", "id": 8150343107, "lat": 41.1654028, "lon": -73.4699339, "tags": {"addr:city": "New Canaan", "addr:housenumber": "208", "addr:postcode": "06840", "addr:state": "CT", "addr:street": "Valley Road", "amenity": "hospital", "beds": "129", "healthcare": "hospital", "healthcare:speciality": "psychiatry", "name": "Silver Hill Hospital", "phone": "+1 866 542 4455", "website": "https://www.silverhillhospital.org/home"}}, {"type": "node", "id": 8238077529, "lat": 42.356559, "lon": -77.6636904, "tags": {"addr:city": "Hornell", "addr:housenumber": "7329", "addr:postcode": "14843", "addr:state": "NY", "addr:street": "Seneca Road North", "amenity": "hospital", "name": "St. James Hospital", "phone": "+1 607-247-2200", "website": "https://www.urmc.rochester.edu/st-james/patients-visitors/location-maps.aspx"}}, {"type": "node", "id": 8340513706, "lat": 45.4472252, "lon": -71.8709734, "tags": {"amenity": "hospital", "emergency": "yes", "name": "Urgence", "operator": "CHUS - Fleurimone"}}, {"type": "node", "id": 8372733079, "lat": 41.7868679, "lon": -71.4720917, "tags": {"addr:city": "Cranston", "addr:housenumber": "395", "addr:postcode": "02920", "addr:state": "RI", "addr:street": "Atwood Avenue", "amenity": "hospital", "healthcare": "hospital", "name": "Cardiovascular Institute of New England", "note": "COVID-19 Alert: Call your doctor before visiting if you may have COVID-19. Source: CDC", "phone": "+14014649751", "website": "https://www.necardiologists.com/contact-locations/"}}, {"type": "node", "id": 8418877764, "lat": 40.5330778, "lon": -74.2391529, "tags": {"amenity": "hospital", "healthcare": "hospital", "name": "Richmond University Medical Center"}}, {"type": "node", "id": 8454635711, "lat": 42.9183625, "lon": -78.8677919, "tags": {"addr:city": "Buffalo", "addr:floor": "Floor 1;Floor 2;Floor 3", "addr:housenumber": "1263", "addr:postcode": "14209", "addr:state": "NY", "addr:street": "Delaware Avenue", "amenity": "hospital", "beds": "88", "healthcare": "hospital", "healthcare:speciality": "psychiatry", "name": "Brylin Hospital", "nysgissam:nysaddresspointid": "ERIE130841;ERIE447156;ERIE362576;ERIE358900", "phone": "+1 716 886 8200", "website": "https://www.brylin.com"}}, {"type": "node", "id": 8457918967, "lat": 42.7802565, "lon": -78.7726454, "tags": {"addr:city": "Orchard Park", "addr:floor": "Floor 1", "addr:housenumber": "3669", "addr:postcode": "14127", "addr:state": "NY", "addr:street": "Southwestern Boulevard", "amenity": "hospital", "beds": "2", "emergency": "yes", "healthcare": "hospital", "name": "Mercy Hospital - Mercy Hospital Orchard Park Division", "nysgissam:nysaddresspointid": "ERIE338537;ERIE442280", "phone": "+1 716 662 0500", "website": "https://www.chsbuffalo.org/facilities/diagnostic/mercyambulatorycarecenter"}}, {"type": "node", "id": 8653216794, "lat": 40.9576992, "lon": -74.2460139, "tags": {"addr:city": "Wayne", "addr:housenumber": "1500", "addr:postcode": "07470", "addr:state": "NJ", "addr:street": "Alps Road", "addr:unit": "100", "amenity": "hospital", "healthcare": "hospital", "name": "Comprehensive Health Care"}}, {"type": "node", "id": 8688824259, "lat": 42.3334252, "lon": -71.0755668, "tags": {"amenity": "hospital", "healthcare": "hospital", "name": "Commonwealth Community Care"}}, {"type": "node", "id": 8696653777, "lat": 40.9295208, "lon": -74.2269647, "tags": {"addr:city": "Wayne", "addr:housenumber": "504", "addr:postcode": "07470", "addr:state": "NJ", "addr:street": "Valley Road", "amenity": "hospital", "healthcare": "hospital", "healthcare:speciality": "orthopaedics", "name": "University Spine Center"}}, {"type": "node", "id": 8754960311, "lat": 40.9368051, "lon": -74.2046105, "tags": {"addr:city": "Wayne", "addr:housenumber": "305", "addr:postcode": "07470", "addr:state": "NJ", "addr:street": "Oldham Road", "amenity": "hospital", "healthcare": "hospital", "name": "Fresenius Medical Care at Preakness Healthcare Center"}}, {"type": "node", "id": 8754960317, "lat": 40.9369693, "lon": -74.2046405, "tags": {"addr:city": "Wayne", "addr:postcode": "07470", "addr:state": "NJ", "amenity": "hospital", "healthcare": "hospital", "name": "Ancelmo Hospital"}}, {"type": "node", "id": 8763501318, "lat": 40.9358328, "lon": -74.2030421, "tags": {"addr:city": "Wayne", "addr:housenumber": "350", "addr:postcode": "07470", "addr:state": "NJ", "addr:street": "Oldham Road", "amenity": "hospital", "healthcare": "hospital", "name": "Preakness healthcare"}}, {"type": "node", "id": 8881802262, "lat": 41.4581791, "lon": -72.8150705, "tags": {"addr:city": "Wallingford", "addr:housenumber": "283", "addr:postcode": "06492", "addr:state": "CT", "addr:street": "North Main Street", "amenity": "hospital", "healthcare": "hospital"}}, {"type": "node", "id": 8888300330, "lat": 40.810354, "lon": -75.7478992, "tags": {"addr:city": "Lehighton", "addr:housenumber": "2128", "addr:postcode": "18235", "addr:state": "PA", "addr:street": "E Blakeslee BLVD DR", "amenity": "hospital", "emergency": "yes", "healthcare": "hospital", "name": "Lehigh Valley Hospital - Carbon", "operator": "Lehigh Valley Health Network", "operator:type": "private"}}, {"type": "node", "id": 8888314655, "lat": 40.8330947, "lon": -75.725971, "tags": {"addr:city": "Lehighton", "addr:housenumber": "211", "addr:postcode": "18235", "addr:state": "PA", "addr:street": "N 12th ST", "amenity": "hospital", "emergency": "yes", "healthcare": "hospital", "name": "St Luke's Hospital - Lehighton Campus", "operator": "St Luke's University Health Network", "operator:type": "private"}}, {"type": "node", "id": 8888314656, "lat": 40.833943, "lon": -75.7257376, "tags": {"addr:city": "Lehighton", "addr:housenumber": "211", "addr:postcode": "18235", "addr:state": "PA", "addr:street": "N 12th ST", "amenity": "hospital", "emergency": "no", "healthcare": "hospital", "name": "The Summit Nursing & Rehabilitation Center", "operator": "St Luke's University Health Network", "operator:type": "private"}}, {"type": "node", "id": 8888408878, "lat": 40.8449968, "lon": -75.6723265, "tags": {"addr:city": "Lehighton", "addr:housenumber": "500", "addr:postcode": "18235", "addr:state": "PA", "addr:street": "St Luke's DR", "amenity": "hospital", "emergency": "yes", "healthcare": "hospital", "healthcare:speciality": "general", "name": "St Luke's Hospital - Carbon Campus", "operator": "St Luke's University Health Network", "operator:type": "private"}}, {"type": "node", "id": 9058036347, "lat": 40.8890355, "lon": -74.2492247, "tags": {"addr:city": "Wayne", "addr:housenumber": "57", "addr:postcode": "07470", "addr:state": "NJ", "addr:street": "Willowbrook Boulevard", "addr:unit": "421", "amenity": "hospital", "healthcare": "hospital", "healthcare:speciality": "paediatrics", "name": "Willowbrook Pediatrics"}}, {"type": "node", "id": 9082400918, "lat": 41.6860669, "lon": -72.8539444, "tags": {"addr:housenumber": "269", "addr:postcode": "06062", "addr:street": "Farmington Avenue", "amenity": "hospital", "healthcare": "hospital", "name": "Apple Rehab"}}, {"type": "node", "id": 9137294605, "lat": 41.7093972, "lon": -74.7372776, "tags": {"amenity": "hospital", "fixme": "check", "name": "Garnet Health Medical Center - Catskills, Harris Campus", "website": "https://www.garnethealth.org/"}}, {"type": "node", "id": 9293752867, "lat": 42.130892, "lon": -75.9598061, "tags": {"addr:city": "Johnson City", "addr:housenumber": "530", "addr:postcode": "13790", "addr:state": "NY", "addr:street": "Columbia Drive", "amenity": "hospital", "healthcare": "hospital", "healthcare:speciality": "ophthalmology", "name": "Greater Binghamton Eye Surgery Center"}}, {"type": "node", "id": 9451753684, "lat": 41.8279406, "lon": -72.5546213, "tags": {"addr:city": "South Windsor", "addr:housenumber": "29", "addr:postcode": "06074", "addr:state": "CT", "addr:street": "Community Road", "amenity": "hospital", "healthcare": "hospital", "name": "Hartford Healthcare Medical Group"}}, {"type": "node", "id": 9703695879, "lat": 40.8465453, "lon": -73.8399746, "tags": {"addr:city": "Bronx", "addr:housenumber": "1500", "addr:postcode": "10461", "addr:state": "NY", "addr:street": "Waters Place", "amenity": "hospital", "emergency": "no", "healthcare": "hospital", "healthcare:speciality": "psychiatry", "name": "Bronx Psychiatric Center", "phone": "+1 718 931 0600", "website": "https://www.omh.ny.gov/omhweb/facilities/brpc/"}}, {"type": "node", "id": 9789100954, "lat": 46.7422671, "lon": -71.684235, "tags": {"addr:city": "Pont-Rouge", "addr:housenumber": "20", "addr:postcode": "G3H 2Z3", "addr:province": "Qu\u00e9bec", "addr:street": "Route de la Pini\u00e8re", "addr:unit": "204", "amenity": "hospital", "healthcare": "hospital", "name": "Clinique m\u00e9dicale de Pont-Rouge"}}, {"type": "node", "id": 9789100955, "lat": 46.7422432, "lon": -71.6842698, "tags": {"addr:city": "Pont-Rouge", "addr:housenumber": "20", "addr:postcode": "G3H 2Z3", "addr:province": "Qu\u00e9bec", "addr:street": "Route de la Pini\u00e8re", "amenity": "hospital", "healthcare": "hospital", "name": "Clinique Dentaire Dr. Jean-S\u00e9bastien Dionne inc."}}, {"type": "node", "id": 9809032095, "lat": 40.260454, "lon": -76.9185214, "tags": {"addr:city": "Camp Hill", "addr:housenumber": "104", "addr:postcode": "17011", "addr:state": "PA", "addr:street": "Erford Road", "amenity": "hospital", "healthcare": "hospital", "healthcare:speciality": "dermatology", "name": "Crumay Parnes Associates, Inc."}}, {"type": "node", "id": 9883124385, "lat": 40.7366396, "lon": -73.6172333, "tags": {"addr:city": "Garden City", "addr:country": "US", "addr:housenumber": "400", "addr:postcode": "11530", "addr:state": "NY", "addr:street": "Garden City Plaza", "addr:unit": "Suite 107", "amenity": "hospital", "contact:email": "info@lafuehairnyc.com", "contact:instagram": "la.fue.hair.nyc", "contact:phone": "516-928-5500", "contact:website": "https://lafuehairnyc.com", "contact:youtube": "https://www.youtube.com/channel/UCblQaWhjvlw1W9Ri1eYSzug", "healthcare": "hospital", "healthcare:speciality": "hair_replacement;hair_transplantation", "image": "https://lafuehairnyc.com/wp-content/uploads/2022/06/LAFUENYC-Logo-website-3.png", "language:bg": "yes", "language:en": "yes", "language:ru": "yes", "name": "L.A. FUE Hair New York", "opening_hours": "Mo-Fr 09:00-17:00", "operator": "Dr. Anton Georgiev", "operator:type": "public", "start_date": "2022", "website": "https://lafuehairnyc.com"}}, {"type": "node", "id": 9885158918, "lat": 40.6978843, "lon": -73.9942217, "tags": {"addr:city": "Brooklyn", "addr:housenumber": "41", "addr:postcode": "11201", "addr:state": "NY", "addr:street": "Clark Street", "amenity": "hospital", "email": "downtownphysicians@gmail.com", "healthcare": "hospital", "name": "Downtown Pain Physicians Of Brooklyn", "opening_hours": "Su-Fr 08:00-19:00", "phone": "+1-718-210-2225", "website": "https://www.downtownpainphysicians.com"}}, {"type": "node", "id": 9924411225, "lat": 43.7699884, "lon": -79.55079, "tags": {"addr:city": "Vaughan", "addr:housenumber": "4000", "addr:postcode": "L4L 4V9", "addr:province": "ON", "addr:street": "Steeles Avenue West", "amenity": "hospital", "description": "\"Global Health for all Inc is a health care agency experienced in providing skillful and expert Nursing and Personal Support Staffing Services across Canada. Our hiring, screening and performance management practices ensures that the staff meets the requi", "email": "admin@globalhealthforall.ca", "emergency": "yes", "healthcare": "hospital", "name": "Global Health for All Inc", "website": "https://globalhealthforall.ca"}}, {"type": "node", "id": 10363943866, "lat": 40.768828, "lon": -73.9927766, "tags": {"amenity": "hospital", "check_date": "2023-01-09", "healthcare": "hospital", "name": "Mount Sinai", "operator:type": "public"}}, {"type": "node", "id": 10537056865, "lat": 40.7869762, "lon": -73.978003, "tags": {"addr:housenumber": "2315", "addr:street": "Broadway", "amenity": "hospital", "check_date": "2023-01-10", "healthcare": "hospital", "name": "Weill Cornell Medicine Primary Care at Broadway", "opening_hours": "Mo-Fr 09:00-17:00; Sa-Su off", "source": "survey", "website": "https://weillcornell.org/wcm-primary-care-broadway"}}, {"type": "node", "id": 10575194933, "lat": 43.987779, "lon": -78.1897562, "tags": {"amenity": "hospital", "emergency": "no", "healthcare": "hospital", "healthcare:speciality": "palliative", "name": "Ed's House"}}, {"type": "node", "id": 10596245919, "lat": 40.7630735, "lon": -73.0116607, "tags": {"addr:city": "Patchogue", "addr:housenumber": "42", "addr:postcode": "11772", "addr:state": "NY", "addr:street": "Academy Street", "amenity": "hospital", "description": "Serene Home Nursing Agency, located on Long Island, offers personalized and professional home care services that exceed the expectations of our patients and the community we serve. \u200b", "email": "Staffing@serenehomenursingagency.com", "fax": "631-696-9668", "healthcare": "hospital", "healthcare:speciality": "nursing_agency", "image": "https://local-platform.s3.us-east-2.amazonaws.com/location/logo/65815/eEgB12mMPo8s87vGaWlWCfav0bA4YWH5On3rnqrQ.png", "name": "Serene Home Nursing Agency", "phone": "631-696-9669", "website": "https://www.serenehomenursing.com/?utm_source=google&utm_medium=organic&utm_campaign=gmbwebsite"}}, {"type": "node", "id": 10792747906, "lat": 45.5161608, "lon": -73.696249, "tags": {"addr:city": "Saint-Laurent", "addr:housenumber": "1605", "addr:postcode": "H4R 0B7", "addr:street": "Boulevard Marcel-Laurin", "amenity": "hospital", "email": "info@cliniquecusl.ca", "emergency": "yes", "healthcare": "hospital", "healthcare:speciality": "emergency", "name": "Complexe m\u00e9dicale Saint Laurent", "note": "Service d\u2019urgence\nDu lundi au vendredi : 8 h - 20 h\nSamedi et dimanche : 8 h - 20 h\n", "phone": "+1 514-747-2555", "website": "https://www.centre-urgence-st-laurent.ca/", "wheelchair": "yes"}}, {"type": "node", "id": 10836133856, "lat": 41.9815783, "lon": -71.5128439, "tags": {"addr:city": "North Smithfield", "addr:housenumber": "116", "addr:postcode": "02896", "addr:state": "RI", "addr:street": "Eddie Dowling Highway", "amenity": "hospital", "beds": "40", "healthcare": "rehabilitation", "name": "Rehabilitation Hospital Of Rhode Island", "phone": "+1 401 766 0800", "website": "https://www.rhri.net/home.aspx"}}, {"type": "node", "id": 10836175485, "lat": 41.7447052, "lon": -71.4632247, "tags": {"addr:city": "Cranston", "addr:housenumber": "111", "addr:postcode": "02920", "addr:state": "RI", "addr:street": "Howard Avenue", "amenity": "hospital", "beds": "230", "healthcare": "hospital", "healthcare:speciality": "psychiatry", "name": "Eleanor Slater Hospital", "phone": "+1 401 462 3085", "website": "https://bhddh.ri.gov/eleanor-slater-hospital"}}, {"type": "node", "id": 10837097305, "lat": 43.041695, "lon": -76.1392031, "tags": {"amenity": "hospital", "name": "Crouse"}}, {"type": "node", "id": 10837823416, "lat": 44.5314399, "lon": -78.7431814, "tags": {"amenity": "hospital", "description": "Sports and Recreation Centre", "healthcare": "hospital", "name": "Fenelon Falls Community Centre"}}, {"type": "node", "id": 10840499989, "lat": 40.3263871, "lon": -78.9212974, "tags": {"addr:city": "Johnstown", "addr:housenumber": "320", "addr:postcode": "15901", "addr:state": "PA", "addr:street": "Main Street", "amenity": "hospital", "beds": "39", "healthcare": "rehabilitation", "name": "Crichton Rehabilitation Center", "phone": "+1 814 534 7923", "website": "https://www.conemaugh.org/rehabilitation/inpatient-rehabilitation"}}, {"type": "node", "id": 10840896225, "lat": 40.657591, "lon": -75.420109, "tags": {"addr:city": "Bethlehem", "addr:housenumber": "2545", "addr:postcode": "18017", "addr:state": "PA", "addr:street": "Schoenersville Road", "amenity": "hospital", "beds": "184", "name": "Lehigh Valley Hospital-Muhlenberg", "phone": "+1 484 888 5845", "website": "https://www.lvhn.org/facilities_directions/hospital_locations/lehigh_valley_hospital_muhlenberg"}}, {"type": "node", "id": 10840901413, "lat": 40.4884951, "lon": -78.3957546, "tags": {"addr:city": "Altoona", "addr:housenumber": "2907", "addr:postcode": "16602", "addr:state": "PA", "addr:street": "Pleasant Valley Boulevard", "amenity": "hospital", "beds": "68", "name": "James E Van Zandt VA Medical Center", "phone": "+1 877 626 2500", "website": "https://www.va.gov/altoona-health-care/locations/james-e-van-zandt-veterans-administration-medical-center"}}, {"type": "node", "id": 10840922123, "lat": 41.2481043, "lon": -75.8359693, "tags": {"addr:city": "Wilkes-Barre", "addr:housenumber": "1111", "addr:postcode": "18711-0030", "addr:state": "PA", "addr:street": "East End Boulevard", "amenity": "hospital", "beds": "161", "name": "Wilkes - Barre VA Medical Center", "phone": "+1 570 824 3521", "website": "https://www.va.gov/wilkes-barre-health-care/locations/wilkes-barre-va-medical-center"}}, {"type": "node", "id": 10840923890, "lat": 40.0083761, "lon": -75.5091871, "tags": {"addr:city": "Malvern", "addr:housenumber": "655", "addr:postcode": "19355", "addr:state": "PA", "addr:street": "Sugartown Road", "amenity": "hospital", "beds": "49", "name": "Devereux Children's Behavioral Health Institute", "phone": "+1 610 296 6820"}}, {"type": "node", "id": 10840925849, "lat": 40.3108973, "lon": -79.6001522, "tags": {"addr:city": "Greensburg", "addr:housenumber": "6321", "addr:postcode": "15601", "addr:state": "PA", "addr:street": "Route 30", "amenity": "hospital", "beds": "40", "name": "AHN Hempfield Neighborhood Hospital", "phone": "+1 878 295 4735", "website": "https://www.ahnneighborhood.org/locations/hempfield"}}, {"type": "node", "id": 10840926126, "lat": 40.5926085, "lon": -75.4638554, "tags": {"addr:city": "Allentown", "addr:housenumber": "850", "addr:postcode": "18103", "addr:state": "PA", "addr:street": "South Fifth Street", "amenity": "hospital", "beds": "94", "healthcare": "rehabilitation", "name": "The Good Shepherd Rehabilitation Hospital", "phone": "+1 610 776 3100", "website": "https://www.goodshepherdrehab.org"}}, {"type": "node", "id": 10844645658, "lat": 40.012309, "lon": -75.683505, "tags": {"addr:city": "Downingtown", "addr:housenumber": "151", "addr:postcode": "19335", "addr:state": "PA", "addr:street": "Woodbine Road", "amenity": "hospital", "beds": "50", "healthcare": "hospital", "healthcare:speciality": "psychiatry", "name": "Saint John Vianney Center", "phone": "+1 610-269-2600", "website": "https://www.sjvcenter.org"}}, {"type": "node", "id": 10844680376, "lat": 40.2729976, "lon": -76.6869283, "tags": {"addr:city": "Hummelstown", "addr:housenumber": "1135", "addr:postcode": "17036", "addr:state": "PA", "addr:street": "West Old Chocolate Avenue", "amenity": "hospital", "beds": "76", "healthcare": "rehabilitation", "name": "Penn State Health Rehabilitation Hospital", "phone": "+1 717 832 2600", "website": "https://www.psh-rehab.com"}}, {"type": "node", "id": 10844680518, "lat": 40.6487751, "lon": -75.6134659, "tags": {"addr:city": "Orefield", "addr:housenumber": "5300", "addr:postcode": "18069", "addr:state": "PA", "addr:street": "Kids Peace Drive", "amenity": "hospital", "beds": "110", "name": "Kidspeace Orchard Hills Campus", "phone": "+1 610 799 8490", "website": "https://www.kidspeace.org/pa-psychiatric-hospital"}}, {"type": "node", "id": 10844689823, "lat": 40.860283, "lon": -77.755767, "tags": {"amenity": "hospital", "beds": "73", "healthcare": "rehabilitation", "name": "Encompass Health Rehabilitation Hospital Of Nittany Valley", "phone": "+1 814 359 3421", "website": "https://encompasshealth.com/locations/nittanyvalleyrehab"}}, {"type": "node", "id": 10844693438, "lat": 41.4545112, "lon": -75.67772, "tags": {"addr:city": "Scranton", "addr:housenumber": "475", "addr:postcode": "18508", "addr:state": "PA", "addr:street": "Morgan Highway", "amenity": "hospital", "beds": "50", "healthcare": "rehabilitation", "name": "Allied Services Institute Of Rehabilitation Medicine", "phone": "+1 570 348 1300", "website": "https://www.allied-services.org/locations/allied-services-rehabilitation-medicine-center"}}, {"type": "node", "id": 10844701772, "lat": 40.641724, "lon": -76.0920023, "tags": {"addr:city": "Orwigsburg", "addr:housenumber": "100", "addr:postcode": "17961", "addr:state": "PA", "addr:street": "Paramount Boulevard", "amenity": "hospital", "beds": "40", "healthcare": "hospital", "name": "Geisinger Saint Luke's Hospital", "phone": "+1 272 639 4990"}}, {"type": "node", "id": 10844708981, "lat": 40.0118211, "lon": -75.1841682, "tags": {"addr:city": "Philadelphia", "addr:housenumber": "3300", "addr:postcode": "19129", "addr:state": "PA", "addr:street": "Henry Avenue", "amenity": "hospital", "beds": "36", "healthcare:speciality": "psychiatry", "name": "Haven Behavioral Hospital Of Philadelphia", "phone": "+1 215 475 3400", "website": "https://www.havenphiladelphia.com"}}, {"type": "node", "id": 10844713103, "lat": 40.496464, "lon": -78.391534, "tags": {"addr:city": "Altoona", "addr:housenumber": "2005", "addr:postcode": "16602", "addr:state": "PA", "addr:street": "Valley View Boulevard", "amenity": "hospital", "beds": "80", "healthcare": "rehabilitation", "name": "Encompass Health Rehabilitation Hospital Of Altoona", "phone": "+1 814 944 3535", "website": "https://encompasshealth.com/locations/altoonarehab"}}, {"type": "node", "id": 10844713629, "lat": 40.556896, "lon": -79.866065, "tags": {"addr:city": "Pittsburgh", "addr:housenumber": "320", "addr:postcode": "15238", "addr:state": "PA", "addr:street": "Guys Run Road", "amenity": "hospital", "beds": "162", "name": "Encompass Health Rehabilitation Hospital Of Harmarville", "phone": "+1 412 828 1300", "website": "https://encompasshealth.com/locations/harmarvillerehab"}}, {"type": "node", "id": 10844721972, "lat": 40.2839753, "lon": -76.9840177, "tags": {"addr:city": "Enola", "addr:housenumber": "1828", "addr:postcode": "17025", "addr:state": "PA", "addr:street": "Good Hope Road", "amenity": "hospital", "beds": "50", "name": "PAM Specialty Hospital Of Rocky Mount", "phone": "+1 252 451 2300", "website": "https://pamhealth.com/facilities/find-facility/specialty-hospitals/PAM-Specialty-Hospital-of-Rocky-Mount"}}, {"type": "node", "id": 10844725885, "lat": 40.211206, "lon": -76.973968, "tags": {"addr:city": "Mechanicsburg", "addr:housenumber": "175", "addr:postcode": "17055", "addr:state": "PA", "addr:street": "Lancaster Boulevard", "amenity": "hospital", "beds": "75", "healthcare": "rehabilitation", "name": "Encompass Health Rehabilitation Hospital Of Mechanicsburg", "phone": "+1 717 691 3700", "website": "https://encompasshealth.com/locations/mechanicsburgrehab"}}, {"type": "node", "id": 10844729895, "lat": 40.6127543, "lon": -75.5292329, "tags": {"addr:city": "Allentown", "addr:housenumber": "1503", "addr:postcode": "18104", "addr:state": "PA", "addr:street": "Cedar Crest Boulevard", "amenity": "hospital", "beds": "20", "name": "LVH Coordinated Allentown", "phone": "+1 610 871 9110", "website": "https://www.lvhn.org/locations/lehigh-valley-health-network-1503-n-cedar-crest"}}, {"type": "node", "id": 10844735246, "lat": 40.3380043, "lon": -75.9253894, "tags": {"addr:city": "Reading", "addr:housenumber": "145", "addr:postcode": "19601", "addr:state": "PA", "addr:street": "North 6th Street", "amenity": "hospital", "beds": "86", "healthcare:speciality": "psychiatry", "name": "Haven Behavioral Hospital Of Eastern Pennsylvania", "phone": "+1 610 406 4340", "website": "https://www.havenreading.com"}}, {"type": "node", "id": 10844735525, "lat": 41.2461525, "lon": -75.854379, "tags": {"addr:city": "Wilkes-Barre", "addr:housenumber": "150", "addr:postcode": "18702", "addr:state": "PA", "addr:street": "Mundy Street", "amenity": "hospital", "beds": "47", "healthcare": "rehabilitation", "name": "John Heinz Institute Of Rehabilitation Medicine", "phone": "+1 570 826 3800", "website": "https://www.allied-services.org/locations/allied-services-wilkes-barre-rehab-hospital"}}, {"type": "node", "id": 10874392082, "lat": 41.5819171, "lon": -73.4097033, "tags": {"addr:city": "New Milford", "addr:housenumber": "21", "addr:postcode": "06776", "addr:street": "Elm Street", "amenity": "hospital", "beds": "85", "healthcare": "hospital", "name": "New Milford Hospital", "phone": "+1 860 355 2611", "website": "https://www.newmilfordhospital.org", "wikidata": "Q14715045", "wikipedia": "en:New Milford Hospital"}}, {"type": "node", "id": 10892095081, "lat": 43.653476, "lon": -70.3441221, "tags": {"amenity": "hospital", "beds": "100", "healthcare": "hospital", "healthcare:speciality": "psychiatry", "name": "Spring Harbor Hospital", "phone": "+1 207 761 2200", "website": "https://www.mainehealth.org/spring-harbor-hospital", "wikidata": "Q48976488"}}, {"type": "node", "id": 10892268035, "lat": 41.6727191, "lon": -70.9847132, "tags": {"addr:city": "Dartmouth", "addr:housenumber": "581", "addr:postcode": "02747", "addr:state": "MA", "addr:street": "Faunce Corner Road", "amenity": "hospital", "beds": "16", "healthcare": "hospital", "healthcare:speciality": "psychiatry", "name": "Southcoast Behavioral Health", "phone": "+1 508 207 9800", "website": "https://www.southcoastbehavioral.com"}}, {"type": "node", "id": 10892299835, "lat": 42.5303519, "lon": -71.6150105, "tags": {"addr:city": "Ayer", "addr:housenumber": "85", "addr:postcode": "01434", "addr:state": "MA", "addr:street": "Patton Road", "amenity": "hospital", "beds": "18", "healthcare": "hospital", "healthcare:speciality": "psychiatry", "name": "Taravista Behavioral Health Center", "phone": "+1 978 615 5200", "website": "https://www.taravista.care"}}, {"type": "node", "id": 10892312269, "lat": 42.2018993, "lon": -71.8988273, "tags": {"addr:city": "Leicester", "addr:housenumber": "111", "addr:postcode": "01542", "addr:state": "MA", "addr:street": "Huntoon Memorial Highway", "amenity": "hospital", "beds": "47", "healthcare": "hospital", "name": "Vibra Hospital of Western Massachusetts - Central Campus", "website": "https://vhwmasscentral.com"}}, {"type": "node", "id": 10892333796, "lat": 41.9016797, "lon": -70.9160335, "tags": {"addr:city": "Middleborough", "addr:housenumber": "23", "addr:postcode": "02346", "addr:state": "MA", "addr:street": "Isaac Street", "amenity": "hospital", "beds": "34", "healthcare": "hospital", "healthcare:speciality": "psychiatry", "name": "McLean Southeast", "phone": "+1 508 855 2000", "website": "https://www.mcleanhospital.org/programs/mse-adult-psychiatric-program"}}, {"type": "node", "id": 10892341723, "lat": 42.6454379, "lon": -71.366758, "tags": {"addr:city": "Lowell", "addr:housenumber": "1071", "addr:postcode": "01854", "addr:state": "MA", "addr:street": "Varnum Avenue", "amenity": "hospital", "beds": "22", "healthcare": "rehabilitation", "name": "Encompass Health Rehab Hospital Of New England At Lowell", "phone": "+1 978 935 5050", "website": "https://encompasshealth.com/locations/newenglandrehab-lowell"}}, {"type": "node", "id": 10892359129, "lat": 42.5609869, "lon": -70.8872356, "tags": {"amenity": "hospital", "beds": "20", "healthcare": "hospital", "name": "Encompass Health Rehab Hospital Of New England At Beverly", "operator": "Encompass Health", "operator:wikidata": "Q5690400", "phone": "+1 978 935 5050", "website": "https://encompasshealth.com/locations/newenglandrehab-beverly"}}, {"type": "node", "id": 10892361142, "lat": 42.0501516, "lon": -71.2410956, "tags": {"addr:city": "Foxborough", "addr:housenumber": "71", "addr:postcode": "02035", "addr:state": "MA", "addr:street": "Walnut Street", "amenity": "hospital", "beds": "43", "healthcare": "hospital", "healthcare:speciality": "psychiatry", "name": "Norcap Lodge", "phone": "+1 508 588 4000", "website": "https://www.goodsamaritanmedical.org/services-directory/substance-abuse"}}, {"type": "node", "id": 10897760902, "lat": 40.9813734, "lon": -74.172031, "tags": {"addr:city": "Wyckoff", "addr:housenumber": "301", "addr:postcode": "07481", "addr:state": "NJ", "addr:street": "Sicomac Avenue", "amenity": "hospital", "beds": "58", "healthcare": "hospital", "healthcare:speciality": "psychiatry", "name": "Cristian Health - Ramapo Ridge Psychiatric Hospital", "phone": "+1 201 848 5805"}}, {"type": "node", "id": 10897764898, "lat": 40.2828347, "lon": -74.0797254, "tags": {"addr:city": "Tinton Falls", "addr:housenumber": "2", "addr:postcode": "07724", "addr:state": "NJ", "addr:street": "Centre Plaza", "amenity": "hospital", "beds": "60", "healthcare": "rehabilitation", "name": "Encompass Health Rehabilitation Hospital Of Tinton Falls", "phone": "+1 732 460 5320", "website": "https://encompasshealth.com/locations/tintonfallsrehab"}}, {"type": "node", "id": 10897766631, "lat": 40.7672625, "lon": -74.43567, "tags": {"addr:city": "Madison", "addr:housenumber": "4", "addr:postcode": "07940", "addr:state": "NJ", "addr:street": "Giralda Farms", "amenity": "hospital", "beds": "38", "healthcare": "rehabilitation", "name": "Atlantic Rehabilitation Institute", "phone": "+1 973 549 7440", "website": "https://www.atlanticrehabinstitute.com"}}, {"type": "node", "id": 10897792586, "lat": 40.7852797, "lon": -74.0574789, "tags": {"amenity": "hospital", "beds": "174", "healthcare": "hospital", "healthcare:speciality": "psychiatry", "name": "Hudson County Meadowview Psychiatric Hospital", "phone": "+1 201 369 5252", "website": "https://www.hcnj.us/health-and-human-services/psychiatric-hospital"}}, {"type": "node", "id": 10900676795, "lat": 40.6854471, "lon": -73.4214498, "tags": {"addr:city": "Amityville", "addr:housenumber": "81", "addr:postcode": "11701", "addr:state": "NY", "addr:street": "Louden Avenue", "amenity": "hospital", "beds": "124", "healthcare": "hospital", "healthcare:speciality": "psychiatry", "name": "Brunswick Hospital Center", "phone": "+1 631 789 7225", "website": "https://www.brunswickhospitalcenter.org"}}, {"type": "node", "id": 10900842786, "lat": 43.0580188, "lon": -73.7853183, "tags": {"amenity": "hospital", "beds": "88", "healthcare": "hospital", "healthcare:speciality": "psychiatry", "name": "Four Winds Hospital Saratoga", "phone": "+1 518 584 3600", "website": "https://www.fourwindshospital.com"}}, {"type": "node", "id": 10969983986, "lat": 40.97702, "lon": -76.8881052, "tags": {"amenity": "hospital", "emergency": "yes", "healthcare": "hospital", "name": "Evangelical Urgent Care"}}, {"type": "node", "id": 11007564257, "lat": 41.6470383, "lon": -72.6775237, "tags": {"amenity": "hospital", "healthcare": "hospital", "operator": "Trinity Health", "operator:wikidata": "Q7842827"}}, {"type": "node", "id": 11009629478, "lat": 40.8622308, "lon": -74.4960804, "tags": {"addr:city": "Morris Plains", "addr:housenumber": "3000", "addr:postcode": "07950", "addr:state": "NJ", "addr:street": "NJ-10", "addr:unit": "A", "amenity": "hospital", "description": "Our team at True Life Care is dedicated to helping you take control of your mental health through a personalized healing approach and compassionate care.", "emergency": "yes", "healthcare": "hospital", "healthcare:speciality": "general", "name": "True Life Care Center", "opening_hours": "Mo-Fr 08:30-17:30", "phone": "+1-973-490-4563", "website": "https://truelifecarementalhealth.com"}}, {"type": "node", "id": 11021263405, "lat": 45.5883122, "lon": -75.4119744, "tags": {"amenity": "hospital"}}, {"type": "node", "id": 11060200105, "lat": 45.5116095, "lon": -73.5567709, "tags": {"addr:housenumber": "1000", "addr:street": "Rue Saint-Denis", "amenity": "hospital", "healthcare": "hospital", "name": "CHUM", "opening_hours": "24/7", "website": "http://chumontreal.qc.ca"}}, {"type": "node", "id": 11061857405, "lat": 42.9006367, "lon": -78.8669009, "tags": {"amenity": "hospital", "check_date": "2023-05-16", "healthcare": "hospital", "name": "Buffalo General Medical Center", "wheelchair": "yes"}}, {"type": "node", "id": 11061857407, "lat": 42.9014485, "lon": -78.8664863, "tags": {"amenity": "hospital", "check_date": "2023-05-16", "healthcare": "hospital", "name": "Gates Vascular Institute", "wheelchair": "yes"}}, {"type": "node", "id": 11061857413, "lat": 42.9006932, "lon": -78.8675178, "tags": {"amenity": "hospital", "check_date": "2023-05-16", "healthcare": "hospital", "name": "Oishi Children's Hospital", "wheelchair": "yes"}}, {"type": "node", "id": 11080375391, "lat": 42.8988185, "lon": -78.8649206, "tags": {"amenity": "hospital", "check_date": "2023-05-22", "healthcare": "hospital", "name": "Roswell Park Cancer Institute", "wheelchair": "yes"}}, {"type": "node", "id": 11158223361, "lat": 41.0173477, "lon": -76.4853669, "tags": {"addr:city": "Bloomsburg", "addr:housenumber": "225", "addr:postcode": "17815", "addr:state": "PA", "addr:street": "Columbia Mall Drive", "amenity": "hospital", "healthcare": "hospital", "healthcare:for": "veteran", "healthcare:speciality": "diagnostic_testing;immunization;social_work;women's_health;primary_care", "name": "VA Medical Center", "opening_hours": "Mo-Fr 08:00-16:30", "operator": "Veterans Health Administration", "operator:short": "VA", "operator:wikidata": "Q6580225", "phone": "+1 (570) 316-4116", "short_name": "VA", "website": "https://www.va.gov/wilkes-barre-health-care/locations/columbia-county-va-clinic/"}}, {"type": "node", "id": 11264710210, "lat": 42.0927053, "lon": -71.2661845, "tags": {"addr:city": "Foxborough", "addr:housenumber": "20", "addr:postcode": "02035", "addr:state": "MA", "addr:street": "Patriot Place", "amenity": "hospital", "healthcare": "hospital", "healthcare:speciality": "general;internal", "name": "Brigham and Women's"}}, {"type": "node", "id": 11264710235, "lat": 42.0926029, "lon": -71.2666145, "tags": {"amenity": "hospital", "healthcare": "hospital", "healthcare:speciality": "internal;general;dermatology;otolaryngology;radiology;urology;cardiology;gastroenterology", "name": "Brigham and Womens"}}, {"type": "node", "id": 11291883934, "lat": 43.1035792, "lon": -75.2366207, "tags": {"addr:city": "Utica", "addr:housenumber": "440", "addr:postcode": "13502", "addr:state": "NY", "addr:street": "Columbia Street", "amenity": "hospital", "emergency": "yes", "healthcare": "hospital", "name": "Wynn Hospital Emergency Department"}}, {"type": "way", "id": 5059258, "center": {"lat": 44.2236877, "lon": -76.4932434}, "nodes": [32194862, 32194863, 7383296714, 32194864, 7383296711, 7383296712, 7383296716, 401544456, 7383296715, 32194865, 97159006, 7383296721, 97159010, 32194866, 7383296723, 7383296726, 7383296725, 7383296724, 7393223971, 32194867, 7393223970, 32194862], "tags": {"addr:housenumber": "76", "addr:street": "Stuart Street", "amenity": "hospital", "emergency": "yes", "healthcare": "hospital", "name": "Kingston General Hospital", "operator": "Kingston Health Sciences Centre", "wikidata": "Q3145338", "wikipedia": "en:Kingston General Hospital"}}, {"type": "way", "id": 5520155, "center": {"lat": 43.7804685, "lon": -79.2044451}, "nodes": [6604242217, 6604242216, 6604242225, 6604242226, 2342904026, 747648576, 747648580, 6604242228, 747648553, 40502449, 40502448, 40502444, 747648571, 747648579, 40502443, 40502441, 6604242217], "tags": {"addr:housenumber": "2867", "addr:street": "Ellesmere Avenue", "amenity": "hospital", "emergency": "yes", "healthcare": "hospital", "name": "Scarborough Health Network - Centenary Hospital", "operator": "Scarborough Health Network"}}, {"type": "way", "id": 12701264, "center": {"lat": 46.0380785, "lon": -73.4570312}, "nodes": [116050803, 116050804, 116050805, 116050806, 116050807, 1314700794, 116050808, 116050809, 116050812, 116050814, 116050817, 9681407436, 9681407437, 116050818, 9681407463, 9681407461, 116050803], "tags": {"amenity": "hospital", "healthcare": "hospital", "name": "CHRDL - Centre Hospitalier R\u00e9gional de Lanaudi\u00e8re"}}, {"type": "way", "id": 17980850, "center": {"lat": 41.0092936, "lon": -76.4525661}, "nodes": [186120497, 5350229522, 186120498, 186120499, 186120501, 5350229521, 186120502, 186120503, 5350229525, 5350229524, 5350229526, 5350229527, 5350229528, 186120505, 5350229523, 186120497], "tags": {"addr:city": "Bloomsburg", "addr:housenumber": "549", "addr:postcode": "17815", "addr:street": "Fair Street", "amenity": "hospital", "emergency": "yes", "healthcare": "hospital", "name": "Geisinger Bloomsburg Hospital", "opening_hours": "24/7", "operator": "Geisinger", "phone": "+1 570 387 2100", "website": "https://www.geisinger.org/patient-care/find-a-location/geisinger-bloomsburg-hospital"}}, {"type": "way", "id": 22793935, "center": {"lat": 43.6430002, "lon": -79.4186304}, "nodes": [245020021, 5225012250, 3624199005, 9140711599, 9140711590, 245020022, 5218173833, 5225045071, 3624199003, 5225045072, 5225045073, 245020023, 11090514792, 6193464134, 11090514793, 5225045074, 9272118999, 11048168129, 1279980164, 1279980176, 1279980144, 1279980155, 5225045075, 5225045070, 555350301, 6074857178, 555350298, 3267846974, 6074857177, 5225045068, 245020024, 5225045069, 5225001650, 5225001649, 5225001648, 3789873787, 5225001652, 5225001651, 3789873788, 5225001653, 5225001654, 245020021], "tags": {"addr:city": "Toronto", "addr:housenumber": "1001", "addr:postcode": "M6J 1H4", "addr:street": "Queen Street West", "amenity": "hospital", "emergency": "yes", "healthcare": "hospital", "name": "Centre For Addiction and Mental Health - Queen Street Site", "operator": "Centre For Addiction and Mental Health", "short_name": "CAMH", "wikidata": "Q2945513", "wikipedia": "en:Centre for Addiction and Mental Health"}}, {"type": "way", "id": 23946639, "center": {"lat": 43.2402029, "lon": -79.8456358}, "nodes": [259579288, 259579289, 259579290, 259579291, 259579292, 259579293, 259579294, 259579295, 259579296, 259579297, 259579298, 259579299, 259579300, 259579301, 259579288], "tags": {"addr:city": "Hamilton", "addr:housenumber": "711", "addr:postcode": "L8V 1C3", "addr:street": "Concession Street", "amenity": "hospital", "emergency": "no", "healthcare": "hospital", "name": "Juravinski Cancer Centre", "operator": "Hamilton Health Sciences", "wikidata": "Q6314955"}}, {"type": "way", "id": 24574903, "center": {"lat": 45.7238608, "lon": -73.510702}, "nodes": [7282098822, 7282098824, 7282098823, 4371031252, 4371031238, 4371031235, 4371031232, 4371031212, 8828024350, 7282098822], "tags": {"amenity": "hospital", "healthcare": "hospital", "name": "Centre Hospitalier Pierre-Legardeur"}}, {"type": "way", "id": 25655835, "center": {"lat": 40.455293, "lon": -79.9420621}, "nodes": [279669942, 1783214838, 3417025627, 3417025626, 3417025625, 3417025624, 279669944, 582262723, 279669945, 1783207001, 1783207002, 279669946, 1783207005, 1783207008, 279669947, 1783207111, 3417025607, 3417025606, 3417025605, 3417025604, 3417025610, 3417025609, 3417025608, 3417025603, 1783207114, 3382338938, 3382338939, 3382338940, 3417025615, 3417025619, 3931498603, 3417025618, 3417025617, 3417025616, 3417025614, 3382338941, 3382338942, 3382338943, 3382338944, 3417025620, 3382338945, 3417025621, 3417025622, 3382338946, 3417025623, 1783207117, 5333384630, 5333384629, 1783207113, 1787983626, 3417025613, 3417025612, 3417025611, 1787983611, 1783214847, 279669942], "tags": {"addr:city": "Pittsburgh", "addr:housenumber": "5230", "addr:postcode": "15232", "addr:state": "PA", "addr:street": "Centre Avenue", "amenity": "hospital", "beds": "520", "emergency": "yes", "gnis:feature_id": "1187314", "healthcare": "hospital", "name": "UPMC Shadyside", "opening_hours": "24/7", "operator": "University of Pittsburgh Medical Center", "operator:short": "UPMC", "operator:wikidata": "Q7896131", "operator:wikipedia": "en:University of Pittsburgh Medical Center", "phone": "+1 412 623 2121", "website": "https://www.upmc.com/locations/hospitals/shadyside/", "wikidata": "Q30280558"}}, {"type": "way", "id": 26949564, "center": {"lat": 43.7126507, "lon": -79.2852621}, "nodes": [295299779, 295299783, 281141826, 281141823, 281141822, 295299786, 295299787, 295299789, 295299790, 295299793, 295299795, 295299779], "tags": {"addr:housenumber": "3276", "addr:street": "St Clair Avenue East", "amenity": "hospital", "emergency": "no", "healthcare": "hospital", "name": "Providence Healthcare", "operator": "Unity Health Toronto", "wikidata": "Q7252433", "wikipedia": "en:Providence Healthcare (Toronto)"}}, {"type": "way", "id": 27006473, "center": {"lat": 43.7227903, "lon": -79.3738222}, "nodes": [296021333, 1384908469, 10744090727, 10744090726, 10744090725, 1384903628, 10785543143, 1462034843, 296021334, 296020839, 10785543184, 392156489, 10785543183, 296021336, 10785543181, 10785543182, 296021360, 10785543180, 10785543178, 10785543179, 296021445, 296020843, 10785543187, 1963959288, 296020844, 1963959286, 10785543188, 296020845, 10785543189, 10785543190, 10785543191, 10785543192, 10785543193, 10785543194, 10744086064, 10788206441, 296021159, 10788206460, 10788206438, 10788206437, 296021452, 296020848, 10790833400, 10790833398, 10790833399, 10744086066, 10790773544, 296021363, 10790773545, 10790773546, 296020850, 10790773547, 10785543195, 296021364, 2267840580, 2267840582, 10785543196, 10790773550, 10790773548, 10790773549, 10785543197, 2267840596, 2267839074, 10785543198, 296021163, 10790833404, 296020854, 3079537787, 296020855, 296021453, 1384906519, 296020857, 1384906523, 10790833428, 296020858, 3079537795, 296020859, 296021366, 296020862, 296021168, 296020864, 296021526, 296021486, 10872569776, 10872569774, 296021527, 10797705774, 296021488, 10797693601, 296021489, 10872716586, 296021490, 10872716581, 10872716585, 10872716583, 10872716584, 2294208002, 10797693539, 10797693537, 296020865, 296021596, 10744090724, 10744090723, 296020866, 10795375933, 296020867, 10681462276, 10681466512, 10681466513, 10681466535, 296021333], "tags": {"amenity": "hospital", "contact:city": "Toronto", "contact:housenumber": "2075", "contact:postcode": "M4N 3M5", "contact:street": "Bayview Avenue", "emergency": "yes", "healthcare": "hospital", "name": "Sunnybrook Health Sciences Centre - Bayview Campus", "operator": "Sunnybrook Health Sciences Centre", "operator:type": "university", "phone": "+1-416-480-6100", "website": "https://www.sunnybrook.ca/", "wikidata": "Q7640789", "wikipedia": "en:Sunnybrook Health Sciences Centre"}}, {"type": "way", "id": 27080832, "center": {"lat": 40.7413556, "lon": -74.0340099}, "nodes": [297103096, 6788531977, 6788531976, 6788531975, 6788531974, 6788531973, 6788524467, 6788531972, 6788531971, 6788531970, 6788532099, 6788531968, 4772023099, 6788531967, 6788531966, 6788531965, 6788531964, 6788531963, 6788531962, 6788531961, 6788531960, 6788531959, 6788531958, 6788531957, 6788531956, 6788531955, 6788531954, 6788531953, 6788531952, 6788531951, 6788531950, 6788531949, 6788531947, 6788531948, 6788531904, 297103105, 6788532092, 6788532091, 6788532090, 6788532089, 6788532088, 6788532087, 6788532086, 6788532085, 297103107, 6788531984, 6788531983, 6788531982, 6788531981, 6788531980, 6788531979, 6788531978, 297103096], "tags": {"addr:city": "Hoboken", "addr:housenumber": "308", "addr:postcode": "07030", "addr:street": "Willow Avenue", "amenity": "hospital", "emergency": "yes", "healthcare": "hospital", "name": "Hoboken University Medical Center", "opening_hours": "24/7", "operator": "CarePoint Health", "phone": "+1 201 418 1000", "website": "https://www.carepointhealth.org/hoboken-university-medical-center", "wikidata": "Q5875170", "wikipedia": "en:Hoboken University Medical Center"}}, {"type": "way", "id": 27337520, "center": {"lat": 45.4949298, "lon": -73.6238675}, "nodes": [213538679, 9400483420, 9400483424, 9400483430, 9657280871, 300111650, 8893018418, 1704789504, 3939140671, 3939137028, 3939137034, 1439310776, 213538679], "tags": {"addr:city": "Montr\u00e9al", "addr:housenumber": "3830", "addr:postcode": "H3T 1M5", "addr:province": "Qu\u00e9bec", "addr:street": "Avenue Lacombe", "amenity": "hospital", "emergency": "yes", "healthcare": "hospital", "name": "St. Mary's Hospital", "name:fr": "Centre hospitalier St-Mary", "wikidata": "Q2945713", "wikipedia": "fr:Centre hospitalier de St. Mary"}}, {"type": "way", "id": 27828413, "center": {"lat": 45.4969743, "lon": -73.6300104}, "nodes": [504315949, 504315952, 9400483470, 31699864, 3922756682, 3922756683, 3922756684, 9400483482, 213573512, 9416837472, 1765442162, 1765442256, 3922771321, 504315949], "tags": {"addr:housenumber": "3755", "addr:postcode": "H3T 1E2", "addr:street": "Chemin de la C\u00f4te Sainte-Catherine", "addr:suburb": "C\u00f4te-des-Neiges\u2013NDG", "amenity": "hospital", "healthcare": "hospital", "internet_access": "wlan", "name": "Sir Mortimer B. Davis Jewish General Hospital", "name:en": "Sir Mortimer B. Davis Jewish General Hospital", "name:fr": "H\u00f4pital g\u00e9n\u00e9ral juif Sir Mortimer B. Davis", "phone": "+1 514 340 8222", "website": "https://www.jgh.ca/", "wikidata": "Q3145341", "wikipedia": "fr:H\u00f4pital g\u00e9n\u00e9ral juif"}}, {"type": "way", "id": 29291251, "center": {"lat": 46.853369, "lon": -71.3701942}, "nodes": [393560109, 322100737, 322100738, 2724561168, 2724561175, 4179733560, 4179733570, 322100735, 4179733576, 4179733587, 4179733588, 393560109], "tags": {"amenity": "hospital", "name": "H\u00f4pital Chauveau"}}, {"type": "way", "id": 29538485, "center": {"lat": 42.4702299, "lon": -71.126459}, "nodes": [3858971710, 3858971700, 3858971698, 3858971683, 325545651, 325545652, 325545653, 325545654, 325545655, 325545643, 3858971511, 3858971522, 3858971617, 325545644, 325545645, 3858971635, 325545647, 3858971664, 3858971665, 3858971663, 325545649, 3858971668, 3858971675, 3858971679, 3858971671, 325545650, 3858971735, 3858971774, 8993451832, 3858971742, 3858971706, 3858971709, 3858971704, 8993451833, 3858971701, 3858971702, 3858971699, 3858971710], "tags": {"addr:city": "Winchester", "addr:housenumber": "620", "addr:postcode": "01890", "addr:state": "MA", "addr:street": "Washington Street", "amenity": "hospital", "building": "hospital", "building:levels": "1", "emergency": "no", "healthcare": "hospital", "name": "Winchester Hospital Center for Cancer Care", "phone": "+1 781 7565000", "roof:shape": "flat", "website": "http://www.winchesterhospital.org/our-services/medical-care/departments-centers/cancer-care-center"}}, {"type": "way", "id": 29614822, "center": {"lat": 42.3630911, "lon": -71.0664345}, "nodes": [325797293, 326065558, 325759902, 7629876922, 326029812, 7629876931, 325797293], "tags": {"addr:city": "Boston", "addr:housenumber": "51", "addr:postcode": "02114", "addr:state": "MA", "addr:street": "Blossom Street", "amenity": "hospital", "building": "hospital", "building:levels": "9", "emergency": "no", "healthcare": "hospital", "healthcare:speciality": "paediatrics", "massgis:id": "145", "name": "Shriners Hospitals for Children - Boston", "operator": "Shriners Hospitals for Children", "operator:wikidata": "Q7504109", "operator:wikipedia": "en:Shriners Hospitals for Children", "phone": "+1 617 722 3000", "website": "https://www.shrinershospitalsforchildren.org/Locations/boston", "wikidata": "Q50575529"}}, {"type": "way", "id": 29661649, "center": {"lat": 42.3723565, "lon": -71.0383426}, "nodes": [326406644, 326406645, 326406646, 326406647, 326406648, 326406649, 326406650, 326406651, 326406652, 326406644], "tags": {"addr:city": "East Boston", "addr:country": "US", "addr:housename": "East Boston Neighborhood Health Center", "addr:housenumber": "10", "addr:postcode": "02152", "addr:state": "MA", "addr:street": "Gove Street", "amenity": "hospital", "building": "hospital", "building:levels": "4", "contact:phone": "+1 617 569 5800", "contact:tty": "+1 800 439 0183", "contact:website": "https://www.ebnhc.org", "emergency": "yes", "healthcare": "hospital", "name": "East Boston Neighborhood Health Center", "opening_hours": "24/7", "short_name": "EBNHC"}}, {"type": "way", "id": 29772891, "center": {"lat": 42.4715523, "lon": -70.9568496}, "nodes": [327953216, 327953224, 327953218, 9862800983, 9862801039, 9862801052, 327953220, 327953222, 9862801184, 9862801183, 327953226, 9862801188, 9862801187, 9862801186, 327953207, 327953210, 9862800975, 327953214, 327953212, 327953228, 327953230, 9862800982, 9862801185, 327953216], "tags": {"addr:city": "Lynn", "addr:housenumber": "60", "addr:postcode": "01904", "addr:state": "MA", "addr:street": "Granite Street", "amenity": "hospital", "building": "yes", "name": "BayRidge Hospital", "phone": "+1 781 5999200", "website": "https://www.beverlyhospital.org/locations--services/locations/bayridge-hospital"}}, {"type": "way", "id": 29785366, "center": {"lat": 42.2839527, "lon": -73.3130948}, "nodes": [328193055, 328203792, 328170878, 367778866, 328180618, 257489615, 328147070, 328157155, 328121865, 328133298, 328187209, 328197685, 328165164, 328175154, 328142637, 328153318, 328139677, 328193055], "tags": {"addr:city": "Stockbridge", "addr:housenumber": "25", "addr:postcode": "01262", "addr:street": "Main Street", "amenity": "hospital", "emergency": "no", "healthcare:speciality": "psychiatry", "massgis:id": "137", "name": "Austen Riggs Center", "ownership": "private_nonprofit", "phone": "+1 800 517 4447", "source": "MassGIS OpenSpace (http://www.mass.gov/mgis/osp.htm)", "website": "https://www.austenriggs.org/", "wikidata": "Q4822870", "wikipedia": "en:Austen Riggs Center"}}, {"type": "way", "id": 29819135, "center": {"lat": 42.1747415, "lon": -71.1239229}, "nodes": [328601307, 328589253, 328584207, 6396740050, 6396740049, 6396740053, 6396740052, 6396740051, 328286215, 6396740048, 328282890, 328302119, 328579825, 328596239, 6396740054, 6396740055, 328582728, 6396740057, 6396740056, 328600070, 328577504, 2636183238, 1411679270, 2636183239, 6396740059, 6396740058, 1411679144, 328578256, 328318247, 2636183246, 6396740063, 2636183247, 6396740065, 328608712, 2636183244, 328293033, 2636183241, 6396740062, 6396740061, 6396740064, 6396740066, 6396740060, 328577013, 328296205, 2636183240, 328298984, 2636183242, 328320854, 2636183243, 6396740067, 328331660, 6396740068, 6396740069, 6396740070, 328578354, 6396740071, 328596223, 6396740073, 6396740072, 2636183248, 328608369, 6396740074, 328327148, 328610467, 6396740075, 6396740076, 328303595, 6396740078, 6396740077, 6396740079, 328324967, 6396740083, 6396740081, 6396740082, 6396740080, 2636183251, 328281837, 6396740084, 328612332, 6396740286, 328318925, 6396740285, 328336543, 1411679127, 2636183250, 6396740287, 328297184, 328605324, 6396740288, 6396740289, 328603148, 6396740290, 328330329, 6396740291, 2636183249, 328577753, 6396740292, 328330257, 257489670, 257580884, 358264394, 358278196, 6396740295, 329033109, 328599914, 328578687, 328607814, 328592740, 328594537, 328813605, 328594862, 6396740046, 328295839, 6396740045, 328288113, 6396740047, 328284830, 328319725, 328329597, 328609269, 328610248, 328297405, 328292274, 328305679, 328313482, 328590363, 328587219, 328586546, 328327528, 328601307], "tags": {"addr:city": "Canton", "addr:housenumber": "3", "addr:postcode": "02021", "addr:state": "MA", "addr:street": "Randolph Street", "amenity": "hospital", "emergency": "no", "gnis:feature_id": "602790", "grades": "1,2,3,4,5,6,7,8,9,10,11,12", "massgis:id": "94", "massgis:school_id": "03700026", "name": "Pappas Rehabilitation Hospital for Children", "old_name": "Massachusetts Hospital School", "owner": "Health And Human Services", "ownership": "state", "phone": "+1-781-828-2440", "source": "MassGIS OpenSpace (http://www.mass.gov/mgis/osp.htm)", "website": "http://www.prhc.us/"}}, {"type": "way", "id": 29831086, "center": {"lat": 41.9115749, "lon": -71.1012448},