{"version": 0.6, "generator": "Overpass API 0.7.61.5 4133829e", "osm3s": {"timestamp_osm_base": "2023-10-31T20:59:51Z", "copyright": "The data included in this document is from www.openstreetmap.org. The data is made available under ODbL."}, "elements": [{"type": "node", "id": 30343817, "lat": 48.1847209, "lon": 17.2501917, "tags": {"amenity": "hospital", "name": "Zdravotn\u00e9 stredisko"}}, {"type": "node", "id": 30703920, "lat": 48.8370929, "lon": 10.4985631, "tags": {"addr:city": "N\u00f6rdlingen", "addr:housenumber": "4", "addr:street": "Stoffelsberg", "amenity": "hospital", "name": "Stiftungskrankenhaus N\u00f6rdlingen", "wheelchair": "yes"}}, {"type": "node", "id": 36154600, "lat": 48.4247387, "lon": 17.7888378, "tags": {"amenity": "hospital", "contact:website": "http://www.nsphlohovec.sk/", "name": "Nemocnica s Poliklinikou Hlohovec, s. r. o."}}, {"type": "node", "id": 60235532, "lat": 48.1310014, "lon": 11.5605247, "tags": {"addr:city": "M\u00fcnchen", "addr:country": "DE", "addr:housenumber": "2a", "addr:postcode": "80337", "addr:street": "Lindwurmstra\u00dfe", "amenity": "hospital", "email": "info@klinikum.uni-muenchen.de", "healthcare": "hospital", "name": "Mund-, Kiefer-, Gesichtschirurgie", "operator": "Ludwig-Maximilians-Universit\u00e4t", "operator:short": "LMU", "operator:wikidata": "Q55044", "operator:wikipedia": "de:Ludwig-Maximilians-Universit\u00e4t M\u00fcnchen", "phone": "+49 89 5160-0", "website": "https://www.lmu-klinikum.de/", "wheelchair": "limited"}}, {"type": "node", "id": 60235905, "lat": 48.1302821, "lon": 11.5592053, "tags": {"addr:city": "M\u00fcnchen", "addr:country": "DE", "addr:housenumber": "4", "addr:postcode": "80337", "addr:street": "Lindwurmstra\u00dfe", "amenity": "hospital", "email": "info@klinikum.uni-muenchen.de", "emergency": "yes", "healthcare": "hospital", "name": "Dr. von Haunersches Kinderspital", "operator": "Ludwig-Maximilians-Universit\u00e4t", "operator:short": "LMU", "operator:type": "public", "operator:wikidata": "Q55044", "operator:wikipedia": "de:Ludwig-Maximilians-Universit\u00e4t M\u00fcnchen", "phone": "+49 89 4400 -52811", "website": "https://www.lmu-klinikum.de/", "wheelchair": "yes", "wikidata": "Q1254126"}}, {"type": "node", "id": 60237053, "lat": 48.131676, "lon": 11.5581961, "tags": {"addr:city": "M\u00fcnchen", "addr:country": "DE", "addr:housenumber": "70", "addr:postcode": "80336", "addr:street": "Goethestra\u00dfe", "amenity": "hospital", "email": "info@klinikum.uni-muenchen.de", "healthcare": "hospital", "name": "Poliklinik Zahn\u00e4rztliche Prothetik", "operator": "Ludwig-Maximilians-Universit\u00e4t", "operator:short": "LMU", "operator:wikidata": "Q55044", "operator:wikipedia": "de:Ludwig-Maximilians-Universit\u00e4t M\u00fcnchen", "phone": "+49 89 5160-0", "website": "https://www.lmu-klinikum.de/", "wheelchair": "yes"}}, {"type": "node", "id": 60237068, "lat": 48.1313295, "lon": 11.5581921, "tags": {"addr:city": "M\u00fcnchen", "addr:country": "DE", "addr:housenumber": "70", "addr:postcode": "80336", "addr:street": "Goethestra\u00dfe", "amenity": "hospital", "email": "info@klinikum.uni-muenchen.de", "healthcare": "hospital", "name": "Poliklinik Zahnerhaltung und Parodontologie", "operator": "Ludwig-Maximilians-Universit\u00e4t", "operator:short": "LMU", "operator:wikidata": "Q55044", "operator:wikipedia": "de:Ludwig-Maximilians-Universit\u00e4t M\u00fcnchen", "phone": "+49 89 5160-0", "website": "https://www.lmu-klinikum.de/", "wheelchair": "yes"}}, {"type": "node", "id": 60237323, "lat": 48.1309824, "lon": 11.5581778, "tags": {"addr:city": "M\u00fcnchen", "addr:country": "DE", "addr:housenumber": "70", "addr:postcode": "80336", "addr:street": "Goethestra\u00dfe", "amenity": "hospital", "email": "info@klinikum.uni-muenchen.de", "healthcare": "hospital", "healthcare:speciality": "orthodontics", "name": "Poliklinik Kieferorthop\u00e4die", "operator": "Ludwig-Maximilians-Universit\u00e4t", "operator:short": "LMU", "operator:wikidata": "Q55044", "operator:wikipedia": "de:Ludwig-Maximilians-Universit\u00e4t M\u00fcnchen", "phone": "+49 89 5160-3233", "website": "https://www.lmu-klinikum.de/", "wheelchair": "yes"}}, {"type": "node", "id": 98268688, "lat": 47.7825833, "lon": 12.3277791, "tags": {"addr:city": "Aschau im Chiemgau", "addr:housenumber": "18", "addr:postcode": "83229", "addr:street": "Bernauer Stra\u00dfe", "amenity": "hospital", "emergency": "no", "healthcare": "hospital", "healthcare:speciality": "orthopaedics", "name": "Orthop\u00e4dische Kinderklinik Aschau", "operator": "Caritas", "toilets:wheelchair": "yes", "wheelchair": "yes"}}, {"type": "node", "id": 98791580, "lat": 46.3618431, "lon": 15.1161402, "tags": {"amenity": "hospital", "name": "Zdravstveni dom Velenje"}}, {"type": "node", "id": 98957863, "lat": 48.3334989, "lon": 17.3065452, "tags": {"FIXME": "Naozaj nemocnica? Alebo len klinika ci zdravotne stredisko?", "amenity": "hospital", "email": "info@nemocnicamodra.sk", "name": "Nemocnica Modra n.o.", "phone": "+421 33 6902 744", "website": "https://nemocnicamodra.sk/"}}, {"type": "node", "id": 115160761, "lat": 48.1955792, "lon": 16.3984155, "tags": {"addr:city": "Wien", "addr:country": "AT", "addr:housenumber": "20A", "addr:postcode": "1030", "addr:street": "Baumgasse", "amenity": "hospital", "email": "office@kh-herzjesu.at", "fax": "+43 (0)1 / 712 26 84-8650", "healthcare": "hospital", "name": "Herz-Jesu-Krankenhaus", "phone": "+43 (0)1 / 712 26 84-0", "website": "https://www.kh-herzjesu.at/", "wheelchair": "limited", "wikidata": "Q26884361"}}, {"type": "node", "id": 157004300, "lat": 48.1677438, "lon": 12.842318, "tags": {"amenity": "hospital", "name": "Kreiskrankenhaus Burghausen", "wheelchair": "yes"}}, {"type": "node", "id": 170971605, "lat": 48.2108069, "lon": 19.3502357, "tags": {"amenity": "hospital", "created_by": "JOSM", "emergency": "yes", "name": "Nemocnica s poliklinikou"}}, {"type": "node", "id": 195415014, "lat": 48.0662444, "lon": 11.3477617, "tags": {"addr:city": "Gauting", "addr:country": "DE", "addr:housenumber": "6", "addr:postcode": "82131", "addr:street": "Robert-Koch-Allee", "amenity": "hospital", "email": "info@psychiatrie-gauting.de", "fax": "+49 89 89358 151", "healthcare": "hospital", "healthcare:speciality": "psychiatry", "name": "Fachklinik f\u00fcr Psychiatrie und Psychotherapie", "note": "bitte \u00fcberpr\u00fcfen", "phone": "+49 89 893580", "website": "http://www.psychiatrie-gauting.de"}}, {"type": "node", "id": 199658960, "lat": 46.9476457, "lon": 14.4106404, "tags": {"amenity": "hospital", "healthcare": "hospital", "name": "Deutsch-Ordens-Krankenhaus Friesach"}}, {"type": "node", "id": 246881805, "lat": 49.8852041, "lon": 12.3320245, "tags": {"addr:city": "Tirschenreuth", "addr:country": "DE", "addr:housenumber": "31", "addr:postcode": "95643", "addr:street": "St.-Peter-Stra\u00dfe", "amenity": "hospital", "emergency": "yes", "healthcare": "hospital", "name": "Krankenhaus Tirschenreuth", "operator": "Kliniken Nordoberpfalz AG", "phone": "+49 9631 870", "website": "https://www.kliniken-nordoberpfalz.de/tirschenreuth/", "wheelchair": "yes", "wikidata": "Q14956893", "wikipedia": "de:Krankenhaus Tirschenreuth"}}, {"type": "node", "id": 248898429, "lat": 43.8506532, "lon": 10.5175368, "tags": {"amenity": "hospital", "emergency": "yes", "healthcare": "hospital", "name": "Presidio Ospedaliero Piana di Lucca", "toilets:wheelchair": "yes", "wheelchair": "yes"}}, {"type": "node", "id": 252364812, "lat": 48.2050873, "lon": 16.3860573, "tags": {"addr:city": "Wien", "addr:country": "AT", "addr:housenumber": "4a", "addr:postcode": "1030", "addr:street": "Landstra\u00dfer Hauptstra\u00dfe", "amenity": "hospital", "healthcare": "hospital", "name": "Franziskus Spital Landstra\u00dfe", "phone": "+43 1 71126-0", "website": "https://www.franziskusspital.com", "wheelchair": "yes", "wikidata": "Q1606515", "wikipedia": "de:Krankenhaus St. Elisabeth Wien"}}, {"type": "node", "id": 252365711, "lat": 48.1923503, "lon": 16.3454714, "tags": {"addr:city": "Wien", "addr:country": "AT", "addr:housenumber": "13", "addr:postcode": "1060", "addr:street": "Stumpergasse", "amenity": "hospital", "contact:website": "https://bhswien.at/", "emergency": "no", "healthcare": "hospital", "healthcare:speciality": "urology;oncology;gastroenterology", "name": "Krankenhaus der Barmherzigen Schwestern", "operator": "Vinzenz Gruppe", "wheelchair": "yes"}}, {"type": "node", "id": 253076122, "lat": 49.7135649, "lon": 11.079403, "tags": {"addr:housenumber": "10", "addr:street": "Krankenhausstra\u00dfe", "amenity": "hospital", "healthcare": "hospital", "name": "Klinikum Forchheim", "toilets:wheelchair": "yes", "wheelchair": "yes", "wheelchair:description": "Automatic T\u00fcr, Schwellenloser Eingang, Aufzug vorhanden, Rollstuhlgerechtes WC, Plattform Lift zun Dachgarten, Behinderten Parkpl\u00e4tze,"}}, {"type": "node", "id": 253334411, "lat": 47.6162253, "lon": 16.0872426, "tags": {"amenity": "hospital", "emergency": "no", "name": "Landesklinikum Hochegg"}}, {"type": "node", "id": 257360634, "lat": 45.5556651, "lon": 11.5467193, "tags": {"amenity": "hospital", "healthcare": "hospital", "name": "ingresso Palazzina Uffici dell'Ospedale"}}, {"type": "node", "id": 264294550, "lat": 48.2767065, "lon": 12.1517614, "tags": {"addr:city": "Dorfen", "addr:housenumber": "17", "addr:postcode": "84405", "addr:street": "Erdinger Stra\u00dfe", "amenity": "hospital", "emergency": "no", "healthcare": "hospital", "healthcare:speciality": "internal", "name": "Klinik Dorfen", "operator": "Landkreis Erding", "toilets:wheelchair": "yes", "wheelchair": "yes"}}, {"type": "node", "id": 268618552, "lat": 49.7059482, "lon": 10.8048802, "tags": {"amenity": "hospital", "healthcare": "hospital", "name": "Kreiskrankenhaus St. Anna", "wheelchair": "yes"}}, {"type": "node", "id": 269510209, "lat": 48.1179807, "lon": 11.421919, "tags": {"addr:city": "Gr\u00e4felfing", "addr:country": "DE", "addr:housenumber": "7", "addr:postcode": "82166", "addr:street": "Waldstra\u00dfe", "amenity": "hospital", "email": "info@wolfartklinik.de", "emergency": "yes", "healthcare": "hospital", "name": "Wolfartklinik", "phone": "+49 89 8587-0", "website": "https://wolfartklinik.de/", "wheelchair": "yes"}}, {"type": "node", "id": 271226325, "lat": 48.1409559, "lon": 11.5619132, "tags": {"addr:housenumber": "3", "addr:street": "Prielmayerstra\u00dfe", "amenity": "hospital", "healthcare": "hospital", "name": "Medizinischer Bereitschaftsdienst", "phone": "+49 89 551771"}}, {"type": "node", "id": 275051373, "lat": 48.4367127, "lon": 12.9265198, "tags": {"amenity": "hospital", "name": "Kreiskrankenhaus Pfarrkirchen", "wheelchair": "yes"}}, {"type": "node", "id": 275450877, "lat": 48.1042723, "lon": 11.5394238, "tags": {"addr:city": "M\u00fcnchen", "addr:country": "DE", "addr:housenumber": "3", "addr:postcode": "81369", "addr:street": "Steinerstra\u00dfe", "amenity": "hospital", "email": "info-skm@sana.de", "emergency": "yes", "healthcare": "hospital", "name": "Sana Klinik", "phone": "+49 89 72403-0", "website": "https://www.sana.de/muenchen", "wheelchair": "yes"}}, {"type": "node", "id": 276392454, "lat": 45.5360626, "lon": 11.5246562, "tags": {"addr:city": "Vicenza", "addr:country": "IT", "addr:housenumber": "4", "addr:postcode": "36100", "addr:street": "Via Giovanni Fincato", "amenity": "hospital", "name": "Guardia Medica - Servizio di continuit\u00e0 assistenziale", "note": "Guardia Medica", "phone": "+39 848800557"}}, {"type": "node", "id": 276543686, "lat": 48.3543387, "lon": 13.202069, "tags": {"amenity": "hospital", "emergency": "no", "name": "Kreiskrankenhaus Rotthalm\u00fcnster", "wheelchair": "yes"}}, {"type": "node", "id": 277442836, "lat": 48.4360012, "lon": 12.9259294, "tags": {"amenity": "hospital", "name": "Dialysezentrum Pfarrkirchen", "wheelchair": "yes"}}, {"type": "node", "id": 286806323, "lat": 46.3359393, "lon": 13.5488148, "tags": {"addr:city": "Bovec", "addr:housenumber": "85", "addr:postcode": "5230", "addr:street": "Kot", "amenity": "hospital", "healthcare": "hospital", "name": "Zdravstvena postaja Bovec"}}, {"type": "node", "id": 289881748, "lat": 48.7714915, "lon": 11.4328451, "tags": {"addr:city": "Ingolstadt", "addr:country": "DE", "addr:housenumber": "4", "addr:postcode": "85049", "addr:street": "\u00d6stliche Ringstra\u00dfe", "amenity": "hospital", "contact:email": "krankenhaus@klinik-dr-maul.de", "contact:phone": "+49 841 93580", "contact:website": "http://www.klinik-dr-maul.de", "emergency": "yes", "healthcare": "hospital", "name": "Klinik Dr. Maul"}}, {"type": "node", "id": 291898706, "lat": 48.1515148, "lon": 11.5960485, "tags": {"addr:city": "M\u00fcnchen", "addr:country": "DE", "addr:housenumber": "6", "addr:postcode": "80538", "addr:street": "Hirschauer Stra\u00dfe", "amenity": "hospital", "description": "female", "healthcare": "hospital", "healthcare:speciality": "gynaecology", "name": "Dr. Geisenhofer", "operator": "Geisenhofer GmbH", "phone": "+49 89 38310", "private": "yes", "website": "https://geisenhoferklinik.de/", "wheelchair": "no"}}, {"type": "node", "id": 293151665, "lat": 47.2562068, "lon": 17.1573329, "tags": {"amenity": "hospital", "name": "Kemenesaljai Egyes\u00edtett K\u00f3rh\u00e1z", "wheelchair": "yes"}}, {"type": "node", "id": 293625301, "lat": 44.5158063, "lon": 14.5009217, "tags": {"amenity": "hospital"}}, {"type": "node", "id": 295017561, "lat": 44.2179693, "lon": 12.0331217, "tags": {"amenity": "hospital", "healthcare": "hospital", "name": "Ospedali Privati Forl\u00ec \"Villa Serena\"", "operator": "Ospadati Privati Forl\u00ec"}}, {"type": "node", "id": 295030604, "lat": 44.2171813, "lon": 12.0582783, "tags": {"amenity": "hospital", "healthcare": "hospital", "name": "Ospedali Privati Forl\u00ec \"Villa Igea\"", "operator": "Ospedali Privati Forl\u00ec"}}, {"type": "node", "id": 295952591, "lat": 47.8384514, "lon": 16.9224556, "tags": {"addr:city": "Frauenkirchen", "addr:country": "AT", "addr:housenumber": "4", "addr:postcode": "7132", "addr:street": "M\u00fchlteich", "amenity": "hospital", "healthcare": "hospital", "name": "Krankenhaus der Barmherzigen Br\u00fcder", "opening_hours": "Mo-Sa 08:00-19:00", "phone": "+43 2682 6014350"}}, {"type": "node", "id": 296095735, "lat": 46.5836241, "lon": 16.1606714, "tags": {"amenity": "hospital", "name": "Zdravstveni dom Ver\u017eej", "operator": "ZASEBNA AMBULANTA Zvonimir Cesarec, dr. med.", "phone": "02 5844 460"}}, {"type": "node", "id": 296097686, "lat": 46.6858801, "lon": 16.1891956, "tags": {"addr:city": "Martjanci", "addr:housenumber": "28a", "addr:postcode": "9221", "addr:street": "Martjanci", "amenity": "hospital", "name": "Splo\u0161na ambulanta Martjanci"}}, {"type": "node", "id": 296858314, "lat": 44.7757063, "lon": 12.1224369, "tags": {"amenity": "hospital", "emergency": "yes", "name": "Ospedale del Delta", "wikidata": "Q24941553"}}, {"type": "node", "id": 296915345, "lat": 48.0597007, "lon": 17.2503253, "tags": {"amenity": "hospital"}}, {"type": "node", "id": 297559548, "lat": 46.5011, "lon": 15.7488249, "tags": {"amenity": "hospital", "name": "Zdravstveni dom Spodnji Duplek"}}, {"type": "node", "id": 297858828, "lat": 49.4567681, "lon": 11.0666508, "tags": {"addr:city": "N\u00fcrnberg", "addr:country": "DE", "addr:housenumber": "19", "addr:postcode": "90419", "addr:street": "Sankt-Johannis-M\u00fchlgasse", "amenity": "hospital", "fax": "+49 911 33405011", "healthcare": "hospital", "name": "Cnopf'sche Kinderklinik", "phone": "+49 911 334001", "website": "https://www.klinik-hallerwiese.de/", "wheelchair": "yes"}}, {"type": "node", "id": 300929385, "lat": 49.3529502, "lon": 16.021491, "tags": {"amenity": "hospital", "healthcare": "hospital", "name": "Pohotovostn\u00ed slu\u017eba"}}, {"type": "node", "id": 303496338, "lat": 44.2074005, "lon": 12.0191851, "tags": {"amenity": "hospital", "emergency": "ambulance_station", "healthcare": "hospital", "name": "Pronto Soccorso", "wheelchair": "yes"}}, {"type": "node", "id": 304230205, "lat": 45.7474621, "lon": 11.7443765, "tags": {"addr:city": "Bassano del Grappa", "addr:housenumber": "40", "addr:postcode": "36061", "addr:street": "Via dei Lotti", "amenity": "hospital", "emergency": "yes", "healthcare": "hospital", "name": "Ospedale San Bassiano - ULSS 7 Pedemontana", "operator": "ULSS 7 Pedemontana", "operator:type": "public", "website": "https://aulss7.veneto.it/"}}, {"type": "node", "id": 305787536, "lat": 47.4237644, "lon": 10.2530977, "tags": {"amenity": "hospital", "name": "Fachklinik f\u00fcr Othop\u00e4die und Rheumatologie", "source": "survey"}}, {"type": "node", "id": 308978434, "lat": 42.4456312, "lon": 19.2626088, "tags": {"addr:street": "Vaka \u0110urovi\u0107a", "amenity": "hospital", "healthcare": "hospital", "name": "Hitna pomo\u0107", "name:sr": "\u0425\u0438\u0442\u043d\u0430 \u043f\u043e\u043c\u043e\u045b"}}, {"type": "node", "id": 309201012, "lat": 48.5904793, "lon": 18.84331, "tags": {"amenity": "hospital", "name": "V\u0161eobecn\u00e1 nemocnica v \u017diari nad Hronom", "website": "https://nemocnicaziarnadhronom.agel.sk/"}}, {"type": "node", "id": 309274533, "lat": 42.437135, "lon": 19.2819026, "tags": {"addr:street": "Aleksandra Pu\u0161kina", "amenity": "hospital", "healthcare": "hospital", "name": "Dom zdravlja Konik", "name:sr": "\u0414\u043e\u043c \u0437\u0434\u0440\u0430\u0432\u0459\u0430 \u041a\u043e\u043d\u0438\u043a"}}, {"type": "node", "id": 309710011, "lat": 42.4309282, "lon": 19.2585181, "tags": {"amenity": "hospital", "healthcare": "hospital", "name": "Dom zdravlja Pobre\u017eje"}}, {"type": "node", "id": 310137518, "lat": 48.5940902, "lon": 13.5641282, "tags": {"amenity": "hospital", "healthcare": "hospital", "name": "Klinik Prof. Schedel", "wheelchair": "yes"}}, {"type": "node", "id": 310439507, "lat": 42.4462195, "lon": 19.2433933, "tags": {"addr:city": "Podgorica", "addr:housenumber": "6", "addr:postcode": "81000", "addr:street": "Trg Nikole Kova\u010devi\u0107a", "amenity": "hospital", "healthcare": "hospital", "name": "Dom zdravlja Blok 5"}}, {"type": "node", "id": 313107131, "lat": 46.6858336, "lon": 18.4453265, "tags": {"amenity": "hospital", "note": "Old user replaced."}}, {"type": "node", "id": 316165112, "lat": 48.1236815, "lon": 11.54516, "tags": {"addr:city": "M\u00fcnchen", "addr:country": "DE", "addr:housenumber": "11", "addr:postcode": "80336", "addr:street": "Bavariastra\u00dfe", "amenity": "hospital", "healthcare": "hospital", "name": "Atriumhaus", "operator": "Isar Amper Klinikum", "phone": "+49 89 76 78 0", "website": "https://kbo-iak.de/standorte/kbo-klinik-fuer-psychiatrie-und-psychotherapie-haar-atriumhaus", "wheelchair": "limited"}}, {"type": "node", "id": 318098102, "lat": 49.0852461, "lon": 12.8754441, "tags": {"addr:city": "Viechtach", "addr:housenumber": "31", "addr:postcode": "94234", "addr:street": "Karl-Gareis-Stra\u00dfe", "amenity": "hospital", "name": "Arberlandklinik Viechtach", "phone": "+49 9942 200", "website": "http://www.kkhviechtach.de"}}, {"type": "node", "id": 329980152, "lat": 48.1574323, "lon": 17.2986874, "tags": {"amenity": "hospital", "name": "Zdravotn\u00e9 stredisko"}}, {"type": "node", "id": 332617267, "lat": 48.134782, "lon": 11.5649428, "tags": {"addr:city": "M\u00fcnchen", "addr:country": "DE", "addr:housename": "Isar Medizin Zentrum", "addr:housenumber": "24", "addr:postcode": "80331", "addr:street": "Sonnenstra\u00dfe", "amenity": "hospital", "email": "info@isarklinikum.de", "emergency": "yes", "fax": "+49 89 149903-1990", "healthcare": "hospital", "name": "Isar Medizin Zentrum", "operator": "Isar Kliniken GmbH", "phone": "+49 89 149903-0", "website": "https://www.isarklinikum.de", "wheelchair": "yes", "wikidata": "Q22674589"}}, {"type": "node", "id": 332743091, "lat": 49.2922906, "lon": 17.378665, "tags": {"amenity": "hospital", "highway": "emergency_access_point", "name": "Nemocnice Krom\u011b\u0159\u00ed\u017e budova A"}}, {"type": "node", "id": 333785005, "lat": 46.3014623, "lon": 10.809961, "tags": {"amenity": "hospital"}}, {"type": "node", "id": 338916073, "lat": 45.6140148, "lon": 11.492417, "tags": {"amenity": "hospital", "name": "Centro Diagnostico Veneto"}}, {"type": "node", "id": 344524090, "lat": 48.3556257, "lon": 11.3895984, "tags": {"addr:city": "Markt Indersdorf", "addr:country": "DE", "addr:housenumber": "45", "addr:postcode": "85229", "addr:street": "Maroldstra\u00dfe", "amenity": "hospital", "email": "info@amperkliniken.de", "emergency": "yes", "healthcare": "hospital", "healthcare:speciality": "geriatrics;emergency;palliative;internal;ambulant;rehabilitation", "name": "Klinik Indersdorf", "operator": "Helios Kliniken", "operator:type": "private", "operator:wikidata": "Q1254151", "phone": "+49 8136 939-0", "website": "http://www.unifrauenklinik-kiel.de/Frauen-Kinderklinik-Dachau.html", "wheelchair": "yes"}}, {"type": "node", "id": 361145825, "lat": 44.5774339, "lon": 11.358319, "tags": {"amenity": "hospital", "healthcare": "hospital", "name": "Poliambulatorio AUSL", "operator": "ASL Bologna Nord", "operator:type": "public"}}, {"type": "node", "id": 366521592, "lat": 48.75996, "lon": 11.4236752, "tags": {"addr:city": "Ingolstadt", "addr:country": "DE", "addr:housenumber": "3-5", "addr:postcode": "85049", "addr:street": "Preysingstra\u00dfe", "amenity": "hospital", "contact:email": "info@danuviusklinik.de", "contact:phone": "+49 841 9339-0", "contact:website": "http://www.danuvius-ingolstadt.de", "emergency": "no", "healthcare": "hospital", "name": "Danuvius Klinik", "wheelchair": "yes"}}, {"type": "node", "id": 366594017, "lat": 47.9949442, "lon": 11.169939, "tags": {"amenity": "hospital", "check_date": "2021-06-22", "email": "info@klinik-schindlbeck.de", "fax": "+49 8152 29-216", "healthcare": "hospital", "name": "Klinik Dr. Robert Schindlbeck", "phone": "+49 8152 29-0", "start_date": "1946", "website": "https://www.klinik-schindlbeck.de", "wheelchair": "yes"}}, {"type": "node", "id": 384732739, "lat": 43.6143726, "lon": 11.4772102, "tags": {"amenity": "hospital", "ele": "123.6542969"}}, {"type": "node", "id": 386158263, "lat": 48.9096886, "lon": 12.6971313, "tags": {"addr:city": "Bogen", "addr:housenumber": "8", "addr:postcode": "94327", "addr:street": "Mussinanstra\u00dfe", "amenity": "hospital", "healthcare": "hospital", "name": "Klinik Bogen", "operator": "Kreiskliniken Bogen-Mallersdorf", "wheelchair": "yes"}}, {"type": "node", "id": 387221877, "lat": 41.2674854, "lon": 16.4296805, "tags": {"amenity": "hospital", "name": "San Nicola Pellegrino"}}, {"type": "node", "id": 389887244, "lat": 48.3527931, "lon": 19.0639237, "tags": {"addr:city": "Krupina", "addr:housenumber": "23", "addr:postcode": "26301", "addr:street": "29. augusta", "amenity": "hospital", "contact:website": "https://www.nemocnicakrupina.sk/index.html", "name": "Nemocnica Krupina"}}, {"type": "node", "id": 393807826, "lat": 48.6980355, "lon": 12.0032895, "tags": {"addr:city": "Rottenburg a. d. Laaber", "addr:country": "DE", "addr:housenumber": "1", "addr:postcode": "84056", "addr:street": "Schlo\u00dfstra\u00dfe", "amenity": "hospital", "email": "verwaltung@schlossklinik-rottenburg.de", "emergency": "no", "healthcare": "hospital", "name": "Schlossklinik Rottenburg", "operator": "LakuMed", "phone": "+49 8781 94990", "website": "http://www.schlossklinik-rottenburg.de"}}, {"type": "node", "id": 415564586, "lat": 49.4234503, "lon": 11.0242719, "tags": {"addr:city": "N\u00fcrnberg", "addr:country": "DE", "addr:housenumber": "11", "addr:postcode": "90449", "addr:street": "Weiltinger Stra\u00dfe", "amenity": "hospital", "healthcare": "hospital", "name": "Klinik am Birkenwald", "website": "https://www.klinik-am-birkenwald.de/", "wikidata": "Q96579961"}}, {"type": "node", "id": 417793397, "lat": 42.2889516, "lon": 18.8439659, "tags": {"addr:street": "Jadranski put", "amenity": "hospital", "healthcare": "hospital", "name": "Ordinacija Laboratorija", "name:en": "Milmedika", "name:ru": "\u041c\u0435\u0434.\u0446\u0435\u043d\u0442\u0440 \u041c\u0438\u043b\u043c\u0435\u0434\u0438\u043a\u0430", "opening_hours": "Mo-Su 08:00-20:00", "website": "https://milmedika.com"}}, {"type": "node", "id": 420312252, "lat": 48.7535855, "lon": 17.8311453, "tags": {"amenity": "hospital", "email": "nspnm@nspnm.sk", "healthcare": "hospital", "name": "Nemocnica s poliklinikou, Nov\u00e9 Mesto nad V\u00e1hom, n. o.", "phone": "+421 32  774 04 11", "website": "http://www.nspnm.sk/", "wheelchair": "yes"}}, {"type": "node", "id": 424383977, "lat": 42.8158783, "lon": 10.319724, "tags": {"amenity": "hospital", "healthcare": "hospital", "name": "O.C.E. Ospedale Civile Elbano"}}, {"type": "node", "id": 429375430, "lat": 41.513907, "lon": 15.3318254, "tags": {"amenity": "hospital", "name": "Ospedale Francesco Lastaria"}}, {"type": "node", "id": 434692525, "lat": 41.8870757, "lon": 12.3983943, "tags": {"amenity": "hospital", "emergency": "yes", "name": "Aurelia Hospital", "url": "http://www.aureliahospital.com/", "wheelchair": "yes", "wikidata": "Q30279876"}}, {"type": "node", "id": 439254427, "lat": 48.1287307, "lon": 11.5643682, "tags": {"addr:city": "M\u00fcnchen", "addr:country": "DE", "addr:housenumber": "48", "addr:postcode": "80337", "addr:street": "Thalkirchner Stra\u00dfe", "amenity": "hospital", "emergency": "no", "fax": "+49 89 51476403", "healthcare": "hospital", "name": "Klinik Thalkirchner Stra\u00dfe", "operator": "St\u00e4dtisches Klinikum M\u00fcnchen GmbH", "phone": "+49 89 1476011", "website": "https://www.muenchen-klinik.de/krankenhaus/thalkirchner-strasse/", "wheelchair": "limited", "wikidata": "Q1687174"}}, {"type": "node", "id": 444409083, "lat": 48.5658163, "lon": 10.6793232, "tags": {"addr:city": "Wertingen", "addr:housenumber": "36", "addr:postcode": "86637", "addr:street": "Ebersberg", "amenity": "hospital", "emergency": "yes", "name": "Kreisklinik Wertingen", "wheelchair": "no"}}, {"type": "node", "id": 450198361, "lat": 40.424833, "lon": 15.1941453, "tags": {"amenity": "hospital", "healthcare": "hospital", "name": "Ospedale di Roccadaspide"}}, {"type": "node", "id": 454398605, "lat": 42.389641, "lon": 18.9274974, "tags": {"amenity": "hospital", "healthcare": "hospital", "name": "Dom zdravlja Cetinje", "name:sr": "\u0414\u043e\u043c \u0437\u0434\u0440\u0430\u0432\u0459\u0430 \u0426\u0435\u0442\u0438\u045a\u0435"}}, {"type": "node", "id": 456203291, "lat": 44.7013647, "lon": 11.3998688, "tags": {"amenity": "hospital", "healthcare": "hospital", "name": "Polo Sanitario \"Anacleto Bonora\""}}, {"type": "node", "id": 464313412, "lat": 42.7660981, "lon": 10.3926002, "tags": {"amenity": "hospital", "healthcare": "hospital", "name": "Guardia Medica - Medical Assistance"}}, {"type": "node", "id": 465614224, "lat": 42.8065839, "lon": 10.1965584, "tags": {"amenity": "hospital", "healthcare": "hospital", "name": "Guardia Medica - Medical Assistance"}}, {"type": "node", "id": 473046528, "lat": 47.0555099, "lon": 18.90948, "tags": {"amenity": "hospital", "healthcare": "hospital", "name": "Kist\u00e9rs\u00e9gi Eg\u00e9szs\u00e9g\u00fcgyi K\u00f6zpont"}}, {"type": "node", "id": 474385036, "lat": 44.498098, "lon": 11.3346146, "tags": {"amenity": "hospital", "healthcare": "hospital", "name": "Ospedale Militare"}}, {"type": "node", "id": 477224118, "lat": 47.0551169, "lon": 18.9134994, "tags": {"amenity": "hospital", "name": "K Klinika"}}, {"type": "node", "id": 477370529, "lat": 43.4997838, "lon": 12.9414537, "tags": {"amenity": "hospital"}}, {"type": "node", "id": 478745210, "lat": 49.6363793, "lon": 13.1550448, "tags": {"amenity": "hospital", "healthcare": "hospital", "name": "Stodsk\u00e1 nemocnice"}}, {"type": "node", "id": 479862703, "lat": 49.0072976, "lon": 13.2183653, "tags": {"addr:city": "Zwiesel", "addr:country": "DE", "addr:housenumber": "1", "addr:postcode": "94227", "addr:street": "Arberlandstra\u00dfe", "amenity": "hospital", "healthcare": "hospital", "name": "ARBERLANDKlinik Zwiesel", "name:de": "Arberlandklinik", "phone": "+49 9922 990", "website": "https://www.arberlandkliniken.de", "wheelchair": "yes"}}, {"type": "node", "id": 485615985, "lat": 43.7593113, "lon": 15.7775458, "tags": {"amenity": "hospital", "healthcare": "hospital"}}, {"type": "node", "id": 502203320, "lat": 45.8474468, "lon": 13.9603184, "tags": {"addr:city": "Vipava", "addr:housenumber": "5", "addr:postcode": "5271", "addr:street": "Beblerjeva ulica", "amenity": "hospital", "healthcare": "hospital", "name": "Zdravstvena postaja Vipava", "operator": "ZD Ajdov\u0161\u010dina"}}, {"type": "node", "id": 511622186, "lat": 48.350759, "lon": 13.3212997, "tags": {"amenity": "hospital", "healthcare": "hospital", "name": "Waldburg-Zeil Klinik Niederbayern", "phone": "+49 (0)8531 970-0", "website": "https://www.klinik-niederbayern.de", "wheelchair": "yes"}}, {"type": "node", "id": 519018205, "lat": 43.2476802, "lon": 13.5079439, "tags": {"addr:city": "Corridonia", "addr:postcode": "62014", "amenity": "hospital", "healthcare": "hospital", "name": "Ospedale"}}, {"type": "node", "id": 524321517, "lat": 49.9786763, "lon": 10.0990793, "tags": {"addr:city": "Werneck", "addr:country": "DE", "addr:housenumber": "1", "addr:postcode": "97440", "addr:street": "Balthasar-Neumann-Platz", "amenity": "hospital", "email": "info@kh-schloss-werneck.de", "emergency": "yes", "healthcare": "hospital", "healthcare:speciality": "psychosomatic_medicine;psychiatry", "name": "Krankenhaus f\u00fcr Psychiatrie, Psychotherapie und Psychosomatische Medizin Schloss Werneck", "phone": "+49 9722 210", "website": "https://www.psychiatrie-werneck.de", "wheelchair": "yes"}}, {"type": "node", "id": 527877200, "lat": 44.480713, "lon": 11.3485301, "tags": {"addr:city": "Bologna", "addr:housenumber": "115", "addr:street": "Via Castiglione", "amenity": "hospital", "emergency": "no", "healthcare": "hospital", "healthcare:speciality": "general", "name": "Villa Regina"}}, {"type": "node", "id": 528899706, "lat": 44.4245769, "lon": 12.2045274, "tags": {"amenity": "hospital", "healthcare": "hospital", "name": "Casa di cura San Francesco", "name:etymology:wikidata": "Q676555"}}, {"type": "node", "id": 533694525, "lat": 43.7524277, "lon": 11.185848, "tags": {"amenity": "hospital", "name": "Humanitas", "wheelchair": "yes"}}, {"type": "node", "id": 534447403, "lat": 43.9585304, "lon": 11.3746642, "tags": {"amenity": "hospital", "emergency": "yes", "healthcare": "hospital", "name": "Pronto Soccorso Ospedale del Mugello"}}, {"type": "node", "id": 534609447, "lat": 41.8767423, "lon": 16.1620513, "tags": {"amenity": "hospital"}}, {"type": "node", "id": 536513332, "lat": 40.7605783, "lon": 14.020801, "tags": {"amenity": "hospital", "name": "Ospedale Civile Albano Francescano"}}, {"type": "node", "id": 540064439, "lat": 45.6636602, "lon": 16.5243602, "tags": {"amenity": "hospital", "name": "Dom zdravlja Kri\u017e"}}, {"type": "node", "id": 546428302, "lat": 40.4256661, "lon": 15.1921281, "tags": {"amenity": "hospital", "healthcare": "hospital", "name": "Distretto ASL SA3 di Roccadaspide"}}, {"type": "node", "id": 558635245, "lat": 46.0095327, "lon": 11.3041043, "tags": {"amenity": "hospital", "healthcare": "hospital", "name": "APSS Poliambulatorio di Levico Terme"}}, {"type": "node", "id": 567243847, "lat": 40.9932633, "lon": 17.2253764, "tags": {"amenity": "hospital", "name": "Punto di primo intervento"}}, {"type": "node", "id": 582732952, "lat": 45.6560052, "lon": 12.4279679, "tags": {"amenity": "hospital", "healthcare": "hospital", "name": "Casa di Cura Papa Giovanni XXIII"}}, {"type": "node", "id": 595790313, "lat": 42.8514698, "lon": 13.6227292, "tags": {"addr:city": "Ascoli Piceno", "addr:housenumber": "6", "addr:postcode": "63100", "addr:street": "Via dei Girasoli", "amenity": "hospital", "healthcare": "hospital", "name": "Casa di Cura San Giuseppe", "operator": "Suore Ospedaliere", "phone": "+39 0736 42325; +39 0736 42335", "website": "https://ascoli.ospedaliere.it/"}}, {"type": "node", "id": 603892070, "lat": 47.7638432, "lon": 12.6427615, "tags": {"addr:city": "Ruhpolding", "addr:country": "DE", "addr:housenumber": "24", "addr:postcode": "83324", "addr:street": "Hauptstra\u00dfe", "amenity": "hospital", "emergency": "yes", "healthcare": "hospital", "name": "Kreisklinik Vinzentinum", "operator": "Kliniken S\u00fcdostbayern AG", "phone": "+49 8663 520"}}, {"type": "node", "id": 606149624, "lat": 47.8712205, "lon": 10.2233054, "tags": {"amenity": "hospital", "healthcare": "hospital", "name": "VAMED"}}, {"type": "node", "id": 608646294, "lat": 43.9427299, "lon": 11.9014853, "tags": {"amenity": "hospital", "name": "Ospedale \"Nefetti\""}}, {"type": "node", "id": 610351314, "lat": 49.1389974, "lon": 15.0034888, "tags": {"amenity": "hospital", "healthcare": "hospital", "name": "Nemocnice Jind\u0159ich\u016fv Hradec, a.s.", "note": "http://www.hospitaljh.cz", "source": "uhul:ortofoto"}}, {"type": "node", "id": 611819914, "lat": 44.0929466, "lon": 12.404185, "tags": {"amenity": "hospital", "healthcare": "hospital"}}, {"type": "node", "id": 618659788, "lat": 48.1332364, "lon": 11.5596871, "tags": {"addr:city": "M\u00fcnchen", "addr:country": "DE", "addr:housenumber": "26", "addr:postcode": "80336", "addr:street": "Nu\u00dfbaumstra\u00dfe", "amenity": "hospital", "email": "info@klinikum.uni-muenchen.de", "healthcare": "hospital", "healthcare:speciality": "pathology", "name": "Institut f\u00fcr Rechtsmedizin", "operator": "Ludwig-Maximilians-Universit\u00e4t", "operator:short": "LMU", "operator:type": "public", "operator:wikidata": "Q55044", "operator:wikipedia": "de:Ludwig-Maximilians-Universit\u00e4t M\u00fcnchen", "website": "https://www.lmu-klinikum.de/", "wheelchair": "yes"}}, {"type": "node", "id": 644135437, "lat": 42.8492514, "lon": 13.5881776, "tags": {"addr:city": "Ascoli Piceno", "addr:housenumber": "11", "addr:postcode": "63100", "addr:street": "Via 3 Ottobre", "amenity": "hospital", "healthcare": "hospital", "name": "Casa di Cura Villa San Marco", "phone": "+39 0736 43588", "website": "https://www.villasanmarco.it/"}}, {"type": "node", "id": 644660464, "lat": 48.4296787, "lon": 13.1848165, "tags": {"addr:city": "Bad Griesbach i. Rottal", "addr:housenumber": "1", "addr:postcode": "94086", "addr:street": "B\u00fcrgermeister-Hartl-Platz", "amenity": "hospital", "healthcare": "hospital", "healthcare:speciality": "neurology;geriatrics;orthopaedics;cardiology", "name": "Passauer Wolf Reha-Zentrum Bad Griesbach", "note": "FIXME: drawn from memory"}}, {"type": "node", "id": 660801785, "lat": 48.8590587, "lon": 18.8623463, "tags": {"amenity": "hospital", "healthcare": "hospital", "name": "Poliklinika Tur\u010dianske Teplice"}}, {"type": "node", "id": 667117500, "lat": 41.0922843, "lon": 16.0763594, "tags": {"amenity": "hospital", "name": "Ospedale Civile"}}, {"type": "node", "id": 671619973, "lat": 45.5748583, "lon": 10.7102933, "tags": {"amenity": "hospital", "name": "White Cross ambulance"}}, {"type": "node", "id": 678580647, "lat": 46.3171673, "lon": 15.666802, "tags": {"addr:housenumber": "28", "addr:street": "Makole", "amenity": "hospital", "name": "ZOBNA AMBULANTA MAKOLE MIROSLAV KOVA\u010cI\u010c, DR. DENT. MED."}}, {"type": "node", "id": 678580660, "lat": 46.3171965, "lon": 15.6668537, "tags": {"addr:housenumber": "28", "addr:street": "Makole", "amenity": "hospital", "name": "ZASEBNA SPLO\u0160NA AMBULANTA SILVANA POPOV, DR. MED., SPEC. SPL. MED."}}, {"type": "node", "id": 702520462, "lat": 46.6995002, "lon": 12.9887397, "tags": {"amenity": "hospital", "name": "Landeskrankenhaus Laas"}}, {"type": "node", "id": 703139826, "lat": 43.5712481, "lon": 12.1534255, "tags": {"addr:city": "Sansepolcro", "addr:housenumber": "101", "addr:postcode": "52037", "addr:street": "Viale Galileo Galilei", "amenity": "hospital", "emergency": "yes", "healthcare": "hospital", "name": "Ospedale Sansepolcro"}}, {"type": "node", "id": 710894546, "lat": 47.4250476, "lon": 14.7605355, "tags": {"addr:city": "Kalwang", "addr:country": "AT", "addr:housenumber": "1", "addr:postcode": "8775", "addr:street": "Rudolf-von-Gutmann-Stra\u00dfe", "amenity": "hospital", "at_bev:addr_date": "2018-10-01", "emergency": "yes", "healthcare": "hospital", "name": "Unfallkrankenhaus Steiermark, Standort Kalwang", "operator": "Allgemeine Unfallversicherungsanstalt", "website": "http://www.ukh-steiermark.at/", "wikidata": "Q2493163", "wikipedia": "de:Unfallkrankenhaus Kalwang"}}, {"type": "node", "id": 715801424, "lat": 43.8012749, "lon": 11.2483332, "tags": {"amenity": "hospital", "healthcare": "hospital", "name": "C.T.O.", "wheelchair": "yes"}}, {"type": "node", "id": 724462214, "lat": 48.576195, "lon": 17.8197771, "tags": {"amenity": "hospital", "healthcare": "hospital", "healthcare:speciality": "rehabilitation;logopaedia;neurology;kinesitherapy;physiotherapy", "internet_access": "wlan", "internet_access:fee": "no", "name": "ADELI Medical Center", "phone": "+421337915900", "toilets:wheelchair": "yes", "website": "https://adelicenter.eu/", "wheelchair": "yes"}}, {"type": "node", "id": 736622623, "lat": 43.2342658, "lon": 13.6887546, "tags": {"amenity": "hospital", "healthcare": "hospital"}}, {"type": "node", "id": 766398699, "lat": 48.887118, "lon": 18.0315565, "tags": {"addr:unit": "Ambulancia", "amenity": "hospital", "healthcare": "hospital", "healthcare:speciality": "paediatrics", "name": "Ambulancia pre deti a dorast, MUDr. Me\u0148hertov\u00e1 Monika"}}, {"type": "node", "id": 776854538, "lat": 42.5144385, "lon": 18.6986482, "tags": {"amenity": "hospital"}}, {"type": "node", "id": 780271043, "lat": 45.6471553, "lon": 11.7887626, "tags": {"addr:city": "Cittadella", "addr:housenumber": "40", "addr:postcode": "35013", "addr:street": "Via Casa di Ricovero", "amenity": "hospital", "healthcare": "hospital", "internet_access": "wlan", "name": "Ospedale di Cittadella", "wheelchair": "yes"}}, {"type": "node", "id": 799400828, "lat": 42.0688096, "lon": 12.7624968, "tags": {"amenity": "hospital", "emergency": "ambulance_station", "name": "San Salvatore"}}, {"type": "node", "id": 804465318, "lat": 41.8023637, "lon": 12.4486445, "tags": {"addr:housenumber": "23", "addr:postcode": "00144", "addr:street": "Via Fermo Ognibene", "amenity": "hospital", "healthcare": "hospital", "name": "I.F.O. Istituto Regina Elena e Istituto San Gallicano", "name:it": "Istituto San Gallicano", "opening_hours": "Mo-Fr; Sa 08:00-01:00"}}, {"type": "node", "id": 806505348, "lat": 41.7055843, "lon": 15.9699458, "tags": {"amenity": "hospital", "healthcare": "hospital"}}, {"type": "node", "id": 811406978, "lat": 44.2816357, "lon": 11.1097291, "tags": {"amenity": "hospital", "name": "Vergato"}}, {"type": "node", "id": 817771347, "lat": 45.5817654, "lon": 10.7160592, "tags": {"addr:city": "Garda", "addr:housenumber": "89", "addr:postcode": "37016", "addr:street": "Via Monte Baldo", "amenity": "hospital", "contact:pec": "casadicuravillagarda@pec.it", "email": "info@villagarda.it", "name": "Casa di Cura Villa Garda", "phone": "+39 045 6208611"}}, {"type": "node", "id": 822158703, "lat": 47.7346007, "lon": 18.1680505, "tags": {"amenity": "hospital", "healthcare": "hospital", "name": "Selye J\u00e1nos K\u00f3rh\u00e1z"}}, {"type": "node", "id": 824408688, "lat": 45.5503217, "lon": 10.7264242, "tags": {"amenity": "hospital", "name": "Medical Clinic"}}, {"type": "node", "id": 839208231, "lat": 41.7751867, "lon": 12.9209545, "tags": {"addr:city": "Valmontone", "addr:housenumber": "8", "addr:postcode": "00038", "addr:street": "Via Porta Napoletana", "amenity": "hospital", "healthcare": "hospital", "healthcare:speciality": "blood_check", "name": "Centro formazione Valmontone"}}, {"type": "node", "id": 846158278, "lat": 49.8914136, "lon": 17.1350241, "tags": {"addr:conscriptionnumber": "167", "addr:country": "CZ", "addr:housenumber": "167", "addr:place": "Oskava", "addr:postcode": "78801", "amenity": "hospital", "designation": "Zdravotn\u00ed st\u0159edisko Oskava", "emergency": "no", "name": "Zdravotn\u00ed st\u0159edisko Oskava", "ref:ruian:addr": "8048363"}}, {"type": "node", "id": 858926388, "lat": 45.5973152, "lon": 17.2270514, "tags": {"amenity": "hospital", "name": "Daruvarske toplice", "wheelchair": "yes"}}, {"type": "node", "id": 871629023, "lat": 46.1755328, "lon": 18.9594442, "tags": {"addr:city": "Baja", "addr:housenumber": "10", "addr:postcode": "6500", "addr:street": "R\u00f3kus utca", "amenity": "hospital", "building": "yes", "healthcare": "hospital", "name": "Szent R\u00f3kus K\u00f3rh\u00e1z", "wheelchair": "yes"}}, {"type": "node", "id": 875665169, "lat": 45.8805961, "lon": 11.4378456, "tags": {"amenity": "hospital", "name": "Istituto Ortopedico Elioterapico"}}, {"type": "node", "id": 894283612, "lat": 45.8955334, "lon": 12.2863221, "tags": {"amenity": "hospital", "healthcare": "hospital", "healthcare:speciality": "paediatrics;neurology;rehabilitation", "name": "Ass. La Nostra Famiglia"}}, {"type": "node", "id": 895559828, "lat": 45.3557088, "lon": 12.3274805, "tags": {"amenity": "hospital", "healthcare": "hospital", "name": "Istituto Carlo Steeb"}}, {"type": "node", "id": 916096834, "lat": 47.5816525, "lon": 10.0084155, "tags": {"amenity": "hospital", "contact:email": "info@hochgrat-klinik.de", "contact:phone": "+49 8386 96220", "contact:website": "http://www.dr-reisach-kliniken.de/hochgrat-klinik.html", "emergency": "no", "healthcare:speciality": "psychotherapie", "name": "Hochgrat Klinik", "toilets:wheelchair": "no", "wheelchair": "limited"}}, {"type": "node", "id": 939390553, "lat": 49.9803341, "lon": 10.1003533, "tags": {"addr:city": "Werneck", "addr:country": "DE", "addr:housenumber": "1", "addr:postcode": "97440", "addr:street": "Balthasar-Neumann-Platz", "amenity": "hospital", "email": "info@kh-schloss-werneck.de", "emergency": "yes", "healthcare": "hospital", "healthcare:speciality": "orthopaedics", "name": "Orthop\u00e4disches Krankenhaus Schloss Werneck", "phone": "+49 9722 210", "website": "https://www.orthop\u00e4die-werneck.de/", "wheelchair": "yes"}}, {"type": "node", "id": 960871166, "lat": 49.7652876, "lon": 13.3593316, "tags": {"amenity": "hospital", "healthcare": "hospital", "name": "Privamed"}}, {"type": "node", "id": 971128538, "lat": 49.2352952, "lon": 12.7171188, "tags": {"addr:city": "Cham", "addr:country": "DE", "addr:housenumber": "22", "addr:postcode": "93413", "addr:street": "Klinikstra\u00dfe", "amenity": "hospital", "name": "Bayerwald-Klinik"}}, {"type": "node", "id": 1003901514, "lat": 48.1639767, "lon": 11.5934941, "tags": {"addr:city": "M\u00fcnchen", "addr:country": "DE", "addr:housenumber": "29", "addr:postcode": "80802", "addr:street": "Biedersteiner Stra\u00dfe", "amenity": "hospital", "healthcare": "hospital", "healthcare:speciality": "dermatology;allergology", "name": "Klinik und Poliklinik f\u00fcr Dermatologie und Allergologie am Biederstein, TU M\u00fcnchen", "toilets:wheelchair": "yes", "wheelchair": "yes"}}, {"type": "node", "id": 1005263880, "lat": 45.410084, "lon": 11.860234, "tags": {"amenity": "hospital", "name": "Villa Maria"}}, {"type": "node", "id": 1035723052, "lat": 41.7123558, "lon": 12.7170153, "tags": {"amenity": "hospital", "name": "Villa delle Querce"}}, {"type": "node", "id": 1045853384, "lat": 44.695862, "lon": 12.1901675, "tags": {"amenity": "hospital", "healthcare": "hospital", "name": "Ospedale San Camillo"}}, {"type": "node", "id": 1047704499, "lat": 43.6122663, "lon": 11.4647121, "tags": {"amenity": "hospital", "name": "Frate Sole"}}, {"type": "node", "id": 1088083292, "lat": 43.6577621, "lon": 11.18653, "tags": {"amenity": "hospital", "healthcare": "hospital", "name": "A.S.L.", "operator": "ASL", "operator:wikidata": "Q3631467"}}, {"type": "node", "id": 1089138199, "lat": 40.6150379, "lon": 14.9726498, "tags": {"amenity": "hospital", "healthcare": "hospital", "name": "Santa Maria della Speranza"}}, {"type": "node", "id": 1107808246, "lat": 40.5241118, "lon": 14.9216431, "tags": {"amenity": "hospital", "name": "Campolongo Hospital"}}, {"type": "node", "id": 1120722373, "lat": 45.4460915, "lon": 12.1623431, "tags": {"amenity": "hospital", "healthcare": "hospital", "name": "Consultorio USL 13"}}, {"type": "node", "id": 1138002831, "lat": 44.2409731, "lon": 12.0769134, "tags": {"amenity": "hospital", "name": "Ospedale Privato \"Primus\", gruppo Villa Maria"}}, {"type": "node", "id": 1157179801, "lat": 47.4923672, "lon": 18.6361049, "tags": {"amenity": "hospital", "wheelchair": "yes"}}, {"type": "node", "id": 1166552706, "lat": 44.3887423, "lon": 11.8260368, "tags": {"amenity": "hospital", "name": "Poliambulatorio"}}, {"type": "node", "id": 1174470623, "lat": 47.4998964, "lon": 19.0733468, "tags": {"amenity": "hospital", "healthcare": "hospital", "name": "P\u00e9terfy S\u00e1ndor utcai k\u00f3rh\u00e1z Sz\u00f6vets\u00e9g utcai r\u00e9szlege", "wheelchair": "yes"}}, {"type": "node", "id": 1184554228, "lat": 47.3854043, "lon": 13.4671278, "tags": {"amenity": "hospital", "healthcare": "hospital"}}, {"type": "node", "id": 1199738012, "lat": 45.9398768, "lon": 19.6711949, "tags": {"amenity": "hospital"}}, {"type": "node", "id": 1199935858, "lat": 46.1316714, "lon": 16.1210273, "tags": {"amenity": "hospital", "name": "Ambulanta Belec"}}, {"type": "node", "id": 1223290689, "lat": 49.1648759, "lon": 13.8903084, "tags": {"amenity": "hospital", "name": "L\u00e9\u010debna dlouhodob\u011b nemocn\u00fdch"}}, {"type": "node", "id": 1229361637, "lat": 48.4379386, "lon": 17.7025992, "tags": {"amenity": "hospital", "healthcare:speciality": "general", "name": "Zdravotn\u00e9 stredisko", "name:en": "Health Centre"}}, {"type": "node", "id": 1241563267, "lat": 41.9079112, "lon": 15.3374535, "tags": {"amenity": "hospital", "emergency": "yes", "name": "Pronto Soccorso Estivo"}}, {"type": "node", "id": 1253859525, "lat": 44.4741551, "lon": 10.0887647, "tags": {"amenity": "hospital"}}, {"type": "node", "id": 1263133505, "lat": 48.2439293, "lon": 12.52199, "tags": {"amenity": "hospital", "emergency": "no", "healthcare": "hospital", "name": "Gyn-Zentrum", "wheelchair": "no"}}, {"type": "node", "id": 1273194519, "lat": 41.9080048, "lon": 12.4490492, "tags": {"addr:city": "Roma", "addr:housenumber": "23", "addr:postcode": "00136", "addr:street": "Via Vittor Pisani", "amenity": "hospital", "emergency": "yes", "healthcare": "hospital", "name": "Pronto Soccorso Ospedale Oftalmico"}}, {"type": "node", "id": 1276417070, "lat": 45.6483027, "lon": 19.0658937, "tags": {"amenity": "hospital"}}, {"type": "node", "id": 1284772286, "lat": 49.9844906, "lon": 14.7169792, "tags": {"amenity": "hospital", "emergency": "no", "name": "L\u00e9\u010debna dlouhodob\u011b nemocn\u00fdch Vojkov"}}, {"type": "node", "id": 1285286391, "lat": 48.1505955, "lon": 11.618485, "tags": {"amenity": "hospital", "healthcare": "hospital", "name": "Arabella-Klinik", "phone": "+49 89 92 20 92 0", "website": "https://arabellaklinik.de/", "wheelchair": "limited"}}, {"type": "node", "id": 1287850568, "lat": 43.5273085, "lon": 18.7822921, "tags": {"addr:city": "Fo\u010da", "addr:country": "BA", "addr:housenumber": "bb", "addr:postcode": "73300", "addr:street": "Studentska", "amenity": "hospital", "contact:email": "bolnicaf@bolnicafoca.com", "contact:phone": "+387 58 222500", "contact:website": "http://www.bolnicafoca.com", "emergency": "yes", "name": "Univerzitetska bolnica Fo\u010da", "name:sr": "\u0423\u043d\u0438\u0432\u0435\u0440\u0437\u0438\u0442\u0435\u0442\u0441\u043a\u0430 \u0431\u043e\u043b\u043d\u0438\u0446\u0430 \u0424\u043e\u0447\u0430"}}, {"type": "node", "id": 1294778164, "lat": 45.6570752, "lon": 19.4531271, "tags": {"amenity": "hospital", "healthcare": "hospital", "name": "\u0414\u043e\u043c \u0437\u0434\u0440\u0430\u0432\u0459\u0430 \u0426\u0440\u0432\u0435\u043d\u043a\u0430", "name:sr": "\u0414\u043e\u043c \u0437\u0434\u0440\u0430\u0432\u0459\u0430 \u0426\u0440\u0432\u0435\u043d\u043a\u0430", "name:sr-Latn": "Dom zdravlja Crvenka"}}, {"type": "node", "id": 1306516468, "lat": 40.7220494, "lon": 19.5619361, "tags": {"amenity": "hospital", "emergency": "yes"}}, {"type": "node", "id": 1306706940, "lat": 46.1464642, "lon": 17.64935, "tags": {"amenity": "hospital", "healthcare": "hospital"}}, {"type": "node", "id": 1308675281, "lat": 42.4573163, "lon": 18.5089299, "tags": {"amenity": "hospital", "designation": "Igalo", "emergency": "yes", "healthcare": "hospital", "name": "Institut Dr. Simo Milo\u0161evi\u0107 - II Faza", "name:sr": "\u0418\u043d\u0441\u0442\u0438\u0442\u0443\u0442 \u0414\u0440. \u0421\u0438\u043c\u043e \u041c\u0438\u043b\u043e\u0448\u0435\u0432\u0438\u045b - II \u0444\u0430\u0437\u0430"}}, {"type": "node", "id": 1330957451, "lat": 45.5917469, "lon": 12.2355855, "tags": {"amenity": "hospital", "name": "Park Villa Napoleon - casa di cura neuropsichiatrica"}}, {"type": "node", "id": 1350293449, "lat": 40.0564461, "lon": 18.0151121, "tags": {"amenity": "hospital", "emergency": "yes", "name": "Ospedale \"Sacro Cuore\""}}, {"type": "node", "id": 1373723642, "lat": 47.7425953, "lon": 18.1224277, "tags": {"amenity": "hospital", "emergency": "no", "healthcare": "hospital", "name": "Selye J\u00e1nos Szakrendel\u0151 Int\u00e9zet"}}, {"type": "node", "id": 1376709969, "lat": 40.473025, "lon": 17.2478859, "tags": {"amenity": "hospital", "emergency": "no", "name": "Ospedale Militare Marittimo"}}, {"type": "node", "id": 1388471311, "lat": 45.828192, "lon": 11.8374924, "tags": {"amenity": "hospital", "emergency": "yes", "name": "SUEM 118  GUARDIA MEDICA"}}, {"type": "node", "id": 1395571920, "lat": 47.172579, "lon": 18.4107793, "tags": {"addr:postcode": "8000", "addr:street": "Cs\u00edkv\u00e1ri utca", "amenity": "hospital", "healthcare": "hospital", "name": "\u00c1llatk\u00f3rh\u00e1z", "wheelchair": "yes"}}, {"type": "node", "id": 1405526488, "lat": 48.1540436, "lon": 11.5822061, "tags": {"addr:city": "M\u00fcnchen", "addr:country": "DE", "addr:housenumber": "5", "addr:postcode": "80802", "addr:street": "Leopoldstra\u00dfe", "amenity": "hospital", "healthcare": "hospital", "name": "Tropeninstitut der innerst\u00e4dtischen Kliniken", "wheelchair": "no", "wheelchair:description": "Stufen zu beiden Zug\u00e4ngen"}}, {"type": "node", "id": 1408250334, "lat": 46.8766514, "lon": 19.2203643, "tags": {"amenity": "hospital", "healthcare": "hospital"}}, {"type": "node", "id": 1435491073, "lat": 42.4521485, "lon": 18.5574348, "tags": {"amenity": "hospital", "healthcare": "hospital", "name": "Vojna bolnica", "name:sr": "\u0412\u043e\u0458\u043d\u0430 \u0431\u043e\u043b\u043d\u0438\u0446\u0430"}}, {"type": "node", "id": 1457151225, "lat": 40.848373, "lon": 14.4705152, "tags": {"amenity": "hospital", "emergency": "yes", "name": "Casa di cura Trusso"}}, {"type": "node", "id": 1462176201, "lat": 40.8329738, "lon": 14.4998189, "tags": {"amenity": "hospital", "name": "Clinica Santa Lucia"}}, {"type": "node", "id": 1468299924, "lat": 41.5002213, "lon": 13.0620967, "tags": {"addr:housenumber": "1", "addr:postcode": "04018", "addr:street": "Via San Bartolomeo", "amenity": "hospital", "check_date": "2022-12-13", "name": "Casa della salute di Sezze", "opening_hours": "Mo-Fr 08:00-20:00", "operator:type": "public", "phone": "+39 0773 801500"}}, {"type": "node", "id": 1481553818, "lat": 45.3812403, "lon": 15.5466102, "tags": {"amenity": "hospital"}}, {"type": "node", "id": 1489951980, "lat": 45.8731437, "lon": 13.0416996, "tags": {"amenity": "hospital", "emergency": "no"}}, {"type": "node", "id": 1501717205, "lat": 49.0568577, "lon": 13.7643629, "tags": {"amenity": "hospital", "emergency": "yes", "healthcare": "hospital", "name": "Nemocnice Vimperk a.s.", "operator": "Bohemia Hospitals", "phone": "+420 388 400 100", "website": "http://www.nemocnicevimperk.cz"}}, {"type": "node", "id": 1529572493, "lat": 44.4437596, "lon": 11.8299832, "tags": {"amenity": "hospital", "healthcare": "hospital"}}, {"type": "node", "id": 1540781487, "lat": 45.3880317, "lon": 11.7911498, "tags": {"amenity": "hospital", "healthcare": "hospital", "name": "ULSS 6 Euganea", "operator": "ULSS 6 Euganea"}}, {"type": "node", "id": 1542352809, "lat": 45.2533497, "lon": 19.8291456, "tags": {"amenity": "hospital", "healthcare": "hospital", "name": "Genesis", "name:en": "Genesis", "name:sr": "\u0413\u0435\u043d\u0435\u0437\u0438\u0441", "name:sr-Latn": "Genezis"}}, {"type": "node", "id": 1549453127, "lat": 43.8671921, "lon": 10.3414108, "tags": {"amenity": "hospital", "emergency": "yes", "healthcare": "centre", "name": "Misericordia"}}, {"type": "node", "id": 1557240836, "lat": 45.873754, "lon": 17.8515341, "tags": {"amenity": "hospital", "designation": "Eg\u00e9szs\u00e9g\u00fcgyi K\u00f6zpont", "emergency": "yes", "healthcare": "hospital", "name": "Eg\u00e9szs\u00e9g\u00fcgyi K\u00f6zpont"}}, {"type": "node", "id": 1572851238, "lat": 46.8770425, "lon": 19.2218666, "tags": {"amenity": "hospital", "healthcare": "hospital"}}, {"type": "node", "id": 1572862746, "lat": 46.8763054, "lon": 19.2222153, "tags": {"amenity": "hospital", "healthcare": "hospital"}}, {"type": "node", "id": 1572862750, "lat": 46.8782452, "lon": 19.2216628, "tags": {"amenity": "hospital", "healthcare": "hospital"}}, {"type": "node", "id": 1575408365, "lat": 46.010574, "lon": 15.3023504, "tags": {"addr:city": "Sevnica", "addr:housenumber": "14", "addr:postcode": "8290", "addr:street": "Trg svobode", "amenity": "hospital", "healthcare": "hospital", "name": "Zdravstveni dom Sevnica"}}, {"type": "node", "id": 1587550898, "lat": 46.5799201, "lon": 17.4063768, "tags": {"amenity": "hospital", "healthcare": "hospital", "name": "K\u00f3rh\u00e1z", "wheelchair": "limited"}}, {"type": "node", "id": 1596925298, "lat": 44.963447, "lon": 14.4110423, "tags": {"amenity": "hospital", "healthcare": "hospital", "name": "Cres ambulance"}}, {"type": "node", "id": 1597396516, "lat": 46.6422599, "lon": 11.3560954, "tags": {"amenity": "hospital", "healthcare": "hospital", "name": "Spital Sarnthein"}}, {"type": "node", "id": 1598962239, "lat": 48.2018974, "lon": 11.5872598, "tags": {"amenity": "hospital", "emergency": "no", "healthcare": "hospital", "name": "Klinik mednord", "operator": "Klinik mednord Dr. Pf\u00fctzenreuter", "website": "https://klinik-mednord.de/"}}, {"type": "node", "id": 1598964034, "lat": 48.2018439, "lon": 11.5872518, "tags": {"amenity": "hospital", "emergency": "no", "healthcare": "hospital", "name": "Belegklinikf\u00fcr Neurochirurgie, plastisch-\u00e4sthetische Chirurgie,Chirurgie und Orthop\u00e4die", "operator": "Klinik mednord Dr. Pf\u00fctzenreuter"}}, {"type": "node", "id": 1604032038, "lat": 43.6028436, "lon": 13.0566341, "tags": {"amenity": "hospital"}}, {"type": "node", "id": 1604313268, "lat": 42.0958986, "lon": 13.8715157, "tags": {"amenity": "hospital", "name": "Croce Verde"}}, {"type": "node", "id": 1613443811, "lat": 43.1416218, "lon": 13.2228652, "tags": {"amenity": "hospital", "emergency": "no"}}, {"type": "node", "id": 1637569313, "lat": 47.7355711, "lon": 18.1685142, "tags": {"amenity": "hospital", "healthcare": "hospital", "name": "Ment\u0151 \u00e1llom\u00e1s"}}, {"type": "node", "id": 1639926848, "lat": 44.5340915, "lon": 11.5085877, "tags": {"amenity": "hospital", "healthcare": "hospital", "healthcare:speciality": "orthopaedics", "name": "Centro Protesi INAIL", "operator": "INAIL", "operator:type": "public"}}, {"type": "node", "id": 1653392145, "lat": 44.4825779, "lon": 11.2861573, "tags": {"amenity": "hospital", "emergency": "no", "name": "Villa Chiara"}}, {"type": "node", "id": 1657346532, "lat": 44.741964, "lon": 11.4361615, "tags": {"amenity": "hospital", "emergency": "no"}}, {"type": "node", "id": 1664467795, "lat": 42.5639161, "lon": 19.8312484, "tags": {"amenity": "hospital", "emergency": "no", "name": "Dom zdravlja"}}, {"type": "node", "id": 1690348745, "lat": 47.9880622, "lon": 11.3643046, "tags": {"addr:city": "Berg", "addr:housenumber": "21", "addr:postcode": "82335", "addr:street": "Milchberg", "addr:suburb": "Kempfenhausen", "alt_name": "Marianne-Strau\u00df-Klinik", "amenity": "hospital", "name": "Marianne-Strauss-Klinik", "toilets:wheelchair": "yes", "website": "https://www.ms-klinik.de/", "wheelchair": "yes"}}, {"type": "node", "id": 1693737435, "lat": 49.174127, "lon": 12.8562074, "tags": {"addr:city": "Bad K\u00f6tzting", "addr:housenumber": "2", "addr:postcode": "93444", "addr:street": "Ludwigstra\u00dfe", "amenity": "hospital", "email": "kontakt@tcm.info", "name": "TCM Uni-Klinik", "operator": "TCM-Klinik K\u00f6tzting", "phone": "+49 9941 609-0", "website": "http://www.tcm-klinik-koetzting.de/", "wheelchair": "yes"}}, {"type": "node", "id": 1701709192, "lat": 48.4542647, "lon": 18.9175928, "tags": {"amenity": "hospital", "contact:website": "https://www.procare.sk/nemocnica/nemocnica-banska-stiavnica/", "name": "V\u0161eobecn\u00e1 nemocnica Bansk\u00e1 \u0160tiavnica"}}, {"type": "node", "id": 1704111880, "lat": 46.4937983, "lon": 19.7353989, "tags": {"addr:city": "Kiskunmajsa", "addr:housenumber": "66", "addr:postcode": "6120", "addr:street": "F\u0151 utca", "amenity": "hospital", "emergency": "no", "healthcare": "hospital", "name": "Region\u00e1lis Eg\u00e9szs\u00e9g\u00fcgyi K\u00f6zpont", "operator": "Kiskunmajsai Kist\u00e9rs\u00e9gi K\u00f6zszolg\u00e1ltat\u00f3 Nonprofit Kft.", "wheelchair": "yes"}}, {"type": "node", "id": 1704152925, "lat": 44.5211892, "lon": 11.3715213, "tags": {"addr:city": "Bologna", "addr:country": "IT", "addr:district": "Navile", "addr:housenumber": "81/2", "addr:postcode": "40128", "addr:street": "Via Stalingrado", "amenity": "hospital", "healthcare": "hospital", "name": "Pubblica Assistenza Croce Italia", "source": "Comune di Bologna"}}, {"type": "node", "id": 1704258810, "lat": 40.0948555, "lon": 15.4056887, "tags": {"amenity": "hospital", "name": "Guardia Medica"}}, {"type": "node", "id": 1704469031, "lat": 47.6168764, "lon": 18.902513, "tags": {"addr:city": "Pilisv\u00f6r\u00f6sv\u00e1r", "addr:housenumber": "130/A", "addr:postcode": "2085", "addr:street": "F\u0151 utca", "amenity": "hospital", "emergency": "yes", "healthcare": "hospital", "name": "Szakorvosi rendel\u0151int\u00e9zet"}}, {"type": "node", "id": 1705954853, "lat": 47.5806628, "lon": 19.1151091, "tags": {"amenity": "hospital", "name": "H\u00e1ziorvosi rendel\u0151int\u00e9zet \u00e9s Fog\u00e1szat", "wheelchair": "yes"}}, {"type": "node", "id": 1713423344, "lat": 43.956301, "lon": 12.1947926, "tags": {"amenity": "hospital", "healthcare": "hospital", "name": "Ospedale Capelli"}}, {"type": "node", "id": 1714660555, "lat": 46.0829915, "lon": 15.9082699, "tags": {"amenity": "hospital", "name": "Dom zdravlja Zabok"}}, {"type": "node", "id": 1716107790, "lat": 44.468227, "lon": 11.9565868, "tags": {"amenity": "hospital", "emergency": "no", "name": "Presidio Ospedaliero"}}, {"type": "node", "id": 1720825172, "lat": 42.9258686, "lon": 16.8891889, "tags": {"amenity": "hospital", "name": "GP Doctor, Stomatologist"}}, {"type": "node", "id": 1732954478, "lat": 42.7458734, "lon": 11.8653758, "tags": {"addr:city": "Acquapendente", "addr:country": "IT", "addr:housenumber": "68", "addr:postcode": "01021", "addr:street": "Via Cesare Battisti", "amenity": "hospital", "name": "Ospedale Santa Maria della Scala"}}, {"type": "node", "id": 1736994138, "lat": 42.6424883, "lon": 18.1115204, "tags": {"amenity": "hospital", "healthcare": "hospital"}}, {"type": "node", "id": 1750832014, "lat": 46.076244, "lon": 18.2408816, "tags": {"addr:city": "P\u00e9cs", "addr:housenumber": "12", "addr:postcode": "7626", "addr:street": "L\u00e1nc utca", "amenity": "hospital", "healthcare": "hospital", "internet_access": "wlan", "name": "L\u00e1nc utcai rendel\u0151", "phone": "+3672523700"}}, {"type": "node", "id": 1750836002, "lat": 46.0642681, "lon": 18.200501, "tags": {"addr:postcode": "7633", "amenity": "hospital", "healthcare": "hospital", "level": "3", "name": "Veress Endre utcai rendel\u0151", "phone": "+0672523540"}}, {"type": "node", "id": 1756492755, "lat": 49.5746616, "lon": 18.7646563, "tags": {"amenity": "hospital"}}, {"type": "node", "id": 1759748613, "lat": 41.0177389, "lon": 13.9530254, "tags": {"amenity": "hospital", "name": "Clinica Pineta Grande"}}, {"type": "node", "id": 1777032314, "lat": 47.9487454, "lon": 11.3467418, "tags": {"amenity": "hospital", "name": "Heckscher-Klinikum Abt. Rottmannsh\u00f6he"}}, {"type": "node", "id": 1793106186, "lat": 49.5985388, "lon": 11.0107326, "tags": {"amenity": "hospital", "healthcare": "hospital", "name": "Altes Universit\u00e4ts-Krankenhaus: \u00c4rztliche Direktion, Medizinische Fakult\u00e4t, Pflegedirektion", "operator": "Universit\u00e4tsklinikum Erlangen"}}, {"type": "node", "id": 1794673216, "lat": 49.947309, "lon": 18.5720605, "tags": {"addr:city": "Jastrz\u0119bie-Zdr\u00f3j", "addr:housenumber": "14", "addr:street": "Tadeusza Ko\u015bciuszki", "amenity": "hospital", "healthcare": "hospital", "name": "Wojew\u00f3dzki Szpital Rehabilitacyjny dla Dzieci"}}, {"type": "node", "id": 1797999992, "lat": 49.599543, "lon": 11.0125554, "tags": {"amenity": "hospital", "contact:website": "https://www.ccc.uk-erlangen.de/", "healthcare": "hospital", "healthcare:speciality": "pathology", "name": "CCC Erlangen-EMN", "wheelchair": "no"}}, {"type": "node", "id": 1798000412, "lat": 40.9095105, "lon": 12.9565573, "tags": {"amenity": "hospital"}}, {"type": "node", "id": 1818883486, "lat": 42.4604088, "lon": 12.3843922, "tags": {"amenity": "hospital", "name": "Centro Salute Orte"}}, {"type": "node", "id": 1827980113, "lat": 49.9484559, "lon": 16.1500827, "tags": {"addr:conscriptionnumber": "271", "addr:country": "CZ", "addr:housenumber": "271", "addr:place": "Litomy\u0161lsk\u00e9 P\u0159edm\u011bst\u00ed", "addr:postcode": "56601", "addr:street": "\u017di\u017ekova", "amenity": "hospital", "description": "Odd\u011blen\u00ed n\u00e1sledn\u00e9 l\u016f\u017ekov\u00e9 p\u00e9\u010de", "healthcare": "hospital", "name": "Vysokom\u00fdtsk\u00e1 nemocnice", "ref:ruian:addr": "5708940"}}, {"type": "node", "id": 1869640800, "lat": 43.4671201, "lon": 13.5561048, "tags": {"amenity": "hospital", "emergency": "no", "healthcare": "hospital", "name": "Ospedale di Comunit\u00e0 di Castelfidardo"}}, {"type": "node", "id": 1871300900, "lat": 49.7364285, "lon": 19.604941, "tags": {"addr:city": "Sucha Beskidzka", "addr:housenumber": "22", "addr:postcode": "34-200", "addr:street": "Szpitalna", "amenity": "hospital", "emergency": "yes", "healthcare": "hospital", "name": "Szpital Rejonowy im. dr Jana Gawlika", "opening_hours": "24/7", "phone": "+48 33 872 31 00", "wheelchair": "yes"}}, {"type": "node", "id": 1880744728, "lat": 48.1312719, "lon": 11.5313803, "tags": {"addr:city": "M\u00fcnchen", "addr:country": "DE", "addr:housenumber": "27e", "addr:postcode": "81373", "addr:street": "Hansastra\u00dfe", "amenity": "hospital", "emergency": "no", "healthcare": "hospital", "name": "Prienamed"}}, {"type": "node", "id": 1885046903, "lat": 42.9446959, "lon": 17.5633867, "tags": {"amenity": "hospital"}}, {"type": "node", "id": 1903979853, "lat": 47.5484124, "lon": 19.0785067, "tags": {"amenity": "hospital", "healthcare": "hospital", "name": "Madar\u00e1sz Utcai Gyermekk\u00f3rh\u00e1z Szakrendel\u0151", "source": "survey", "wheelchair": "yes"}}, {"type": "node", "id": 1925413884, "lat": 43.8478754, "lon": 10.6616526, "tags": {"amenity": "hospital", "emergency": "no", "name": "Misericordia di Montecarlo"}}, {"type": "node", "id": 1933333732, "lat": 44.6941606, "lon": 10.1042245, "tags": {"amenity": "hospital", "emergency": "no", "healthcare": "hospital", "name": "Azienda Usl - Polo sanitario"}}, {"type": "node", "id": 1934414893, "lat": 44.0592602, "lon": 12.591387, "tags": {"amenity": "hospital", "healthcare": "hospital", "name": "Ospedale dei villeggianti"}}, {"type": "node", "id": 1937740463, "lat": 47.629768, "lon": 13.000686, "tags": {"addr:country": "DE", "addr:housenumber": "6", "addr:postcode": "83471", "addr:street": "Franziskanerplatz", "amenity": "hospital", "emergency": "no", "healthcare": "hospital", "internet_access": "wlan", "name": "MVZ Berchtesgaden GmbH", "opening_hours": "Mo,Th 08:30-12:30,16:30-18:00; Tu,We,Fr 08:30-12:30", "phone": "+49 8652 2925"}}, {"type": "node", "id": 1938471753, "lat": 43.7867495, "lon": 11.3980969, "tags": {"amenity": "hospital", "name": "Dentist"}}, {"type": "node", "id": 1939706016, "lat": 45.7818159, "lon": 15.0713107, "tags": {"amenity": "hospital", "emergency": "no", "name": "health center"}}, {"type": "node", "id": 1948962799, "lat": 46.2140924, "lon": 19.3784929, "tags": {"amenity": "hospital"}}, {"type": "node", "id": 1960246611, "lat": 46.0431923, "lon": 15.9974297, "tags": {"amenity": "hospital"}}, {"type": "node", "id": 1963439942, "lat": 45.6301937, "lon": 13.0174359, "tags": {"amenity": "hospital", "emergency": "first_aid_kit", "name": "First Aid"}}, {"type": "node", "id": 1983448219, "lat": 42.0504267, "lon": 12.6214304, "tags": {"amenity": "hospital", "healthcare": "hospital", "name": "Ospedale \"SS Gonfalone\""}}, {"type": "node", "id": 1996725069, "lat": 45.6881388, "lon": 10.6616842, "tags": {"addr:postcode": "25084", "amenity": "hospital", "emergency": "no", "healthcare": "hospital", "name": "Guardia Medica"}}, {"type": "node", "id": 2001035330, "lat": 45.7042343, "lon": 16.1190481, "tags": {"amenity": "hospital", "emergency": "no", "name": "Ambulanta Novo \u010ci\u010de", "source": "common knowledge"}}, {"type": "node", "id": 2008775083, "lat": 49.8172829, "lon": 14.3925895, "tags": {"amenity": "hospital", "emergency": "no", "name": "Zdravotn\u00ed st\u0159edisko Slapy"}}, {"type": "node", "id": 2019803225, "lat": 46.0469463, "lon": 14.4991354, "tags": {"amenity": "hospital", "emergency": "no", "healthcare": "hospital", "name": "\u0160tudentski zdravstveni dom", "wheelchair": "yes"}}, {"type": "node", "id": 2068231105, "lat": 43.7749317, "lon": 10.6005673, "tags": {"amenity": "hospital", "emergency": "no"}}, {"type": "node", "id": 2070602512, "lat": 44.6984606, "lon": 18.3031349, "tags": {"addr:city": "Gra\u010danica", "addr:country": "BA", "addr:housenumber": "50", "addr:postcode": "75320", "addr:street": "Mehmeda Ahmedbegovi\u0107a", "amenity": "hospital", "contact:email": "kontakt@bolnica-gracanica.com", "contact:phone": "+387 35 702032", "contact:website": "http://www.obgr.net", "emergency": "yes", "image": "http://bkc-gracanica.ba/wp-content/uploads/2015/07/onama2.jpg", "name": "Op\u0107a bolnica dr. Mustafa Beganovi\u0107 Gra\u010danica"}}, {"type": "node", "id": 2076093265, "lat": 44.8142688, "lon": 11.8977238, "tags": {"amenity": "hospital", "healthcare": "hospital"}}, {"type": "node", "id": 2087894904, "lat": 49.0903822, "lon": 17.8736981, "tags": {"amenity": "hospital", "emergency": "no", "name": "M\u011bstsk\u00e1 nemocnice Slavi\u010d\u00edn"}}, {"type": "node", "id": 2089784335, "lat": 40.6383861, "lon": 14.6122789, "tags": {"amenity": "hospital", "emergency": "yes", "healthcare": "hospital", "name": "Ospedale della costa", "name:en": "Amalfi Coast Hospital"}}, {"type": "node", "id": 2090726100, "lat": 45.1450603, "lon": 10.0127963, "tags": {"amenity": "hospital", "healthcare": "hospital", "name": "Casa di cura Figlie di San Camillo", "source": "bing"}}, {"type": "node", "id": 2091907612, "lat": 45.2203608, "lon": 19.3641566, "tags": {"amenity": "hospital", "name": "Ambulanta"}}, {"type": "node", "id": 2092757030, "lat": 49.8800298, "lon": 15.0646482, "tags": {"amenity": "hospital", "name": "L\u00e9ka\u0159sk\u00e9 za\u0159\u00edzen\u00ed"}}, {"type": "node", "id": 2097713322, "lat": 40.5499291, "lon": 17.7138412, "tags": {"addr:city": "Latiano", "addr:housenumber": "1", "addr:postcode": "72022", "addr:street": "Viale Cotrino", "amenity": "hospital", "healthcare": "hospital", "name": "guardia medica"}}, {"type": "node", "id": 2098128033, "lat": 49.9033205, "lon": 16.4398936, "tags": {"amenity": "hospital", "healthcare": "hospital", "name": "Ambulantn\u00ed za\u0159\u00edzen\u00ed"}}, {"type": "node", "id": 2107657889, "lat": 44.8188225, "lon": 11.59984, "tags": {"amenity": "hospital", "name": "Guardia Medica - Servizi socio sanitari"}}, {"type": "node", "id": 2111154012, "lat": 45.3640563, "lon": 14.3134832, "tags": {"amenity": "hospital", "healthcare": "hospital", "name": "Specijalna bolnica dr. Nemec", "website": "https://www.bolnica-nemec.hr/"}}, {"type": "node", "id": 2124054724, "lat": 41.1200707, "lon": 16.8687365, "tags": {"amenity": "hospital", "healthcare": "hospital", "name": "First Aid - university"}}, {"type": "node", "id": 2128115697, "lat": 42.2500322, "lon": 11.759316, "tags": {"amenity": "hospital", "emergency": "yes", "name": "Ospedale"}}, {"type": "node", "id": 2131105346, "lat": 47.5094178, "lon": 19.1903474, "tags": {"amenity": "hospital", "name": "SZTK"}}, {"type": "node", "id": 2137514980, "lat": 40.7423361, "lon": 16.8217375, "tags": {"amenity": "hospital", "name": "Centro Nazionale Riabilitativo per Hanseniani"}}, {"type": "node", "id": 2145385340, "lat": 45.4822934, "lon": 10.0540127, "tags": {"amenity": "hospital", "emergency": "no", "name": "Ambulatorio medico"}}, {"type": "node", "id": 2148204881, "lat": 45.4104244, "lon": 10.4087873, "tags": {"addr:city": "Montichiari", "addr:housenumber": "1", "addr:postcode": "25123", "addr:street": "Piazzale Spedali civili", "amenity": "hospital", "email": "protocollo.spedalicivilibrescia@legalmail.it", "emergency": "yes", "name": "Spedali Civili Brescia Montichiari", "phone": "+39 030 39951", "website": "http://www.montichiari.asst-spedalicivili.it/servizi/notizie/notizie_homepage.aspx"}}, {"type": "node", "id": 2156948851, "lat": 41.8316439, "lon": 15.5765802, "tags": {"amenity": "hospital", "name": "a.s.l.fg"}}, {"type": "node", "id": 2163556775, "lat": 44.1895874, "lon": 12.4094093, "tags": {"amenity": "hospital", "emergency": "yes", "healthcare": "hospital", "name": "Ospedale di Cesenatico"}}, {"type": "node", "id": 2177021580, "lat": 48.1526528, "lon": 11.6198673, "tags": {"addr:city": "M\u00fcnchen", "addr:country": "DE", "addr:housenumber": "5", "addr:postcode": "81925", "addr:street": "Rosenkavalierplatz", "amenity": "hospital", "healthcare": "hospital", "name": "Nierenzentrum M\u00fcnchen-Bogenhausen Arabellapark", "phone": "+49 89 4522380", "wheelchair": "yes"}}, {"type": "node", "id": 2178267806, "lat": 47.5071904, "lon": 19.2111835, "tags": {"amenity": "hospital", "emergency": "no", "healthcare": "hospital", "name": "P\u00e9terfy S\u00e1ndor Utcai K\u00f3rh\u00e1z \u00e9s Rendel\u0151int\u00e9zet Zsenge utcai \u00e9p\u00fclete", "source": "http://www.peterfykh.hu"}}, {"type": "node", "id": 2178502429, "lat": 42.43352, "lon": 18.6977565, "tags": {"amenity": "hospital", "healthcare": "hospital"}}, {"type": "node", "id": 2198238992, "lat": 48.5648031, "lon": 19.9560813, "tags": {"amenity": "hospital", "name": "Nemocnica s poliklinikou Hn\u00fa\u0161\u0165a"}}, {"type": "node", "id": 2209929226, "lat": 43.8318202, "lon": 11.2051424, "tags": {"amenity": "hospital", "emergency": "no", "name": "Azienda Usl 10 Di Firenze"}}, {"type": "node", "id": 2222263913, "lat": 48.1022396, "lon": 18.2671919, "tags": {"amenity": "hospital", "name": "Zdravotn\u00e9 stredisko"}}, {"type": "node", "id": 2235168614, "lat": 47.2742309, "lon": 12.7637302, "tags": {"amenity": "hospital", "emergency": "yes", "healthcare": "hospital", "name": "Ambulatorium Optimed Sportmedizin"}}, {"type": "node", "id": 2238807934, "lat": 47.0520436, "lon": 15.395523, "tags": {"amenity": "hospital", "name": "Milit\u00e4rspital"}}, {"type": "node", "id": 2241546770, "lat": 43.628026, "lon": 11.4856143, "tags": {"amenity": "hospital"}}, {"type": "node", "id": 2251338911, "lat": 40.2699374, "lon": 15.6222271, "tags": {"amenity": "hospital", "name": "Guardia Medica"}}, {"type": "node", "id": 2251342126, "lat": 40.2935811, "lon": 15.6500094, "tags": {"amenity": "hospital", "emergency": "yes", "name": "Clinica Fischietti"}}, {"type": "node", "id": 2261622973, "lat": 42.4515472, "lon": 18.5550552, "tags": {"amenity": "hospital", "emergency": "yes", "healthcare": "hospital", "healthcare:speciality": "maternity", "name": "Porodili\u0161te Meljine", "name:sr": "\u041f\u043e\u0440\u043e\u0434\u0438\u043b\u0438\u0448\u0442\u0435 \u041c\u0435\u0459\u0438\u043d\u0435"}}, {"type": "node", "id": 2263405659, "lat": 44.8455037, "lon": 11.6189754, "tags": {"amenity": "hospital", "healthcare": "hospital", "name": "Casa di cura \"Salus\""}}, {"type": "node", "id": 2264362584, "lat": 49.7784648, "lon": 18.2160701, "tags": {"addr:city": "Ostrava-V\u00fd\u0161kovice", "addr:housenumber": "8", "addr:postcode": "700 30", "addr:street": "Charv\u00e1tsk\u00e1", "amenity": "hospital", "name": "HOSPIC SV. LUK\u00c1\u0160E", "website": "https://ostrava.caritas.cz/hospicove-sluzby/luzkova-hospicova-pece-hospic-sv-lukase/", "wheelchair": "yes"}}, {"type": "node", "id": 2266774570, "lat": 43.7518079, "lon": 11.1830881, "tags": {"amenity": "hospital", "healthcare": "hospital", "name": "Misericordia di Lastra a Signa sez. Scandicci"}}, {"type": "node", "id": 2268215239, "lat": 43.4797124, "lon": 12.6926853, "tags": {"amenity": "hospital", "name": "Infermeria FISPS"}}, {"type": "node", "id": 2269450758, "lat": 48.0754711, "lon": 18.25343, "tags": {"amenity": "hospital", "source": "local knowledge"}}, {"type": "node", "id": 2280761635, "lat": 47.9867933, "lon": 18.1735366, "tags": {"amenity": "hospital", "healthcare": "hospital", "name": "Star\u00e1 nemocnica", "source": "local knowledge"}}, {"type": "node", "id": 2288509818, "lat": 41.5781266, "lon": 15.1126501, "tags": {"amenity": "hospital", "name": "Clinica De Luca"}}, {"type": "node", "id": 2289549643, "lat": 48.7713033, "lon": 11.3772047, "tags": {"addr:city": "Ingolstadt", "addr:country": "DE", "addr:housenumber": "21", "addr:postcode": "85049", "addr:street": "Levelingstra\u00dfe", "amenity": "hospital", "healthcare": "hospital", "name": "Diagnosticum Ingolstadt", "website": "https://www.diagnosticum-ingolstadt.de", "wheelchair": "yes"}}, {"type": "node", "id": 2290525516, "lat": 41.9291424, "lon": 19.2193098, "tags": {"amenity": "hospital", "emergency": "yes", "name": "D.Z. Budo Tomovic"}}, {"type": "node", "id": 2293620765, "lat": 41.712051, "lon": 15.6410544, "tags": {"amenity": "hospital", "name": "Ospedale di San Marco in Lamis"}}, {"type": "node", "id": 2298173024, "lat": 45.1650229, "lon": 14.7109079, "tags": {"amenity": "hospital", "name": "Terme Selce"}}, {"type": "node", "id": 2299467901, "lat": 47.3976777, "lon": 18.4601171, "tags": {"addr:city": "Cs\u00e1kv\u00e1r", "addr:country": "HU", "addr:housenumber": "1", "addr:postcode": "8083", "addr:street": "D\u00f3zsa Gy\u00f6rgy utca", "amenity": "hospital", "name": "Fej\u00e9r Megyei Szent Gy\u00f6rgy K\u00f3rh\u00e1z Cs\u00e1kv\u00e1ri gy\u00f3gyint\u00e9zete", "wheelchair": "yes"}}, {"type": "node", "id": 2306252779, "lat": 49.0402736, "lon": 16.6183875, "tags": {"amenity": "hospital", "emergency": "yes", "name": "L\u00e9ka\u0159sk\u00e1 slu\u017eba prvn\u00ed pomoci"}}, {"type": "node", "id": 2311452925, "lat": 40.8150572, "lon": 14.3444962, "tags": {"amenity": "hospital", "name": "Guardia medica"}}, {"type": "node", "id": 2321777045, "lat": 44.8955652, "lon": 11.8286256, "tags": {"amenity": "hospital", "name": "Casa della Salute Terra e Fiumi", "phone": "+39 0532 235111", "website": "https://casedellasalute.ausl.fe.it/it/le-case-della-salute/casa-della-salute-terre-e-fiumi-di-copparo"}}, {"type": "node", "id": 2328753349, "lat": 44.7001472, "lon": 11.810702, "tags": {"amenity": "hospital", "name": "Ospedale Carlo Eppi"}}, {"type": "node", "id": 2329692831, "lat": 49.2248669, "lon": 12.6598354, "tags": {"amenity": "hospital", "description": "Die onkologische Klinik ist eine \"Filiale\" der Barmerzigen Br\u00fcder in Regensburg und bietet wohnortnahe Untersuchungen bzw. Behandlungen in dieser Region an.", "health_facility:type": "hospital", "healthcare": "hospital", "healthcare:cholera": "no", "healthcare:speciality": "oncology", "name": "Medizinisches Behandungzentrum Cham (Onkologie)", "note": "independent hostpital with own operator but attatched to Kreiskrankenhaus, treating cancer", "operator": "Barmherzige Br\u00fcder Regensburg", "operator:type": "religious order", "source": "survey", "wheelchair": "yes"}}, {"type": "node", "id": 2348043780, "lat": 45.7330505, "lon": 12.2523651, "tags": {"amenity": "hospital", "designation": "casa di riposo", "emergency": "no", "healthcare": "hospital", "name": "Casa di riposo e Centro diurno \"Gino e Pierina MARANI\""}}, {"type": "node", "id": 2354813963, "lat": 43.7734383, "lon": 10.7179363, "tags": {"amenity": "hospital", "emergency": "no", "name": "Distretto socio-sanitario Galleno"}}, {"type": "node", "id": 2360521272, "lat": 43.3347866, "lon": 10.7442943, "tags": {"amenity": "hospital", "emergency": "no", "healthcare": "hospital", "name": "Guardia Medica"}}, {"type": "node", "id": 2367682021, "lat": 49.8093293, "lon": 17.2281734, "tags": {"amenity": "hospital"}}, {"type": "node", "id": 2371251684, "lat": 49.7964267, "lon": 17.2228276, "tags": {"amenity": "hospital"}}, {"type": "node", "id": 2378272852, "lat": 49.3619784, "lon": 17.3680366, "tags": {"amenity": "hospital"}}, {"type": "node", "id": 2389588371, "lat": 49.7861686, "lon": 17.761565, "tags": {"amenity": "hospital", "emergency": "no", "name": "Nemocnice V\u00edtkov"}}, {"type": "node", "id": 2393726733, "lat": 40.8912006, "lon": 16.9536636, "tags": {"addr:street": "Via Michelangelo Buonarroti", "amenity": "hospital", "emergency": "yes", "name": "Guardia Medica", "phone": "+39 080 8917330", "wheelchair": "yes"}}, {"type": "node", "id": 2397571800, "lat": 47.4010587, "lon": 16.7073373, "tags": {"amenity": "hospital", "name": "Csepreg V\u00e1ros Eg\u00e9szs\u00e9gh\u00e1z", "phone": "+36 94 365 448"}}, {"type": "node", "id": 2411627322, "lat": 48.7782448, "lon": 13.9295216, "tags": {"addr:city": "Nov\u00e1 Pec", "addr:conscriptionnumber": "17", "addr:country": "CZ", "addr:housenumber": "17", "addr:place": "Nov\u00e1 Pec", "addr:postcode": "38462", "amenity": "hospital", "healthcare": "hospital", "name": "Horsk\u00e1 slu\u017eba", "ref:ruian:addr": "28161289"}}, {"type": "node", "id": 2414243318, "lat": 45.165724, "lon": 14.5447688, "tags": {"amenity": "hospital", "emergency": "no", "name": "Tourist ambulance"}}, {"type": "node", "id": 2418334755, "lat": 42.4456953, "lon": 19.2626488, "tags": {"amenity": "hospital", "emergency": "yes", "healthcare": "hospital", "name": "Emergency Center"}}, {"type": "node", "id": 2430869207, "lat": 43.6754339, "lon": 10.5480705, "tags": {"addr:city": "Cascina", "addr:housename": "Pubblica Assistenza", "addr:postcode": "56021", "addr:street": "Via della Vittoria", "amenity": "hospital", "emergency": "no", "healthcare": "hospital", "name": "Guardia Medica"}}, {"type": "node", "id": 2440169911, "lat": 41.7595966, "lon": 12.7081994, "tags": {"amenity": "hospital", "name": "ASL"}}, {"type": "node", "id": 2452231029, "lat": 40.6305121, "lon": 14.5402099, "tags": {"amenity": "hospital", "name": "Guardia Medica"}}, {"type": "node", "id": 2453455101, "lat": 49.7796383, "lon": 11.17983, "tags": {"amenity": "hospital", "healthcare": "hospital", "name": "Klinik Fr\u00e4nkische Schweiz", "toilets:wheelchair": "yes", "wheelchair": "yes"}}, {"type": "node", "id": 2454234307, "lat": 40.5462671, "lon": 17.436926, "tags": {"amenity": "hospital", "emergency": "no", "healthcare": "hospital", "name": "ASL"}}, {"type": "node", "id": 2454708620, "lat": 45.52008, "lon": 19.5855504, "tags": {"amenity": "hospital", "emergency": "yes", "name": "\u0410\u043c\u0431\u0443\u043b\u0430\u043d\u0442\u0430", "name:sr": "\u0410\u043c\u0431\u0443\u043b\u0430\u043d\u0442\u0430", "name:sr-Latn": "Ambulanta"}}, {"type": "node", "id": 2460223102, "lat": 46.9558898, "lon": 16.2679064, "tags": {"addr:city": "Szentgotth\u00e1rd", "addr:housenumber": "18", "addr:postcode": "9970", "addr:street": "Hunyadi J\u00e1nos utca", "amenity": "hospital", "name": "Rendel\u0151int\u00e9zet Szentgotth\u00e1rd"}}, {"type": "node", "id": 2465837342, "lat": 42.290003, "lon": 18.8403689, "tags": {"amenity": "hospital", "barrier": "entrance", "name": "Tourist ambulance", "name:ru": "\u0410\u043c\u0431\u0443\u043b\u0430\u0442\u043e\u0440\u043d\u0430\u044f \u043f\u0440\u0438\u0435\u043c\u043d\u0430\u044f \u0442\u0443\u0440\u0438\u0441\u0442\u043e\u0432", "name:sr": "Turisti\u010dka ambulanta"}}, {"type": "node", "id": 2503395889, "lat": 46.1874416, "lon": 11.2585751, "tags": {"addr:city": "Scancio", "amenity": "hospital", "emergency": "no", "name": "Guardia Medica"}}, {"type": "node", "id": 2505166336, "lat": 42.6755591, "lon": 18.1058017, "tags": {"amenity": "hospital", "emergency": "yes", "healthcare": "hospital", "name": "Ambulanta Moko\u0161ica"}}, {"type": "node", "id": 2508126470, "lat": 49.8369554, "lon": 12.0434606, "tags": {"addr:city": "Erbendorf", "addr:housenumber": "5", "addr:postcode": "92681", "addr:street": "Krankenhaustra\u00dfe", "amenity": "hospital", "emergency": "no", "name": "Steinwaldklinik Erbendorf (Kliniken Nordoberpfalz AG)", "note": "Fachklinik f\u00fcr Geriatrische Rehabilitation", "operator": "Kliniken Nordoberpfalz AG", "phone": "+49 9682 930-0", "toilets:wheelchair": "yes", "website": "https://www.kliniken-nordoberpfalz.de/erbendorf/", "wheelchair": "yes"}}, {"type": "node", "id": 2509911781, "lat": 47.647116, "lon": 18.3155183, "tags": {"addr:postcode": "2890", "amenity": "hospital", "healthcare": "hospital", "name": "Tata V\u00e1rosi K\u00f3rh\u00e1z Rendel\u0151int\u00e9zet Fizikoter\u00e1piai R\u00e9szleg", "wheelchair": "yes"}}, {"type": "node", "id": 2510781385, "lat": 47.4945579, "lon": 17.8493289, "tags": {"amenity": "hospital", "name": "Eg\u00e9szs\u00e9gcentrum"}}, {"type": "node", "id": 2575927067, "lat": 46.5324301, "lon": 18.9798408, "tags": {"amenity": "hospital", "name": "Rendel\u0151int\u00e9zet", "wheelchair": "yes"}}, {"type": "node", "id": 2575927081, "lat": 46.5348667, "lon": 18.9812413, "tags": {"addr:city": "Kalocsa", "addr:housenumber": "1", "addr:postcode": "6300", "addr:street": "Selyemerd\u0151 utca", "amenity": "hospital", "name": "Dial\u00edzis K\u00f6zpont", "phone": "+36 78 462 782"}}, {"type": "node", "id": 2582316110, "lat": 44.856799, "lon": 10.071196, "tags": {"amenity": "hospital", "emergency": "no", "healthcare": "hospital", "name": "Italian Red Cross"}}, {"type": "node", "id": 2590418162, "lat": 46.2747699, "lon": 11.0490774, "tags": {"addr:city": "Denno", "addr:postcode": "38010", "amenity": "hospital", "emergency": "no", "name": "Guardia Medica"}}, {"type": "node", "id": 2590424734, "lat": 45.8511471, "lon": 10.9813247, "tags": {"addr:city": "Mori", "amenity": "hospital", "emergency": "no", "healthcare": "hospital", "name": "Guardia Medica"}}, {"type": "node", "id": 2590431393, "lat": 46.2130371, "lon": 11.0946842, "tags": {"amenity": "hospital", "emergency": "no", "name": "Guardia Medica"}}, {"type": "node", "id": 2590432394, "lat": 46.3203409, "lon": 11.0661113, "tags": {"addr:city": "Taio", "amenity": "hospital", "emergency": "no", "name": "Guardia Medica"}}, {"type": "node", "id": 2597389951, "lat": 45.4108715, "lon": 19.2991991, "tags": {"amenity": "hospital", "emergency": "no", "name": "\u0410\u043c\u0431\u0443\u043b\u0430\u043d\u0442\u0430", "name:sk": "Dom zdravia", "name:sr": "\u0410\u043c\u0431\u0443\u043b\u0430\u043d\u0442\u0430", "name:sr-Latn": "Ambulanta", "phone": "+38121774144"}}, {"type": "node", "id": 2614425439, "lat": 41.3385775, "lon": 19.7945938, "tags": {"addr:city": "Tirana", "addr:street": "Rruga Mati Logoreci", "amenity": "hospital", "healthcare": "hospital", "healthcare:speciality": "general", "name": "Qendra shendetesore Nr.7", "wheelchair": "yes"}}, {"type": "node", "id": 2616692155, "lat": 41.3443974, "lon": 19.7744998, "tags": {"amenity": "hospital", "healthcare": "hospital", "name": "Spitali Hygeia", "website": "https://www.hygeia.al/", "wheelchair": "yes"}}, {"type": "node", "id": 2620114768, "lat": 45.7210652, "lon": 11.3567889, "tags": {"addr:city": "Schio", "addr:housename": "Croce Rossa Italiana", "addr:housenumber": "1", "addr:postcode": "36015", "addr:street": "Via San Camillo de Lellis", "amenity": "hospital", "healthcare": "hospital", "name": "Croce Rossa Italiana - Comitato Locale di Schio", "phone": "+39 0445 529794"}}, {"type": "node", "id": 2624410045, "lat": 45.8295573, "lon": 15.9821747, "tags": {"addr:housenumber": "3", "addr:street": "Rockefellerova ulica", "amenity": "hospital", "name": "Specijalna bolnica za plu\u0107ne bolesti", "website": "http://www.pulmologija.hr"}}, {"type": "node", "id": 2624476242, "lat": 49.7955376, "lon": 17.6275254, "tags": {"amenity": "hospital", "emergency": "no", "healthcare": "hospital"}}, {"type": "node", "id": 2627789359, "lat": 44.8499058, "lon": 11.612101, "tags": {"amenity": "hospital", "name": "Centro di Medicina dello Sport"}}, {"type": "node", "id": 2634502193, "lat": 43.7943077, "lon": 10.268302, "tags": {"amenity": "hospital", "name": "Pronto Soccorso"}}, {"type": "node", "id": 2717004539, "lat": 45.6610569, "lon": 18.4169282, "tags": {"amenity": "hospital", "emergency": "yes", "name": "Dom zdravlja Valpovo"}}, {"type": "node", "id": 2725529566, "lat": 42.365135, "lon": 13.725294, "tags": {"addr:city": "Castel del Monte", "addr:housenumber": "1", "addr:postcode": "67023", "addr:street": "Via Gran Sasso", "amenity": "hospital", "emergency": "yes", "healthcare": "hospital", "name": "Ambulatorio Medico", "wheelchair": "yes"}}, {"type": "node", "id": 2725731245, "lat": 45.158748, "lon": 18.0118834, "tags": {"addr:city": "Slavonski Brod", "addr:country": "HR", "addr:housenumber": "5", "addr:street": "Augusta Cesarca", "amenity": "hospital", "healthcare": "hospital", "name": "Odjel za reumatske bolesti, fizikalnu medicinu i rehabilitaciju"}}, {"type": "node", "id": 2752665314, "lat": 46.3955377, "lon": 15.5622837, "tags": {"addr:city": "Slovenska Bistrica", "addr:housenumber": "30", "addr:postcode": "2310", "addr:street": "Partizanska ulica", "amenity": "hospital", "contact:phone": "+386 2 8432700", "contact:website": "http://www.zd-sb.si/", "healthcare": "hospital", "name": "Zdravstveni dom Slovenska Bistrica/ Medical clinic Slovenian Bistrica", "wheelchair": "yes"}}, {"type": "node", "id": 2755881609, "lat": 47.3604894, "lon": 18.6817226, "tags": {"amenity": "hospital", "healthcare": "hospital", "name": "Eg\u00e9szs\u00e9gh\u00e1z"}}, {"type": "node", "id": 2761458363, "lat": 45.3779881, "lon": 14.4407669, "tags": {"amenity": "hospital", "healthcare": "hospital", "name": "Psihijatrijska bolnica Lopa\u010da", "website": "https://www.pbl.hr/"}}, {"type": "node", "id": 2770984870, "lat": 47.6117168, "lon": 19.5989242, "tags": {"amenity": "hospital"}}, {"type": "node", "id": 2778473426, "lat": 40.8602336, "lon": 14.5274927, "tags": {"amenity": "hospital", "name": "Casa di cura La Madonnina"}}, {"type": "node", "id": 2785074697, "lat": 48.8826469, "lon": 17.5206358, "tags": {"addr:conscriptionnumber": "155", "addr:housenumber": "155", "addr:place": "Velk\u00e1 nad Veli\u010dkou", "addr:postcode": "69674", "amenity": "hospital", "name": "L\u00e9karna Gabriela", "ref:ruian:addr": "13598902"}}, {"type": "node", "id": 2786774685, "lat": 45.2887325, "lon": 15.9685794, "tags": {"amenity": "hospital", "name": "Dom Zdravlja Topusko"}}, {"type": "node", "id": 2794042038, "lat": 49.3073481, "lon": 12.8366392, "tags": {"amenity": "hospital", "emergency": "no", "healthcare": "hospital", "name": "Medizinisches Versorgungszentrum", "wheelchair": "yes"}}, {"type": "node", "id": 2806634148, "lat": 40.3179104, "lon": 15.0609385, "tags": {"amenity": "hospital", "emergency": "no", "healthcare": "hospital", "name": "Guardia Medica Torchiara"}}, {"type": "node", "id": 2808373547, "lat": 40.6343675, "lon": 16.9344984, "tags": {"addr:city": "Castellaneta", "addr:housenumber": "1", "addr:postcode": "74011", "addr:street": "Via Del Mercato", "amenity": "hospital", "emergency": "yes", "name": "Ospedale San Pio"}}, {"type": "node", "id": 2819141133, "lat": 42.1450363, "lon": 12.4936349, "tags": {"addr:city": "Morlupo", "addr:postcode": "00067", "addr:street": "Via Giuseppe di Vittorio", "amenity": "hospital", "emergency": "no", "name": "Croce Rossa Morlupo"}}, {"type": "node", "id": 2824672193, "lat": 41.7325012, "lon": 12.2707898, "tags": {"addr:city": "Roma", "addr:postcode": "00121", "addr:street": "Via Adolfo Cozza", "amenity": "hospital", "healthcare": "hospital", "name": "Distretto di salute mentale A.S.L. Roma D", "note": "Distretto di salute mentale A.S.L. Roma D", "source": "BAG"}}, {"type": "node", "id": 2872559641, "lat": 43.7517491, "lon": 13.0950519, "tags": {"addr:street": "Piazza Bartolini", "amenity": "hospital", "emergency": "no", "name": "Ospedale Bartolini"}}, {"type": "node", "id": 2908901236, "lat": 47.4990567, "lon": 18.0237076, "tags": {"addr:city": "Kisb\u00e9r", "addr:housenumber": "11", "addr:postcode": "2870", "addr:street": "Iskola utca", "amenity": "hospital", "email": "titkarsag@kisberkorhaz.hu", "emergency": "yes", "healthcare": "hospital", "name": "Batthy\u00e1ny K\u00e1zm\u00e9r Szakk\u00f3rh\u00e1z \u00e9s Rendel\u0151int\u00e9zet", "phone": "+36 34 552 600", "website": "http://www.kisberkorhaz.hu", "wheelchair": "yes"}}, {"type": "node", "id": 2910736484, "lat": 48.0796785, "lon": 19.309431, "tags": {"addr:city": "Balassagyarmat", "addr:housenumber": "125-127", "addr:postcode": "2660", "addr:street": "R\u00e1k\u00f3czi fejedelem \u00fatja", "amenity": "hospital", "healthcare": "hospital", "name": "Dr. Kenessey Albert K\u00f3rh\u00e1z - Rendel\u0151int\u00e9zet"}}, {"type": "node", "id": 2929114188, "lat": 45.815495, "lon": 13.5198194, "tags": {"addr:city": "Monfalcone", "addr:housenumber": "1", "addr:postcode": "34074", "addr:street": "Via Luigi Galvani", "amenity": "hospital", "emergency": "emergency_ward_entrance", "entrance": "yes", "healthcare": "hospital", "name": "Pronto Soccorso Monfalcone", "name:en": "Emergency Room Monfalcone"}}, {"type": "node", "id": 2936704791, "lat": 41.9333374, "lon": 12.1269583, "tags": {"amenity": "hospital", "name": "POSTAZIONE 118"}}, {"type": "node", "id": 2939935090, "lat": 45.5860414, "lon": 19.9191427, "tags": {"amenity": "hospital"}}, {"type": "node", "id": 2954858744, "lat": 45.3994548, "lon": 11.8601149, "tags": {"addr:housenumber": "10", "addr:postcode": "35142", "addr:street": "via Bergamo", "amenity": "hospital", "emergency": "no", "name": "Centro di Foniatria - Casa di Curas Trieste", "website": "https://www.centrofoniatria.it/"}}, {"type": "node", "id": 2956884002, "lat": 41.8869941, "lon": 14.0648765, "tags": {"amenity": "hospital", "name": "Guardia Medica"}}, {"type": "node", "id": 2959253012, "lat": 47.6513417, "lon": 12.7312396, "tags": {"amenity": "hospital"}}, {"type": "node", "id": 2963468734, "lat": 45.4118224, "lon": 11.916031, "tags": {"amenity": "hospital", "brand": "Croce Rossa Italiana", "brand:wikidata": "Q913903", "emergency": "ambulance_station", "healthcare": "hospital", "name": "Croce Rossa"}}, {"type": "node", "id": 2975045843, "lat": 46.0570193, "lon": 12.9844709, "tags": {"amenity": "hospital", "emergency": "no", "name": "Ambulatorio"}}, {"type": "node", "id": 2983317795, "lat": 48.7301323, "lon": 11.1764662, "tags": {"addr:city": "Neuburg an der Donau", "addr:country": "DE", "addr:housenumber": "B 107", "addr:postcode": "86633", "addr:street": "Bahnhofstra\u00dfe", "amenity": "hospital", "healthcare": "rehabilitation", "healthcare:speciality": "geriatrics", "name": "Geriatrisches Rehazentrum Neuburg", "toilets:wheelchair": "yes", "wheelchair": "yes"}}, {"type": "node", "id": 2990836828, "lat": 47.0730125, "lon": 18.6855857, "tags": {"amenity": "hospital", "name": "Orvosi rendel\u0151"}}, {"type": "node", "id": 3017348133, "lat": 45.8687877, "lon": 18.4541819, "tags": {"amenity": "hospital", "healthcare": "hospital", "wheelchair": "yes"}}, {"type": "node", "id": 3035309153, "lat": 43.0355152, "lon": 19.7513144, "tags": {"amenity": "hospital", "emergency": "yes", "healthcare": "hospital", "name": "Dom Zdravlja"}}, {"type": "node", "id": 3059909761, "lat": 40.7902604, "lon": 13.4184783, "tags": {"amenity": "hospital", "healthcare": "hospital", "name": "Croce Rossa"}}, {"type": "node", "id": 3063336686, "lat": 43.4467888, "lon": 13.1174991, "tags": {"amenity": "hospital", "emergency": "yes", "name": "Ambulatori"}}, {"type": "node", "id": 3085636017, "lat": 48.426863, "lon": 13.1871215, "tags": {"addr:city": "Bad Griesbach i. Rottal", "addr:housenumber": "20", "addr:postcode": "94086", "addr:street": "Thermalbadstra\u00dfe", "amenity": "hospital", "description": "Appartementhotel", "healthcare": "rehabilitation", "name": "Passauer Wolf Lodge & Therme Bad Griesbach", "phone": "+49 8532 27-0", "ref:touristinfo": "12"}}, {"type": "node", "id": 3112272512, "lat": 47.6282327, "lon": 19.1437567, "tags": {"addr:city": "Dunakeszi", "addr:housenumber": "35", "addr:postcode": "2120", "addr:street": "F\u00f3ti \u00fat", "amenity": "hospital", "description": "Rendel\u00e9si id\u0151: H\u00e9tf\u0151: 14.00 - 18.00 Kedd: 08.00 - 12.00 Szerda: 14.00 - 18.00 Cs\u00fct\u00f6rt\u00f6k: 08.00 - 12.00 P\u00e9ntek: 14:00 - 18.00", "emergency": "no", "name": "IV. sz. H\u00e1ziorvosi k\u00f6rzet", "phone": "+36 27 341 089", "website": "http://uj.dunakeszi.hu/onkormanyzat/intezmenyek-szervezetek/egeszsegugyi/iv-sz-haziorvosi-korzet"}}, {"type": "node", "id": 3124119148, "lat": 45.3990658, "lon": 11.8426458, "tags": {"addr:city": "Padova", "addr:housenumber": "4", "addr:street": "Via dei Colli", "amenity": "hospital", "emergency": "no", "name": "Dipartimento Socio Sanitario ai Colli"}}, {"type": "node", "id": 3127463474, "lat": 40.147868, "lon": 16.2891252, "tags": {"amenity": "hospital", "healthcare": "hospital", "name": "ASL"}}, {"type": "node", "id": 3135603064, "lat": 47.4284876, "lon": 18.916975, "tags": {"addr:city": "T\u00f6r\u00f6kb\u00e1lint", "addr:country": "HU", "addr:housenumber": "70", "addr:postcode": "2045", "addr:street": "Munk\u00e1csy Mih\u00e1ly utca", "amenity": "hospital", "healthcare": "hospital", "name": "T\u00fcd\u0151gy\u00f3gyint\u00e9zet"}}, {"type": "node", "id": 3169076882, "lat": 46.2530859, "lon": 14.4874597, "tags": {"amenity": "hospital", "name": "zdravstveni dom"}}, {"type": "node", "id": 3172338389, "lat": 45.23407, "lon": 18.653331, "tags": {"amenity": "hospital", "name": "Ambulanta"}}, {"type": "node", "id": 3201952858, "lat": 48.1420656, "lon": 17.3912412, "tags": {"amenity": "hospital", "emergency": "yes", "name": "Stanica R\u00fdchlej zdravotnej pomoci"}}, {"type": "node", "id": 3213388604, "lat": 40.8566761, "lon": 15.859678, "tags": {"amenity": "hospital", "emergency": "yes", "name": "Pronto Soccorso"}}, {"type": "node", "id": 3225215833, "lat": 41.5875208, "lon": 12.6480248, "tags": {"amenity": "hospital", "emergency": "yes"}}, {"type": "node", "id": 3229583110, "lat": 43.6705787, "lon": 12.5189021, "tags": {"addr:city": "Urbania", "addr:housenumber": "54", "addr:postcode": "61049", "addr:street": "Via Roma", "amenity": "hospital", "name": "Distretto sanitario N\u00b0 2 di Urbania"}}, {"type": "node", "id": 3260242811, "lat": 48.3845961, "lon": 10.8396143, "tags": {"addr:city": "Augsburg", "addr:country": "DE", "addr:housenumber": "2", "addr:postcode": "86156", "addr:street": "Stenglinstra\u00dfe", "amenity": "hospital", "healthcare": "hospital", "name": "Kinderklinik Augsburg Mutter-Kind-Zentrum Schwaben", "operator": "Universit\u00e4tsklinikum Augsburg", "toilets:wheelchair": "yes", "website": "https://www.uk-augsburg.de/kliniken-und-institute/kinderklinik-augsburg-mutter-kind-zentrum-schwaben/ueberblick.html", "wheelchair": "yes", "wikidata": "Q1741832", "wikipedia": "de:Kinderklinik Augsburg"}}, {"type": "node", "id": 3263854629, "lat": 49.6120026, "lon": 18.3612753, "tags": {"amenity": "hospital", "emergency": "no", "name": "Praktick\u00fd l\u00e9ka\u0159"}}, {"type": "node", "id": 3273070254, "lat": 46.0855184, "lon": 14.4713241, "tags": {"amenity": "hospital", "healthcare": "hospital", "name": "Studio ANK", "note": "Preventivni pregledi organizma"}}, {"type": "node", "id": 3274263377, "lat": 42.7517727, "lon": 18.9567629, "tags": {"amenity": "hospital", "healthcare": "hospital"}}, {"type": "node", "id": 3274384068, "lat": 46.1038044, "lon": 14.5306399, "tags": {"amenity": "hospital", "healthcare": "hospital", "name": "Fizioterapija"}}, {"type": "node", "id": 3275063474, "lat": 46.0428542, "lon": 14.4980703, "tags": {"addr:city": "Ljubljana", "addr:housenumber": "2", "addr:postcode": "1000", "addr:street": "Zeljarska ulica", "amenity": "hospital", "healthcare": "hospital", "name": "Zasebna ambulanta", "opening_hours": "Tu,Fr 15:30-18:30", "operator": "Helena Andren\u0161ek", "phone": "040173000"}}, {"type": "node", "id": 3284592570, "lat": 45.5437819, "lon": 11.5458614, "tags": {"amenity": "hospital", "healthcare": "hospital", "name": "Casa di Cura privata Eretenia", "wheelchair": "yes"}}, {"type": "node", "id": 3295199261, "lat": 47.0513718, "lon": 16.7985727, "tags": {"amenity": "hospital", "wheelchair": "yes"}}, {"type": "node", "id": 3295232661, "lat": 47.0450827, "lon": 16.7792072, "tags": {"amenity": "hospital", "name": "Orvosi rendel\u0151"}}, {"type": "node", "id": 3295245018, "lat": 47.030277, "lon": 16.7419963, "tags": {"amenity": "hospital", "name": "Orvosi rendel\u0151"}}, {"type": "node", "id": 3295505765, "lat": 47.052425, "lon": 16.8063389, "tags": {"amenity": "hospital", "name": "Orvosi rendel\u0151"}}, {"type": "node", "id": 3298224554, "lat": 45.2396042, "lon": 19.7034122, "tags": {"addr:housenumber": "4", "addr:postcode": "21410", "addr:street": "\u0420\u0430\u0434\u0435 \u041a\u043e\u043d\u0434\u0438\u045b\u0430", "amenity": "hospital", "name": "Jugolab Futog", "ref:RS:kucni_broj": "5461434", "website": "https://jugolab.rs/"}}, {"type": "node", "id": 3298242022, "lat": 45.771903, "lon": 19.1173012, "tags": {"addr:city": "Sombor", "addr:housenumber": "6", "addr:postcode": "25000", "addr:street": "\u041c\u0438\u0440\u043d\u0430", "amenity": "hospital", "healthcare": "hospital", "name": "Jugolab Sombor", "phone": "+381 (025) 515-0059", "ref:RS:kucni_broj": "5163434", "website": "https://jugolab.rs/"}}, {"type": "node", "id": 3298275622, "lat": 46.0873878, "lon": 19.6682771, "tags": {"addr:city": "Subotica", "addr:housenumber": "70", "addr:postcode": "24000", "addr:street": "\u0411\u0435\u043e\u0433\u0440\u0430\u0434\u0441\u043a\u0438 \u043f\u0443\u0442", "amenity": "hospital", "name": "Jugolab Subotica", "phone": "+381 (24) 415-0010;415-0011", "ref:RS:kucni_broj": "5430547", "website": "https://www.jugolab.rs/"}}, {"type": "node", "id": 3298279215, "lat": 45.6107748, "lon": 19.5287628, "tags": {"addr:city": "Kula", "addr:housenumber": "24", "addr:postcode": "25230", "addr:street": "\u041b\u0435\u045a\u0438\u043d\u043e\u0432\u0430", "amenity": "hospital", "name": "Jugolab Kula", "phone": "+381 (25) 515-0190;515-0191", "website": "https://jugolab.rs/"}}, {"type": "node", "id": 3299929997, "lat": 45.1146307, "lon": 18.5365382, "tags": {"amenity": "hospital", "name": "Ordinacija op\u0107e medicine"}}, {"type": "node", "id": 3342055606, "lat": 49.9430279, "lon": 15.8074317, "tags": {"amenity": "hospital", "emergency": "yes", "healthcare": "hospital", "name": "Pohotovost"}}, {"type": "node", "id": 3342451831, "lat": 40.8170747, "lon": 16.4207353, "tags": {"amenity": "hospital", "name": "Pronto Soccorso"}}, {"type": "node", "id": 3354040309, "lat": 40.8169898, "lon": 16.4209533, "tags": {"amenity": "hospital", "name": "Guardia Medica"}}, {"type": "node", "id": 3361796794, "lat": 44.8802925, "lon": 11.4143207, "tags": {"amenity": "hospital", "emergency": "no", "healthcare": "hospital", "name": "Ospedale Fratelli Borselli"}}, {"type": "node", "id": 3384733654, "lat": 44.518358, "lon": 10.2007578, "tags": {"addr:city": "Tizzano Val Parma", "addr:housenumber": "12", "addr:street": "Via Aldo Moro", "amenity": "hospital", "healthcare": "hospital", "name": "Croce Rossa (Pronto Soccorso)", "phone": "+39 521 867129"}},