{"version": 0.6, "generator": "Overpass API 0.7.61.5 4133829e", "osm3s": {"timestamp_osm_base": "2023-10-31T21:04:00Z", "copyright": "The data included in this document is from www.openstreetmap.org. The data is made available under ODbL."}, "elements": [{"type": "node", "id": 6595371785, "lat": 61.9954132, "lon": -49.6659167, "tags": {"amenity": "hospital", "healthcare": "hospital", "name:en": "Hospital"}}, {"type": "way", "id": 182444349, "center": {"lat": 60.1497185, "lon": -44.2845133}, "nodes": [1927940567, 1927940578, 1927940592, 1927940597, 1927940567], "tags": {"addr:city": "Aappilattoq", "addr:housenumber": "B-1438", "addr:postcode": "3922", "amenity": "hospital", "building": "public"}}, {"type": "way", "id": 196193984, "center": {"lat": 60.4618138, "lon": -45.5675017}, "nodes": [2065464029, 2065464023, 2065464026, 2065464032, 2065464029], "tags": {"amenity": "hospital", "healthcare": "hospital"}}, {"type": "way", "id": 235195473, "center": {"lat": 60.1434329, "lon": -45.2344347}, "nodes": [2432704233, 2432704234, 2432704235, 2432704236, 2432704237, 2432704238, 2432704239, 2432704240, 2432704241, 2432704242, 2432704243, 2432704244, 2432704233], "tags": {"amenity": "hospital", "building": "yes", "healthcare": "hospital"}}, {"type": "way", "id": 235818732, "center": {"lat": 60.6239744, "lon": -45.9113832}, "nodes": [2438934102, 2438934103, 2438934104, 2438934105, 2438934106, 2438934107, 2438934102], "tags": {"addr:city": "Eqalugaarsuit", "addr:housenumber": "B-1344", "addr:postcode": "3920", "amenity": "hospital"}}, {"type": "way", "id": 299735513, "center": {"lat": 60.7227595, "lon": -46.0442288}, "nodes": [3037704944, 3037702223, 3037704935, 3037704958, 3037704978, 3037702227, 3037704944], "tags": {"amenity": "hospital", "emergency": "yes", "healthcare": "hospital", "healthcare:speciality": "general;emergency", "operator": "Peqqik"}}, {"type": "way", "id": 382306052, "center": {"lat": 60.5374228, "lon": -46.0260701}, "nodes": [3854987893, 3854987894, 3854987895, 3854987896, 3854987893], "tags": {"addr:city": "Saarloq", "addr:housenumber": "B-1038", "addr:postcode": "3920", "amenity": "hospital"}}, {"type": "way", "id": 511802113, "center": {"lat": 60.9111135, "lon": -46.0535122}, "nodes": [5005568296, 5084339081, 5084339082, 5005568297, 5005568298, 5005568299, 5005568296], "tags": {"amenity": "hospital", "building": "public", "healthcare": "hospital", "wikimedia_commons": "File:Narsaq Hospital.jpg"}}, {"type": "way", "id": 528706954, "center": {"lat": 60.1940132, "lon": -44.8141173}, "nodes": [5137354513, 5137354516, 5137354517, 5137354512, 5137354513], "tags": {"addr:city": "Tasiusaq", "addr:housenumber": "B-1516", "addr:postcode": "3922", "amenity": "hospital", "healthcare": "hospital"}}, {"type": "way", "id": 529477035, "center": {"lat": 61.1561627, "lon": -45.4239199}, "nodes": [5143221872, 5143221873, 5118647503, 5118647502, 5143221872], "tags": {"amenity": "hospital", "healthcare": "hospital"}}]}